[{"name": "Oscarville", "state": "AK", "lat": "60.7287", "lng": "-161.7730"}, {"name": "Kasaan", "state": "AK", "lat": "55.5573", "lng": "-132.4137"}, {"name": "Mountain Village", "state": "AK", "lat": "62.0911", "lng": "-163.7209"}, {"name": "Tanana", "state": "AK", "lat": "65.1746", "lng": "-152.0684"}, {"name": "Rampart", "state": "AK", "lat": "65.4087", "lng": "-149.9916"}, {"name": "Moose Pass", "state": "AK", "lat": "60.4997", "lng": "-149.4464"}, {"name": "Deltana", "state": "AK", "lat": "63.8724", "lng": "-145.2158"}, {"name": "Atka", "state": "AK", "lat": "52.2301", "lng": "-174.2133"}, {"name": "Sitka", "state": "AK", "lat": "57.2401", "lng": "-135.3153"}, {"name": "Petersburg", "state": "AK", "lat": "56.7566", "lng": "-132.8727"}, {"name": "Aniak", "state": "AK", "lat": "61.5817", "lng": "-159.5451"}, {"name": "Kiana", "state": "AK", "lat": "66.9726", "lng": "-160.4344"}, {"name": "Hydaburg", "state": "AK", "lat": "55.2062", "lng": "-132.8208"}, {"name": "Gulkana", "state": "AK", "lat": "62.2152", "lng": "-145.4449"}, {"name": "Brevig Mission", "state": "AK", "lat": "65.3413", "lng": "-166.4953"}, {"name": "False Pass", "state": "AK", "lat": "54.8415", "lng": "-163.3480"}, {"name": "Northway Village", "state": "AK", "lat": "62.9821", "lng": "-141.9294"}, {"name": "Hobart Bay", "state": "AK", "lat": "57.4212", "lng": "-133.3231"}, {"name": "Livengood", "state": "AK", "lat": "65.4817", "lng": "-148.4171"}, {"name": "Nelson Lagoon", "state": "AK", "lat": "55.8451", "lng": "-161.6103"}, {"name": "Savoonga", "state": "AK", "lat": "63.6797", "lng": "-170.4831"}, {"name": "Lake Minchumina", "state": "AK", "lat": "63.7980", "lng": "-152.3448"}, {"name": "Wrangell", "state": "AK", "lat": "56.3317", "lng": "-132.0223"}, {"name": "Pilot Station", "state": "AK", "lat": "61.9422", "lng": "-162.8828"}, {"name": "Tanacross", "state": "AK", "lat": "63.3523", "lng": "-143.4318"}, {"name": "Point MacKenzie", "state": "AK", "lat": "61.3463", "lng": "-150.0787"}, {"name": "Mertarvik", "state": "AK", "lat": "60.8110", "lng": "-164.4991"}, {"name": "Susitna", "state": "AK", "lat": "61.4970", "lng": "-150.6220"}, {"name": "Port Protection", "state": "AK", "lat": "56.3293", "lng": "-133.5940"}, {"name": "Coldfoot", "state": "AK", "lat": "67.2475", "lng": "-150.1079"}, {"name": "Mosquito Lake", "state": "AK", "lat": "59.4710", "lng": "-136.1458"}, {"name": "Napaskiak", "state": "AK", "lat": "60.7019", "lng": "-161.7616"}, {"name": "Anaktuvuk Pass", "state": "AK", "lat": "68.1500", "lng": "-151.7162"}, {"name": "Tuluksak", "state": "AK", "lat": "61.1050", "lng": "-160.9493"}, {"name": "Mendeltna", "state": "AK", "lat": "62.1359", "lng": "-146.5388"}, {"name": "Golovin", "state": "AK", "lat": "64.5638", "lng": "-162.9988"}, {"name": "Shageluk", "state": "AK", "lat": "62.6684", "lng": "-159.5630"}, {"name": "Noorvik", "state": "AK", "lat": "66.8292", "lng": "-161.0377"}, {"name": "Seward", "state": "AK", "lat": "60.1124", "lng": "-149.3925"}, {"name": "Nikolaevsk", "state": "AK", "lat": "59.8295", "lng": "-151.5964"}, {"name": "Susitna North", "state": "AK", "lat": "62.1281", "lng": "-149.8593"}, {"name": "Salamatof", "state": "AK", "lat": "60.6154", "lng": "-151.3159"}, {"name": "Tazlina", "state": "AK", "lat": "62.0536", "lng": "-145.4362"}, {"name": "Iliamna", "state": "AK", "lat": "59.7957", "lng": "-154.8698"}, {"name": "Gambell", "state": "AK", "lat": "63.7538", "lng": "-171.6881"}, {"name": "Nunapitchuk", "state": "AK", "lat": "60.8772", "lng": "-162.4615"}, {"name": "Cooper Landing", "state": "AK", "lat": "60.4945", "lng": "-149.8409"}, {"name": "Naukati Bay", "state": "AK", "lat": "55.8801", "lng": "-133.1992"}, {"name": "Farmers Loop", "state": "AK", "lat": "64.9061", "lng": "-147.6957"}, {"name": "Trapper Creek", "state": "AK", "lat": "62.3189", "lng": "-150.3965"}, {"name": "Dot Lake", "state": "AK", "lat": "63.5749", "lng": "-144.1815"}, {"name": "Chistochina", "state": "AK", "lat": "62.5921", "lng": "-144.8136"}, {"name": "Denali Park", "state": "AK", "lat": "63.5909", "lng": "-148.7107"}, {"name": "Kaltag", "state": "AK", "lat": "64.3223", "lng": "-158.7436"}, {"name": "Glennallen", "state": "AK", "lat": "62.1278", "lng": "-145.7693"}, {"name": "Beluga", "state": "AK", "lat": "61.1869", "lng": "-151.1637"}, {"name": "King Salmon", "state": "AK", "lat": "58.7530", "lng": "-156.5061"}, {"name": "Point Possession", "state": "AK", "lat": "60.9228", "lng": "-150.6891"}, {"name": "North Pole", "state": "AK", "lat": "64.7530", "lng": "-147.3600"}, {"name": "Hooper Bay", "state": "AK", "lat": "61.5262", "lng": "-166.1146"}, {"name": "Ferry", "state": "AK", "lat": "64.0496", "lng": "-148.9205"}, {"name": "Talkeetna", "state": "AK", "lat": "62.2753", "lng": "-150.0814"}, {"name": "St. Paul", "state": "AK", "lat": "57.1815", "lng": "-170.2743"}, {"name": "Kotlik", "state": "AK", "lat": "63.0305", "lng": "-163.5531"}, {"name": "Chignik Lagoon", "state": "AK", "lat": "56.3041", "lng": "-158.5004"}, {"name": "Coffman Cove", "state": "AK", "lat": "56.0057", "lng": "-132.8395"}, {"name": "White Mountain", "state": "AK", "lat": "64.6812", "lng": "-163.4228"}, {"name": "Meadow Lakes", "state": "AK", "lat": "61.6380", "lng": "-149.6080"}, {"name": "Port Lions", "state": "AK", "lat": "57.8754", "lng": "-152.8745"}, {"name": "Bethel", "state": "AK", "lat": "60.7928", "lng": "-161.7917"}, {"name": "Sutton-Alpine", "state": "AK", "lat": "61.7429", "lng": "-148.8542"}, {"name": "Point Hope", "state": "AK", "lat": "68.3445", "lng": "-166.6738"}, {"name": "Kwigillingok", "state": "AK", "lat": "59.8767", "lng": "-163.1717"}, {"name": "Knik-Fairview", "state": "AK", "lat": "61.4964", "lng": "-149.6535"}, {"name": "Nikiski", "state": "AK", "lat": "60.7152", "lng": "-151.2317"}, {"name": "Sand Point", "state": "AK", "lat": "55.3227", "lng": "-160.4834"}, {"name": "Kodiak", "state": "AK", "lat": "57.7934", "lng": "-152.4060"}, {"name": "Kachemak", "state": "AK", "lat": "59.6745", "lng": "-151.4364"}, {"name": "Farm Loop", "state": "AK", "lat": "61.6394", "lng": "-149.1471"}, {"name": "Houston", "state": "AK", "lat": "61.6159", "lng": "-149.8003"}, {"name": "King Cove", "state": "AK", "lat": "55.0858", "lng": "-162.2979"}, {"name": "Elim", "state": "AK", "lat": "64.6184", "lng": "-162.2762"}, {"name": "Klukwan", "state": "AK", "lat": "59.3987", "lng": "-135.8886"}, {"name": "Knik River", "state": "AK", "lat": "61.4606", "lng": "-148.9155"}, {"name": "Bear Creek", "state": "AK", "lat": "60.2071", "lng": "-149.3524"}, {"name": "Lake Louise", "state": "AK", "lat": "62.3131", "lng": "-146.5625"}, {"name": "Lower Kalskag", "state": "AK", "lat": "61.5163", "lng": "-160.3556"}, {"name": "Covenant Life", "state": "AK", "lat": "59.3998", "lng": "-136.0946"}, {"name": "McGrath", "state": "AK", "lat": "62.9424", "lng": "-155.5630"}, {"name": "Shishmaref", "state": "AK", "lat": "66.2372", "lng": "-166.1027"}, {"name": "Delta Junction", "state": "AK", "lat": "64.0604", "lng": "-145.7058"}, {"name": "Fairbanks", "state": "AK", "lat": "64.8353", "lng": "-147.6534"}, {"name": "Big Lake", "state": "AK", "lat": "61.5260", "lng": "-149.9721"}, {"name": "Venetie", "state": "AK", "lat": "67.0205", "lng": "-146.3750"}, {"name": "Wales", "state": "AK", "lat": "65.6119", "lng": "-168.0773"}, {"name": "Paxson", "state": "AK", "lat": "63.0111", "lng": "-145.7312"}, {"name": "Grayling", "state": "AK", "lat": "62.8998", "lng": "-160.1078"}, {"name": "Kasigluk", "state": "AK", "lat": "60.8785", "lng": "-162.5272"}, {"name": "Aleneva", "state": "AK", "lat": "58.0590", "lng": "-152.9091"}, {"name": "Napakiak", "state": "AK", "lat": "60.6920", "lng": "-161.9790"}, {"name": "Portage Creek", "state": "AK", "lat": "58.9049", "lng": "-157.6691"}, {"name": "Teller", "state": "AK", "lat": "65.2531", "lng": "-166.3420"}, {"name": "Nabesna", "state": "AK", "lat": "62.4606", "lng": "-143.0402"}, {"name": "Thorne Bay", "state": "AK", "lat": "55.6652", "lng": "-132.5337"}, {"name": "Akiachak", "state": "AK", "lat": "60.9209", "lng": "-161.4020"}, {"name": "Hollis", "state": "AK", "lat": "55.5113", "lng": "-132.7023"}, {"name": "Chisana", "state": "AK", "lat": "62.0946", "lng": "-142.0340"}, {"name": "Stevens Village", "state": "AK", "lat": "66.0250", "lng": "-149.0803"}, {"name": "Kupreanof", "state": "AK", "lat": "56.8089", "lng": "-132.9889"}, {"name": "Alcan Border", "state": "AK", "lat": "62.6727", "lng": "-141.1321"}, {"name": "Stony River", "state": "AK", "lat": "61.7937", "lng": "-156.5861"}, {"name": "Metlakatla", "state": "AK", "lat": "55.1182", "lng": "-131.5688"}, {"name": "Chignik Lake", "state": "AK", "lat": "56.2631", "lng": "-158.8049"}, {"name": "Galena", "state": "AK", "lat": "64.7381", "lng": "-156.8635"}, {"name": "Kwethluk", "state": "AK", "lat": "60.7978", "lng": "-161.4147"}, {"name": "Sunrise", "state": "AK", "lat": "60.8701", "lng": "-149.4678"}, {"name": "McCarthy", "state": "AK", "lat": "61.4539", "lng": "-142.8648"}, {"name": "Valdez", "state": "AK", "lat": "61.0963", "lng": "-146.2596"}, {"name": "Wasilla", "state": "AK", "lat": "61.5770", "lng": "-149.4661"}, {"name": "Wainwright", "state": "AK", "lat": "70.6380", "lng": "-159.9713"}, {"name": "Eagle", "state": "AK", "lat": "64.7813", "lng": "-141.1978"}, {"name": "New Stuyahok", "state": "AK", "lat": "59.4762", "lng": "-157.2710"}, {"name": "Saxman", "state": "AK", "lat": "55.3232", "lng": "-131.5891"}, {"name": "Eagle Village", "state": "AK", "lat": "64.7434", "lng": "-141.1138"}, {"name": "Unalakleet", "state": "AK", "lat": "63.8922", "lng": "-160.7860"}, {"name": "Sleetmute", "state": "AK", "lat": "61.6516", "lng": "-157.1251"}, {"name": "Whittier", "state": "AK", "lat": "60.7852", "lng": "-148.6455"}, {"name": "Ambler", "state": "AK", "lat": "67.0897", "lng": "-157.8725"}, {"name": "Four Mile Road", "state": "AK", "lat": "64.6046", "lng": "-149.1223"}, {"name": "Prudhoe Bay", "state": "AK", "lat": "70.3128", "lng": "-148.6957"}, {"name": "Russian Mission", "state": "AK", "lat": "61.7825", "lng": "-161.3567"}, {"name": "Nikolski", "state": "AK", "lat": "53.0133", "lng": "-168.7536"}, {"name": "Pelican", "state": "AK", "lat": "57.9577", "lng": "-136.2176"}, {"name": "Fort Yukon", "state": "AK", "lat": "66.5806", "lng": "-145.2416"}, {"name": "Gustavus", "state": "AK", "lat": "58.4275", "lng": "-135.7492"}, {"name": "Game Creek", "state": "AK", "lat": "58.0553", "lng": "-135.5080"}, {"name": "Koliganek", "state": "AK", "lat": "59.6971", "lng": "-157.2259"}, {"name": "Goldstream", "state": "AK", "lat": "64.9339", "lng": "-148.0083"}, {"name": "Kodiak Station", "state": "AK", "lat": "57.7451", "lng": "-152.5443"}, {"name": "Northway Junction", "state": "AK", "lat": "63.0136", "lng": "-141.7725"}, {"name": "Kivalina", "state": "AK", "lat": "67.7330", "lng": "-164.5212"}, {"name": "Nome", "state": "AK", "lat": "64.5213", "lng": "-165.4053"}, {"name": "Atmautluak", "state": "AK", "lat": "60.8622", "lng": "-162.2858"}, {"name": "Fox River", "state": "AK", "lat": "59.8722", "lng": "-150.9984"}, {"name": "Tok", "state": "AK", "lat": "63.3290", "lng": "-143.0380"}, {"name": "Manley Hot Springs", "state": "AK", "lat": "65.0188", "lng": "-150.6452"}, {"name": "Whale Pass", "state": "AK", "lat": "56.1053", "lng": "-133.1244"}, {"name": "Evansville", "state": "AK", "lat": "66.9205", "lng": "-151.4203"}, {"name": "Ivanof Bay", "state": "AK", "lat": "55.9183", "lng": "-159.4933"}, {"name": "Perryville", "state": "AK", "lat": "55.9315", "lng": "-159.1559"}, {"name": "Haines", "state": "AK", "lat": "59.2417", "lng": "-135.4549"}, {"name": "Ketchikan", "state": "AK", "lat": "55.3556", "lng": "-131.6698"}, {"name": "Newhalen", "state": "AK", "lat": "59.7270", "lng": "-154.8970"}, {"name": "Eielson AFB", "state": "AK", "lat": "64.6741", "lng": "-147.0605"}, {"name": "Manokotak", "state": "AK", "lat": "58.8929", "lng": "-158.9109"}, {"name": "Kaktovik", "state": "AK", "lat": "70.1231", "lng": "-143.6257"}, {"name": "Port Clarence", "state": "AK", "lat": "65.1108", "lng": "-166.7683"}, {"name": "Ekwok", "state": "AK", "lat": "59.3462", "lng": "-157.4861"}, {"name": "College", "state": "AK", "lat": "64.8694", "lng": "-147.8217"}, {"name": "Whitestone", "state": "AK", "lat": "64.1528", "lng": "-145.9061"}, {"name": "Nikolai", "state": "AK", "lat": "63.0095", "lng": "-154.3763"}, {"name": "Koyukuk", "state": "AK", "lat": "64.9008", "lng": "-157.6946"}, {"name": "Northway", "state": "AK", "lat": "62.9479", "lng": "-141.8322"}, {"name": "Craig", "state": "AK", "lat": "55.4913", "lng": "-133.1165"}, {"name": "Old Harbor", "state": "AK", "lat": "57.2169", "lng": "-153.3252"}, {"name": "Harding-Birch Lakes", "state": "AK", "lat": "64.3711", "lng": "-146.5999"}, {"name": "Mekoryuk", "state": "AK", "lat": "60.3704", "lng": "-166.2668"}, {"name": "Juneau", "state": "AK", "lat": "58.4546", "lng": "-134.1739"}, {"name": "Aleknagik", "state": "AK", "lat": "59.2946", "lng": "-158.6896"}, {"name": "Red Dog Mine", "state": "AK", "lat": "68.0645", "lng": "-162.8668"}, {"name": "Nunam Iqua", "state": "AK", "lat": "62.5110", "lng": "-164.8998"}, {"name": "Goodnews Bay", "state": "AK", "lat": "59.1272", "lng": "-161.5754"}, {"name": "Lime Village", "state": "AK", "lat": "61.3270", "lng": "-155.3180"}, {"name": "Halibut Cove", "state": "AK", "lat": "59.5744", "lng": "-151.2296"}, {"name": "Chitina", "state": "AK", "lat": "61.5276", "lng": "-144.2991"}, {"name": "Minto", "state": "AK", "lat": "65.1033", "lng": "-149.5565"}, {"name": "Fritz Creek", "state": "AK", "lat": "59.7470", "lng": "-151.2884"}, {"name": "Chalkyitsik", "state": "AK", "lat": "66.6468", "lng": "-143.7822"}, {"name": "Alakanuk", "state": "AK", "lat": "62.6902", "lng": "-164.6305"}, {"name": "Skwentna", "state": "AK", "lat": "61.9314", "lng": "-151.2095"}, {"name": "Twin Hills", "state": "AK", "lat": "59.0815", "lng": "-160.2826"}, {"name": "Lakes", "state": "AK", "lat": "61.6053", "lng": "-149.3067"}, {"name": "Unalaska", "state": "AK", "lat": "53.8984", "lng": "-166.5680"}, {"name": "Eureka Roadhouse", "state": "AK", "lat": "61.9648", "lng": "-147.1523"}, {"name": "Point Baker", "state": "AK", "lat": "56.3482", "lng": "-133.6167"}, {"name": "Port Alsworth", "state": "AK", "lat": "60.1688", "lng": "-154.3233"}, {"name": "Chicken", "state": "AK", "lat": "64.0877", "lng": "-141.8283"}, {"name": "Karluk", "state": "AK", "lat": "57.5845", "lng": "-154.3255"}, {"name": "Anvik", "state": "AK", "lat": "62.6541", "lng": "-160.2140"}, {"name": "Circle", "state": "AK", "lat": "65.7936", "lng": "-144.1813"}, {"name": "Alatna", "state": "AK", "lat": "66.5638", "lng": "-152.8392"}, {"name": "Hope", "state": "AK", "lat": "60.8924", "lng": "-149.6351"}, {"name": "Kake", "state": "AK", "lat": "56.9727", "lng": "-133.9145"}, {"name": "Lazy Mountain", "state": "AK", "lat": "61.6516", "lng": "-148.9020"}, {"name": "Anchor Point", "state": "AK", "lat": "59.7703", "lng": "-151.7052"}, {"name": "Tonsina", "state": "AK", "lat": "61.5617", "lng": "-145.0656"}, {"name": "Diamond Ridge", "state": "AK", "lat": "59.7024", "lng": "-151.5545"}, {"name": "Silver Springs", "state": "AK", "lat": "62.0193", "lng": "-145.3584"}, {"name": "Cordova", "state": "AK", "lat": "60.5348", "lng": "-145.6092"}, {"name": "Chiniak", "state": "AK", "lat": "57.5775", "lng": "-152.2743"}, {"name": "Whitestone Logging Camp", "state": "AK", "lat": "58.0652", "lng": "-135.4200"}, {"name": "Diomede", "state": "AK", "lat": "65.7536", "lng": "-168.9219"}, {"name": "Salcha", "state": "AK", "lat": "64.5272", "lng": "-146.9040"}, {"name": "Kokhanok", "state": "AK", "lat": "59.4157", "lng": "-154.7454"}, {"name": "Igiugig", "state": "AK", "lat": "59.3056", "lng": "-155.8737"}, {"name": "Fort Greely", "state": "AK", "lat": "63.9678", "lng": "-145.7149"}, {"name": "Kasilof", "state": "AK", "lat": "60.3310", "lng": "-151.2293"}, {"name": "Ninilchik", "state": "AK", "lat": "60.0745", "lng": "-151.3843"}, {"name": "Tatitlek", "state": "AK", "lat": "60.8921", "lng": "-146.6727"}, {"name": "Akutan", "state": "AK", "lat": "54.1594", "lng": "-165.7328"}, {"name": "Port Alexander", "state": "AK", "lat": "56.2346", "lng": "-134.6532"}, {"name": "Loring", "state": "AK", "lat": "55.6064", "lng": "-131.6405"}, {"name": "Lowell Point", "state": "AK", "lat": "60.0629", "lng": "-149.4898"}, {"name": "Akiak", "state": "AK", "lat": "60.9061", "lng": "-161.2122"}, {"name": "Pleasant Valley", "state": "AK", "lat": "64.8854", "lng": "-146.8986"}, {"name": "Badger", "state": "AK", "lat": "64.8006", "lng": "-147.3877"}, {"name": "Yakutat", "state": "AK", "lat": "59.5670", "lng": "-139.5966"}, {"name": "Womens Bay", "state": "AK", "lat": "57.6960", "lng": "-152.6276"}, {"name": "Ouzinkie", "state": "AK", "lat": "57.9222", "lng": "-152.4674"}, {"name": "Birch Creek", "state": "AK", "lat": "66.2686", "lng": "-145.8698"}, {"name": "Butte", "state": "AK", "lat": "61.5539", "lng": "-149.0035"}, {"name": "Bettles", "state": "AK", "lat": "66.9084", "lng": "-151.5369"}, {"name": "Willow", "state": "AK", "lat": "61.8157", "lng": "-149.7530"}, {"name": "Soldotna", "state": "AK", "lat": "60.4862", "lng": "-151.0671"}, {"name": "Scammon Bay", "state": "AK", "lat": "61.8420", "lng": "-165.5833"}, {"name": "St. George", "state": "AK", "lat": "56.5791", "lng": "-169.6114"}, {"name": "Kalifornsky", "state": "AK", "lat": "60.4417", "lng": "-151.1972"}, {"name": "Mentasta Lake", "state": "AK", "lat": "62.9867", "lng": "-143.5191"}, {"name": "Healy", "state": "AK", "lat": "63.9454", "lng": "-149.0152"}, {"name": "Kotzebue", "state": "AK", "lat": "66.8766", "lng": "-162.5231"}, {"name": "Fishhook", "state": "AK", "lat": "61.7110", "lng": "-149.2657"}, {"name": "Platinum", "state": "AK", "lat": "58.9780", "lng": "-161.7185"}, {"name": "Cohoe", "state": "AK", "lat": "60.2681", "lng": "-151.2843"}, {"name": "Pitkas Point", "state": "AK", "lat": "62.0374", "lng": "-163.2681"}, {"name": "Stebbins", "state": "AK", "lat": "63.4705", "lng": "-162.2599"}, {"name": "Steele Creek", "state": "AK", "lat": "64.9295", "lng": "-147.3955"}, {"name": "Upper Kalskag", "state": "AK", "lat": "61.5416", "lng": "-160.3337"}, {"name": "Ruby", "state": "AK", "lat": "64.7233", "lng": "-155.5005"}, {"name": "Homer", "state": "AK", "lat": "59.6530", "lng": "-151.5255"}, {"name": "Akhiok", "state": "AK", "lat": "56.9450", "lng": "-154.2151"}, {"name": "Hughes", "state": "AK", "lat": "66.0452", "lng": "-154.2376"}, {"name": "Egegik", "state": "AK", "lat": "58.2181", "lng": "-157.4036"}, {"name": "Cold Bay", "state": "AK", "lat": "55.2122", "lng": "-162.7475"}, {"name": "Nightmute", "state": "AK", "lat": "60.4874", "lng": "-164.8195"}, {"name": "Chefornak", "state": "AK", "lat": "60.1550", "lng": "-164.2550"}, {"name": "Nondalton", "state": "AK", "lat": "59.9711", "lng": "-154.8626"}, {"name": "Beaver", "state": "AK", "lat": "66.3830", "lng": "-147.3219"}, {"name": "Noatak", "state": "AK", "lat": "67.5987", "lng": "-163.0309"}, {"name": "Chase", "state": "AK", "lat": "62.4624", "lng": "-149.9371"}, {"name": "Kipnuk", "state": "AK", "lat": "59.9363", "lng": "-164.0613"}, {"name": "Dot Lake Village", "state": "AK", "lat": "63.6622", "lng": "-144.0160"}, {"name": "Clark's Point", "state": "AK", "lat": "58.8329", "lng": "-158.5276"}, {"name": "Ester", "state": "AK", "lat": "64.8646", "lng": "-148.0916"}, {"name": "Clam Gulch", "state": "AK", "lat": "60.2001", "lng": "-151.3939"}, {"name": "Big Delta", "state": "AK", "lat": "64.1486", "lng": "-145.7453"}, {"name": "Sterling", "state": "AK", "lat": "60.5405", "lng": "-150.8089"}, {"name": "Hyder", "state": "AK", "lat": "55.9816", "lng": "-130.0383"}, {"name": "Deering", "state": "AK", "lat": "66.0723", "lng": "-162.7437"}, {"name": "Mud Bay", "state": "AK", "lat": "59.1517", "lng": "-135.3584"}, {"name": "Ridgeway", "state": "AK", "lat": "60.5305", "lng": "-151.0301"}, {"name": "Toksook Bay", "state": "AK", "lat": "60.5333", "lng": "-165.1557"}, {"name": "Funny River", "state": "AK", "lat": "60.4873", "lng": "-150.7807"}, {"name": "Chenega", "state": "AK", "lat": "60.0757", "lng": "-148.0194"}, {"name": "Tununak", "state": "AK", "lat": "60.5790", "lng": "-165.2077"}, {"name": "Kobuk", "state": "AK", "lat": "66.9310", "lng": "-156.8934"}, {"name": "Newtok", "state": "AK", "lat": "60.9341", "lng": "-164.6385"}, {"name": "Lutak", "state": "AK", "lat": "59.3997", "lng": "-135.6314"}, {"name": "Pope-Vannoy Landing", "state": "AK", "lat": "59.5649", "lng": "-154.4652"}, {"name": "Nuiqsut", "state": "AK", "lat": "70.2135", "lng": "-150.9897"}, {"name": "Nulato", "state": "AK", "lat": "64.7052", "lng": "-158.2382"}, {"name": "Edna Bay", "state": "AK", "lat": "55.9640", "lng": "-133.6662"}, {"name": "Wiseman", "state": "AK", "lat": "67.4371", "lng": "-150.1334"}, {"name": "Nenana", "state": "AK", "lat": "64.5384", "lng": "-149.0859"}, {"name": "Larsen Bay", "state": "AK", "lat": "57.5404", "lng": "-154.0056"}, {"name": "South Naknek", "state": "AK", "lat": "58.6637", "lng": "-156.9908"}, {"name": "Tuntutuliak", "state": "AK", "lat": "60.3843", "lng": "-162.6838"}, {"name": "Hoonah", "state": "AK", "lat": "58.1116", "lng": "-135.4244"}, {"name": "Tyonek", "state": "AK", "lat": "61.0734", "lng": "-151.3331"}, {"name": "Chevak", "state": "AK", "lat": "61.5296", "lng": "-165.5941"}, {"name": "Tolsona", "state": "AK", "lat": "62.0844", "lng": "-146.0920"}, {"name": "Eek", "state": "AK", "lat": "60.2164", "lng": "-162.0329"}, {"name": "Emmonak", "state": "AK", "lat": "62.7762", "lng": "-164.5157"}, {"name": "Kongiganak", "state": "AK", "lat": "59.9580", "lng": "-162.8832"}, {"name": "Seldovia", "state": "AK", "lat": "59.4396", "lng": "-151.7111"}, {"name": "South Van Horn", "state": "AK", "lat": "64.8091", "lng": "-147.7854"}, {"name": "Holy Cross", "state": "AK", "lat": "62.1868", "lng": "-159.8198"}, {"name": "Tanaina", "state": "AK", "lat": "61.6560", "lng": "-149.4272"}, {"name": "Happy Valley", "state": "AK", "lat": "59.9137", "lng": "-151.6072"}, {"name": "Pedro Bay", "state": "AK", "lat": "59.7822", "lng": "-154.1236"}, {"name": "Fox", "state": "AK", "lat": "64.9749", "lng": "-147.6090"}, {"name": "Buckland", "state": "AK", "lat": "65.9784", "lng": "-161.1341"}, {"name": "Gateway", "state": "AK", "lat": "61.5737", "lng": "-149.2388"}, {"name": "Crown Point", "state": "AK", "lat": "60.4267", "lng": "-149.3529"}, {"name": "Atqasuk", "state": "AK", "lat": "70.4810", "lng": "-157.3835"}, {"name": "Palmer", "state": "AK", "lat": "61.5971", "lng": "-149.1147"}, {"name": "Willow Creek", "state": "AK", "lat": "61.8337", "lng": "-145.1837"}, {"name": "Primrose", "state": "AK", "lat": "60.3497", "lng": "-149.3199"}, {"name": "Central", "state": "AK", "lat": "65.5213", "lng": "-144.6409"}, {"name": "Togiak", "state": "AK", "lat": "59.0693", "lng": "-160.4727"}, {"name": "Tetlin", "state": "AK", "lat": "63.1481", "lng": "-142.4947"}, {"name": "Anchorage", "state": "AK", "lat": "61.1508", "lng": "-149.1091"}, {"name": "Dillingham", "state": "AK", "lat": "59.0550", "lng": "-158.5379"}, {"name": "Chignik", "state": "AK", "lat": "56.3003", "lng": "-158.4132"}, {"name": "Marshall", "state": "AK", "lat": "61.8753", "lng": "-162.0487"}, {"name": "Kenny Lake", "state": "AK", "lat": "61.6644", "lng": "-144.8662"}, {"name": "St. Michael", "state": "AK", "lat": "63.4664", "lng": "-162.1324"}, {"name": "Arctic Village", "state": "AK", "lat": "68.1421", "lng": "-145.4957"}, {"name": "Petersville", "state": "AK", "lat": "62.4227", "lng": "-150.8441"}, {"name": "Ugashik", "state": "AK", "lat": "57.5728", "lng": "-157.1219"}, {"name": "Two Rivers", "state": "AK", "lat": "64.8908", "lng": "-147.0898"}, {"name": "Red Devil", "state": "AK", "lat": "61.7735", "lng": "-157.3460"}, {"name": "Shungnak", "state": "AK", "lat": "66.8805", "lng": "-157.1499"}, {"name": "Anderson", "state": "AK", "lat": "64.3074", "lng": "-149.1562"}, {"name": "Chuathbaluk", "state": "AK", "lat": "61.5746", "lng": "-159.2489"}, {"name": "Seldovia Village", "state": "AK", "lat": "59.4530", "lng": "-151.5905"}, {"name": "Selawik", "state": "AK", "lat": "66.5988", "lng": "-159.9995"}, {"name": "Takotna", "state": "AK", "lat": "62.9823", "lng": "-156.0841"}, {"name": "Attu Station", "state": "AK", "lat": "52.8955", "lng": "173.1230"}, {"name": "Gakona", "state": "AK", "lat": "62.3608", "lng": "-145.2656"}, {"name": "Copper Center", "state": "AK", "lat": "61.9845", "lng": "-145.3544"}, {"name": "Moose Creek", "state": "AK", "lat": "64.7140", "lng": "-147.1639"}, {"name": "Klawock", "state": "AK", "lat": "55.5556", "lng": "-133.0868"}, {"name": "Port Graham", "state": "AK", "lat": "59.3400", "lng": "-151.8464"}, {"name": "Naknek", "state": "AK", "lat": "58.7847", "lng": "-156.8966"}, {"name": "Chena Ridge", "state": "AK", "lat": "64.7941", "lng": "-148.0357"}, {"name": "Nelchina", "state": "AK", "lat": "61.9989", "lng": "-146.8112"}, {"name": "Point Lay", "state": "AK", "lat": "69.7442", "lng": "-162.8678"}, {"name": "Flat", "state": "AK", "lat": "62.4415", "lng": "-158.0405"}, {"name": "Elfin Cove", "state": "AK", "lat": "58.1912", "lng": "-136.3129"}, {"name": "Levelock", "state": "AK", "lat": "59.0683", "lng": "-156.9009"}, {"name": "Dry Creek", "state": "AK", "lat": "63.6255", "lng": "-144.6364"}, {"name": "Buffalo Soapstone", "state": "AK", "lat": "61.7073", "lng": "-149.1095"}, {"name": "Port Heiden", "state": "AK", "lat": "56.9426", "lng": "-158.6047"}, {"name": "Allakaket", "state": "AK", "lat": "66.5506", "lng": "-152.6270"}, {"name": "Tenakee Springs", "state": "AK", "lat": "57.7913", "lng": "-135.1955"}, {"name": "Glacier View", "state": "AK", "lat": "61.8511", "lng": "-147.7764"}, {"name": "Quinhagak", "state": "AK", "lat": "59.7511", "lng": "-161.8993"}, {"name": "Cantwell", "state": "AK", "lat": "63.3790", "lng": "-148.8158"}, {"name": "Chickaloon", "state": "AK", "lat": "61.8040", "lng": "-148.4103"}, {"name": "Excursion Inlet", "state": "AK", "lat": "58.4355", "lng": "-135.3730"}, {"name": "Huslia", "state": "AK", "lat": "65.7002", "lng": "-156.3386"}, {"name": "Healy Lake", "state": "AK", "lat": "64.0281", "lng": "-144.6331"}, {"name": "St. Mary's", "state": "AK", "lat": "62.0718", "lng": "-163.2805"}, {"name": "Pilot Point", "state": "AK", "lat": "57.5585", "lng": "-157.6798"}, {"name": "Nanwalek", "state": "AK", "lat": "59.3302", "lng": "-151.9110"}, {"name": "Angoon", "state": "AK", "lat": "57.4550", "lng": "-134.4978"}, {"name": "Slana", "state": "AK", "lat": "62.6294", "lng": "-143.5670"}, {"name": "Kenai", "state": "AK", "lat": "60.5619", "lng": "-151.1985"}, {"name": "Shaktoolik", "state": "AK", "lat": "64.3573", "lng": "-161.1983"}, {"name": "Koyuk", "state": "AK", "lat": "64.9411", "lng": "-161.1454"}, {"name": "Crooked Creek", "state": "AK", "lat": "61.8439", "lng": "-158.1082"}, {"name": "Skagway", "state": "AK", "lat": "59.4566", "lng": "-135.2927"}, {"name": "Adak", "state": "AK", "lat": "51.8815", "lng": "-176.6295"}]