[{"name": "Moores Mill", "state": "AL", "lat": "34.8491", "lng": "-86.5222"}, {"name": "Sanford", "state": "AL", "lat": "31.3006", "lng": "-86.3975"}, {"name": "Thomasville", "state": "AL", "lat": "31.9111", "lng": "-87.7419"}, {"name": "Smoke Rise", "state": "AL", "lat": "33.8789", "lng": "-86.8241"}, {"name": "Kellyton", "state": "AL", "lat": "32.9791", "lng": "-86.0358"}, {"name": "Town Creek", "state": "AL", "lat": "34.6718", "lng": "-87.4063"}, {"name": "Glencoe", "state": "AL", "lat": "33.9446", "lng": "-85.9319"}, {"name": "Waldo", "state": "AL", "lat": "33.3891", "lng": "-86.0361"}, {"name": "Ashford", "state": "AL", "lat": "31.1858", "lng": "-85.2359"}, {"name": "Gu-Win", "state": "AL", "lat": "33.9443", "lng": "-87.8704"}, {"name": "Oxford", "state": "AL", "lat": "33.5966", "lng": "-85.8690"}, {"name": "Irondale", "state": "AL", "lat": "33.5440", "lng": "-86.6599"}, {"name": "Cowarts", "state": "AL", "lat": "31.2041", "lng": "-85.3062"}, {"name": "Holtville", "state": "AL", "lat": "32.6314", "lng": "-86.3268"}, {"name": "Hackneyville", "state": "AL", "lat": "33.0567", "lng": "-85.9312"}, {"name": "Anniston", "state": "AL", "lat": "33.6713", "lng": "-85.8136"}, {"name": "Gulf Shores", "state": "AL", "lat": "30.2758", "lng": "-87.7014"}, {"name": "Holt", "state": "AL", "lat": "33.2302", "lng": "-87.4827"}, {"name": "Lineville", "state": "AL", "lat": "33.3129", "lng": "-85.7508"}, {"name": "Rockford", "state": "AL", "lat": "32.8895", "lng": "-86.2150"}, {"name": "Sumiton", "state": "AL", "lat": "33.7503", "lng": "-87.0483"}, {"name": "Grimes", "state": "AL", "lat": "31.2999", "lng": "-85.4502"}, {"name": "Loachapoka", "state": "AL", "lat": "32.6049", "lng": "-85.5948"}, {"name": "Gordo", "state": "AL", "lat": "33.3220", "lng": "-87.9040"}, {"name": "Scottsboro", "state": "AL", "lat": "34.6438", "lng": "-86.0491"}, {"name": "Stewartville", "state": "AL", "lat": "33.0725", "lng": "-86.2658"}, {"name": "Louisville", "state": "AL", "lat": "31.7810", "lng": "-85.5583"}, {"name": "Livingston", "state": "AL", "lat": "32.5982", "lng": "-88.1891"}, {"name": "Hillsboro", "state": "AL", "lat": "34.6407", "lng": "-87.1838"}, {"name": "Gordon", "state": "AL", "lat": "31.1436", "lng": "-85.0925"}, {"name": "Nauvoo", "state": "AL", "lat": "33.9873", "lng": "-87.4876"}, {"name": "Vance", "state": "AL", "lat": "33.1746", "lng": "-87.2314"}, {"name": "Grove Hill", "state": "AL", "lat": "31.7033", "lng": "-87.7759"}, {"name": "Grant", "state": "AL", "lat": "34.5189", "lng": "-86.2492"}, {"name": "Lockhart", "state": "AL", "lat": "31.0128", "lng": "-86.3505"}, {"name": "Castleberry", "state": "AL", "lat": "31.3001", "lng": "-87.0270"}, {"name": "Dauphin Island", "state": "AL", "lat": "30.2525", "lng": "-88.1438"}, {"name": "Helena", "state": "AL", "lat": "33.2846", "lng": "-86.8756"}, {"name": "Wilton", "state": "AL", "lat": "33.0813", "lng": "-86.8799"}, {"name": "Uriah", "state": "AL", "lat": "31.3074", "lng": "-87.4992"}, {"name": "Selma", "state": "AL", "lat": "32.4166", "lng": "-87.0336"}, {"name": "Lillian", "state": "AL", "lat": "30.4122", "lng": "-87.4320"}, {"name": "Coffeeville", "state": "AL", "lat": "31.7666", "lng": "-88.0861"}, {"name": "Concord", "state": "AL", "lat": "33.4674", "lng": "-87.0392"}, {"name": "Creola", "state": "AL", "lat": "30.8903", "lng": "-88.0100"}, {"name": "Trussville", "state": "AL", "lat": "33.6404", "lng": "-86.5818"}, {"name": "Walnut Grove", "state": "AL", "lat": "34.0641", "lng": "-86.2864"}, {"name": "Sheffield", "state": "AL", "lat": "34.7559", "lng": "-87.7007"}, {"name": "Brantleyville", "state": "AL", "lat": "33.2196", "lng": "-86.8820"}, {"name": "Columbiana", "state": "AL", "lat": "33.1932", "lng": "-86.6115"}, {"name": "West Jefferson", "state": "AL", "lat": "33.6521", "lng": "-87.0569"}, {"name": "Guntersville", "state": "AL", "lat": "34.3674", "lng": "-86.2635"}, {"name": "Selmont-West Selmont", "state": "AL", "lat": "32.3784", "lng": "-87.0074"}, {"name": "Langston", "state": "AL", "lat": "34.5374", "lng": "-86.0899"}, {"name": "Hollywood", "state": "AL", "lat": "34.7190", "lng": "-85.9650"}, {"name": "Geneva", "state": "AL", "lat": "31.0437", "lng": "-85.8764"}, {"name": "Napier Field", "state": "AL", "lat": "31.3149", "lng": "-85.4550"}, {"name": "Calera", "state": "AL", "lat": "33.1250", "lng": "-86.7451"}, {"name": "Headland", "state": "AL", "lat": "31.3501", "lng": "-85.3523"}, {"name": "Hissop", "state": "AL", "lat": "32.8746", "lng": "-86.1159"}, {"name": "Spanish Fort", "state": "AL", "lat": "30.7257", "lng": "-87.8601"}, {"name": "Enterprise", "state": "AL", "lat": "31.3276", "lng": "-85.8459"}, {"name": "Section", "state": "AL", "lat": "34.5816", "lng": "-85.9849"}, {"name": "Redland", "state": "AL", "lat": "32.4754", "lng": "-86.1375"}, {"name": "Montevallo", "state": "AL", "lat": "33.1254", "lng": "-86.8482"}, {"name": "Glen Allen", "state": "AL", "lat": "33.8922", "lng": "-87.7328"}, {"name": "Magnolia Springs", "state": "AL", "lat": "30.4003", "lng": "-87.7748"}, {"name": "Lexington", "state": "AL", "lat": "34.9652", "lng": "-87.3735"}, {"name": "Dunnavant", "state": "AL", "lat": "33.5006", "lng": "-86.5380"}, {"name": "Cusseta", "state": "AL", "lat": "32.7876", "lng": "-85.3057"}, {"name": "County Line", "state": "AL", "lat": "33.8210", "lng": "-86.7198"}, {"name": "Rock Creek", "state": "AL", "lat": "33.4772", "lng": "-87.0812"}, {"name": "Winfield", "state": "AL", "lat": "33.9324", "lng": "-87.7964"}, {"name": "Warrior", "state": "AL", "lat": "33.8153", "lng": "-86.8153"}, {"name": "Morrison Crossroads", "state": "AL", "lat": "33.4198", "lng": "-85.4903"}, {"name": "McIntosh", "state": "AL", "lat": "31.2649", "lng": "-88.0284"}, {"name": "Pell City", "state": "AL", "lat": "33.5609", "lng": "-86.2668"}, {"name": "Vernon", "state": "AL", "lat": "33.7589", "lng": "-88.1144"}, {"name": "Macedonia", "state": "AL", "lat": "33.4031", "lng": "-88.2392"}, {"name": "Courtland", "state": "AL", "lat": "34.6703", "lng": "-87.3262"}, {"name": "Ardmore", "state": "AL", "lat": "34.9847", "lng": "-86.8373"}, {"name": "Mosses", "state": "AL", "lat": "32.1801", "lng": "-86.6888"}, {"name": "Guin", "state": "AL", "lat": "33.9830", "lng": "-87.9017"}, {"name": "McDonald Chapel", "state": "AL", "lat": "33.5189", "lng": "-86.9385"}, {"name": "Lanett", "state": "AL", "lat": "32.8576", "lng": "-85.2079"}, {"name": "Union", "state": "AL", "lat": "32.9938", "lng": "-87.9071"}, {"name": "Axis", "state": "AL", "lat": "30.9296", "lng": "-88.0180"}, {"name": "Gardendale", "state": "AL", "lat": "33.6679", "lng": "-86.8068"}, {"name": "Smiths Station", "state": "AL", "lat": "32.5284", "lng": "-85.0960"}, {"name": "Orrville", "state": "AL", "lat": "32.3068", "lng": "-87.2454"}, {"name": "Double Springs", "state": "AL", "lat": "34.1496", "lng": "-87.4027"}, {"name": "Horn Hill", "state": "AL", "lat": "31.2382", "lng": "-86.3211"}, {"name": "Opp", "state": "AL", "lat": "31.2848", "lng": "-86.2570"}, {"name": "Lake View", "state": "AL", "lat": "33.2802", "lng": "-87.1257"}, {"name": "Eldridge", "state": "AL", "lat": "33.9220", "lng": "-87.6201"}, {"name": "Theodore", "state": "AL", "lat": "30.5408", "lng": "-88.1884"}, {"name": "Eutaw", "state": "AL", "lat": "32.8436", "lng": "-87.8987"}, {"name": "Thorsby", "state": "AL", "lat": "32.9170", "lng": "-86.7203"}, {"name": "Sylvan Springs", "state": "AL", "lat": "33.5287", "lng": "-87.0312"}, {"name": "Midway", "state": "AL", "lat": "32.0764", "lng": "-85.5244"}, {"name": "New Market", "state": "AL", "lat": "34.8892", "lng": "-86.4226"}, {"name": "Centreville", "state": "AL", "lat": "32.9597", "lng": "-87.1334"}, {"name": "Newton", "state": "AL", "lat": "31.3423", "lng": "-85.5893"}, {"name": "Birmingham", "state": "AL", "lat": "33.5277", "lng": "-86.7987"}, {"name": "Montgomery", "state": "AL", "lat": "32.3473", "lng": "-86.2666"}, {"name": "Somerville", "state": "AL", "lat": "34.4676", "lng": "-86.7936"}, {"name": "Woodstock", "state": "AL", "lat": "33.2194", "lng": "-87.1489"}, {"name": "Jacksonville", "state": "AL", "lat": "33.8088", "lng": "-85.7544"}, {"name": "Moody", "state": "AL", "lat": "33.5986", "lng": "-86.4963"}, {"name": "Arab", "state": "AL", "lat": "34.3309", "lng": "-86.4991"}, {"name": "Dodge City", "state": "AL", "lat": "34.0452", "lng": "-86.8837"}, {"name": "Demopolis", "state": "AL", "lat": "32.4980", "lng": "-87.8298"}, {"name": "Webb", "state": "AL", "lat": "31.2572", "lng": "-85.2896"}, {"name": "Bristow Cove", "state": "AL", "lat": "34.1092", "lng": "-86.2410"}, {"name": "Altoona", "state": "AL", "lat": "34.0310", "lng": "-86.3181"}, {"name": "Highland Lake", "state": "AL", "lat": "33.8876", "lng": "-86.4244"}, {"name": "Decatur", "state": "AL", "lat": "34.5730", "lng": "-86.9905"}, {"name": "Dutton", "state": "AL", "lat": "34.6062", "lng": "-85.9119"}, {"name": "Hackleburg", "state": "AL", "lat": "34.2693", "lng": "-87.8303"}, {"name": "Flomaton", "state": "AL", "lat": "31.0127", "lng": "-87.2541"}, {"name": "Anderson", "state": "AL", "lat": "34.9147", "lng": "-87.2716"}, {"name": "Talladega Springs", "state": "AL", "lat": "33.1191", "lng": "-86.4420"}, {"name": "East Brewton", "state": "AL", "lat": "31.0906", "lng": "-87.0556"}, {"name": "Daviston", "state": "AL", "lat": "33.0557", "lng": "-85.6371"}, {"name": "Pelham", "state": "AL", "lat": "33.3114", "lng": "-86.7573"}, {"name": "Linden", "state": "AL", "lat": "32.3001", "lng": "-87.7926"}, {"name": "McKenzie", "state": "AL", "lat": "31.5429", "lng": "-86.7246"}, {"name": "Marbury", "state": "AL", "lat": "32.6793", "lng": "-86.4607"}, {"name": "Excel", "state": "AL", "lat": "31.4264", "lng": "-87.3433"}, {"name": "Cullman", "state": "AL", "lat": "34.1777", "lng": "-86.8399"}, {"name": "Evergreen", "state": "AL", "lat": "31.4342", "lng": "-86.9723"}, {"name": "Childersburg", "state": "AL", "lat": "33.2962", "lng": "-86.3456"}, {"name": "Oakman", "state": "AL", "lat": "33.7141", "lng": "-87.3890"}, {"name": "Madison", "state": "AL", "lat": "34.7114", "lng": "-86.7626"}, {"name": "Allgood", "state": "AL", "lat": "33.9064", "lng": "-86.5178"}, {"name": "Roanoke", "state": "AL", "lat": "33.1453", "lng": "-85.3694"}, {"name": "Moundville", "state": "AL", "lat": "32.9968", "lng": "-87.6272"}, {"name": "Cullomburg", "state": "AL", "lat": "31.7131", "lng": "-88.2917"}, {"name": "Red Level", "state": "AL", "lat": "31.4055", "lng": "-86.6084"}, {"name": "Nectar", "state": "AL", "lat": "33.9686", "lng": "-86.6346"}, {"name": "Haleyville", "state": "AL", "lat": "34.2349", "lng": "-87.6166"}, {"name": "Tarrant", "state": "AL", "lat": "33.5945", "lng": "-86.7684"}, {"name": "St. Florian", "state": "AL", "lat": "34.8708", "lng": "-87.6222"}, {"name": "Myrtlewood", "state": "AL", "lat": "32.2521", "lng": "-87.9492"}, {"name": "West End-Cobb Town", "state": "AL", "lat": "33.6525", "lng": "-85.8741"}, {"name": "Hurtsboro", "state": "AL", "lat": "32.2401", "lng": "-85.4147"}, {"name": "Littleville", "state": "AL", "lat": "34.5951", "lng": "-87.6719"}, {"name": "Brilliant", "state": "AL", "lat": "34.0254", "lng": "-87.7692"}, {"name": "Franklin", "state": "AL", "lat": "32.4551", "lng": "-85.8066"}, {"name": "Onycha", "state": "AL", "lat": "31.2246", "lng": "-86.2785"}, {"name": "Boykin", "state": "AL", "lat": "32.0701", "lng": "-87.2914"}, {"name": "Stockton", "state": "AL", "lat": "30.9946", "lng": "-87.8600"}, {"name": "Jemison", "state": "AL", "lat": "32.9696", "lng": "-86.7339"}, {"name": "Lipscomb", "state": "AL", "lat": "33.4261", "lng": "-86.9260"}, {"name": "Athens", "state": "AL", "lat": "34.7847", "lng": "-86.9510"}, {"name": "Fairfield", "state": "AL", "lat": "33.4747", "lng": "-86.9194"}, {"name": "Black", "state": "AL", "lat": "31.0102", "lng": "-85.7428"}, {"name": "Saks", "state": "AL", "lat": "33.7119", "lng": "-85.8535"}, {"name": "Petrey", "state": "AL", "lat": "31.8495", "lng": "-86.2057"}, {"name": "Pinckard", "state": "AL", "lat": "31.3173", "lng": "-85.5430"}, {"name": "Andalusia", "state": "AL", "lat": "31.3101", "lng": "-86.4781"}, {"name": "Ashville", "state": "AL", "lat": "33.8331", "lng": "-86.2698"}, {"name": "Abbeville", "state": "AL", "lat": "31.5664", "lng": "-85.2528"}, {"name": "Alexander City", "state": "AL", "lat": "32.9242", "lng": "-85.9361"}, {"name": "Fort Rucker", "state": "AL", "lat": "31.3428", "lng": "-85.7154"}, {"name": "Fulton", "state": "AL", "lat": "31.7916", "lng": "-87.7397"}, {"name": "Clanton", "state": "AL", "lat": "32.8439", "lng": "-86.6230"}, {"name": "Odenville", "state": "AL", "lat": "33.6987", "lng": "-86.4225"}, {"name": "Thomaston", "state": "AL", "lat": "32.2683", "lng": "-87.6237"}, {"name": "Lowndesboro", "state": "AL", "lat": "32.2764", "lng": "-86.6108"}, {"name": "Leesburg", "state": "AL", "lat": "34.1839", "lng": "-85.7750"}, {"name": "Aliceville", "state": "AL", "lat": "33.1237", "lng": "-88.1594"}, {"name": "Bear Creek", "state": "AL", "lat": "34.2651", "lng": "-87.7164"}, {"name": "Carolina", "state": "AL", "lat": "31.2337", "lng": "-86.5227"}, {"name": "Hamilton", "state": "AL", "lat": "34.1346", "lng": "-87.9755"}, {"name": "Akron", "state": "AL", "lat": "32.8785", "lng": "-87.7429"}, {"name": "Jackson", "state": "AL", "lat": "31.5318", "lng": "-87.8915"}, {"name": "Midfield", "state": "AL", "lat": "33.4552", "lng": "-86.9227"}, {"name": "Argo", "state": "AL", "lat": "33.6962", "lng": "-86.5065"}, {"name": "North Courtland", "state": "AL", "lat": "34.6788", "lng": "-87.3083"}, {"name": "Daleville", "state": "AL", "lat": "31.2915", "lng": "-85.7117"}, {"name": "Goldville", "state": "AL", "lat": "33.0841", "lng": "-85.7831"}, {"name": "Mignon", "state": "AL", "lat": "33.1948", "lng": "-86.2651"}, {"name": "Harpersville", "state": "AL", "lat": "33.3184", "lng": "-86.4287"}, {"name": "Vinegar Bend", "state": "AL", "lat": "31.2594", "lng": "-88.3712"}, {"name": "Wetumpka", "state": "AL", "lat": "32.5405", "lng": "-86.2053"}, {"name": "Citronelle", "state": "AL", "lat": "31.0952", "lng": "-88.2467"}, {"name": "Hartford", "state": "AL", "lat": "31.1055", "lng": "-85.6916"}, {"name": "Tuscaloosa", "state": "AL", "lat": "33.2348", "lng": "-87.5266"}, {"name": "Bay Minette", "state": "AL", "lat": "30.8930", "lng": "-87.7912"}, {"name": "Hayneville", "state": "AL", "lat": "32.1821", "lng": "-86.5787"}, {"name": "Hatton", "state": "AL", "lat": "34.5611", "lng": "-87.4136"}, {"name": "Hoover", "state": "AL", "lat": "33.3754", "lng": "-86.8065"}, {"name": "Detroit", "state": "AL", "lat": "34.0274", "lng": "-88.1678"}, {"name": "Meridianville", "state": "AL", "lat": "34.8729", "lng": "-86.5722"}, {"name": "Rainsville", "state": "AL", "lat": "34.4939", "lng": "-85.8435"}, {"name": "Troy", "state": "AL", "lat": "31.8021", "lng": "-85.9665"}, {"name": "Underwood-Petersville", "state": "AL", "lat": "34.8770", "lng": "-87.6974"}, {"name": "Elkmont", "state": "AL", "lat": "34.9291", "lng": "-86.9767"}, {"name": "Brookwood", "state": "AL", "lat": "33.2397", "lng": "-87.3277"}, {"name": "Muscle Shoals", "state": "AL", "lat": "34.7435", "lng": "-87.6343"}, {"name": "Fairview", "state": "AL", "lat": "34.2477", "lng": "-86.6843"}, {"name": "Southside", "state": "AL", "lat": "33.9007", "lng": "-86.0237"}, {"name": "Luverne", "state": "AL", "lat": "31.7186", "lng": "-86.2687"}, {"name": "Lynn", "state": "AL", "lat": "34.0548", "lng": "-87.5555"}, {"name": "Skyline", "state": "AL", "lat": "34.7987", "lng": "-86.1229"}, {"name": "Millry", "state": "AL", "lat": "31.6256", "lng": "-88.3191"}, {"name": "Fruithurst", "state": "AL", "lat": "33.7297", "lng": "-85.4312"}, {"name": "Eunola", "state": "AL", "lat": "31.0326", "lng": "-85.8410"}, {"name": "South Vinemont", "state": "AL", "lat": "34.2348", "lng": "-86.8642"}, {"name": "Huguley", "state": "AL", "lat": "32.8431", "lng": "-85.2397"}, {"name": "Clayton", "state": "AL", "lat": "31.8822", "lng": "-85.4604"}, {"name": "Dora", "state": "AL", "lat": "33.7292", "lng": "-87.0850"}, {"name": "Elberta", "state": "AL", "lat": "30.3847", "lng": "-87.5886"}, {"name": "Gulfcrest", "state": "AL", "lat": "30.9925", "lng": "-88.2399"}, {"name": "Berry", "state": "AL", "lat": "33.6623", "lng": "-87.6079"}, {"name": "Colony", "state": "AL", "lat": "33.9413", "lng": "-86.9016"}, {"name": "Boaz", "state": "AL", "lat": "34.1985", "lng": "-86.1529"}, {"name": "Twin", "state": "AL", "lat": "33.9978", "lng": "-87.8497"}, {"name": "Libertyville", "state": "AL", "lat": "31.2428", "lng": "-86.4599"}, {"name": "Coker", "state": "AL", "lat": "33.2446", "lng": "-87.6799"}, {"name": "Haleburg", "state": "AL", "lat": "31.4099", "lng": "-85.1381"}, {"name": "Millport", "state": "AL", "lat": "33.5586", "lng": "-88.0817"}, {"name": "Mountain Brook", "state": "AL", "lat": "33.4871", "lng": "-86.7400"}, {"name": "Parrish", "state": "AL", "lat": "33.7323", "lng": "-87.2802"}, {"name": "Center Point", "state": "AL", "lat": "33.6446", "lng": "-86.6851"}, {"name": "Russellville", "state": "AL", "lat": "34.5056", "lng": "-87.7282"}, {"name": "Meadowbrook", "state": "AL", "lat": "33.3933", "lng": "-86.7041"}, {"name": "Woodland", "state": "AL", "lat": "33.3756", "lng": "-85.3975"}, {"name": "Hobson", "state": "AL", "lat": "31.4836", "lng": "-88.1513"}, {"name": "Gantt", "state": "AL", "lat": "31.4092", "lng": "-86.4842"}, {"name": "Sylacauga", "state": "AL", "lat": "33.1779", "lng": "-86.2606"}, {"name": "Cottondale", "state": "AL", "lat": "33.1922", "lng": "-87.4544"}, {"name": "Choccolocco", "state": "AL", "lat": "33.6683", "lng": "-85.7129"}, {"name": "Rosa", "state": "AL", "lat": "33.9885", "lng": "-86.5037"}, {"name": "Grayson Valley", "state": "AL", "lat": "33.6470", "lng": "-86.6414"}, {"name": "Repton", "state": "AL", "lat": "31.4097", "lng": "-87.2393"}, {"name": "Kimberly", "state": "AL", "lat": "33.7760", "lng": "-86.7970"}, {"name": "Malcolm", "state": "AL", "lat": "31.1946", "lng": "-88.0015"}, {"name": "Our Town", "state": "AL", "lat": "32.8304", "lng": "-85.9687"}, {"name": "Riverview", "state": "AL", "lat": "31.0587", "lng": "-87.0709"}, {"name": "Carrollton", "state": "AL", "lat": "33.2619", "lng": "-88.0951"}, {"name": "Boligee", "state": "AL", "lat": "32.7698", "lng": "-88.0266"}, {"name": "Kennedy", "state": "AL", "lat": "33.5809", "lng": "-87.9862"}, {"name": "Adamsville", "state": "AL", "lat": "33.6063", "lng": "-86.9745"}, {"name": "Rockville", "state": "AL", "lat": "31.4059", "lng": "-87.8442"}, {"name": "Clay", "state": "AL", "lat": "33.6980", "lng": "-86.6066"}, {"name": "Bellamy", "state": "AL", "lat": "32.4582", "lng": "-88.1277"}, {"name": "Madrid", "state": "AL", "lat": "31.0356", "lng": "-85.3992"}, {"name": "Glenwood", "state": "AL", "lat": "31.6675", "lng": "-86.1730"}, {"name": "Heflin", "state": "AL", "lat": "33.6471", "lng": "-85.5698"}, {"name": "Brighton", "state": "AL", "lat": "33.4393", "lng": "-86.9454"}, {"name": "McMullen", "state": "AL", "lat": "33.1481", "lng": "-88.1757"}, {"name": "Jasper", "state": "AL", "lat": "33.8514", "lng": "-87.2719"}, {"name": "Ranburne", "state": "AL", "lat": "33.5259", "lng": "-85.3390"}, {"name": "Clayhatchee", "state": "AL", "lat": "31.2434", "lng": "-85.7136"}, {"name": "Valley", "state": "AL", "lat": "32.8086", "lng": "-85.1792"}, {"name": "Maytown", "state": "AL", "lat": "33.5489", "lng": "-86.9999"}, {"name": "Gordonville", "state": "AL", "lat": "32.1489", "lng": "-86.6995"}, {"name": "Benton", "state": "AL", "lat": "32.3078", "lng": "-86.8180"}, {"name": "Pine Apple", "state": "AL", "lat": "31.8723", "lng": "-86.9891"}, {"name": "Taylor", "state": "AL", "lat": "31.1658", "lng": "-85.4697"}, {"name": "Standing Rock", "state": "AL", "lat": "33.0863", "lng": "-85.2449"}, {"name": "Pine Ridge", "state": "AL", "lat": "34.4490", "lng": "-85.7808"}, {"name": "Collinsville", "state": "AL", "lat": "34.2670", "lng": "-85.8652"}, {"name": "Harvest", "state": "AL", "lat": "34.8558", "lng": "-86.7521"}, {"name": "Pleasant Grove", "state": "AL", "lat": "33.4936", "lng": "-86.9782"}, {"name": "Ohatchee", "state": "AL", "lat": "33.7877", "lng": "-86.0278"}, {"name": "Nanafalia", "state": "AL", "lat": "32.1114", "lng": "-87.9958"}, {"name": "Slocomb", "state": "AL", "lat": "31.1103", "lng": "-85.5954"}, {"name": "Tibbie", "state": "AL", "lat": "31.3628", "lng": "-88.2471"}, {"name": "Maplesville", "state": "AL", "lat": "32.7867", "lng": "-86.8783"}, {"name": "Henagar", "state": "AL", "lat": "34.6310", "lng": "-85.7405"}, {"name": "Atmore", "state": "AL", "lat": "31.0927", "lng": "-87.4763"}, {"name": "Faunsdale", "state": "AL", "lat": "32.4576", "lng": "-87.5938"}, {"name": "River Falls", "state": "AL", "lat": "31.3524", "lng": "-86.5412"}, {"name": "Lisman", "state": "AL", "lat": "32.1792", "lng": "-88.3002"}, {"name": "Waverly", "state": "AL", "lat": "32.7333", "lng": "-85.5761"}, {"name": "Hodges", "state": "AL", "lat": "34.3340", "lng": "-87.9299"}, {"name": "Tallassee", "state": "AL", "lat": "32.5316", "lng": "-85.8903"}, {"name": "Silverhill", "state": "AL", "lat": "30.5455", "lng": "-87.7505"}, {"name": "Whitesboro", "state": "AL", "lat": "34.1682", "lng": "-86.0572"}, {"name": "Bridgeport", "state": "AL", "lat": "34.9495", "lng": "-85.7243"}, {"name": "Marion", "state": "AL", "lat": "32.6318", "lng": "-87.3172"}, {"name": "Valley Grande", "state": "AL", "lat": "32.4862", "lng": "-87.0305"}, {"name": "Natural Bridge", "state": "AL", "lat": "34.0904", "lng": "-87.6014"}, {"name": "Cottonwood", "state": "AL", "lat": "31.0552", "lng": "-85.3007"}, {"name": "Vestavia Hills", "state": "AL", "lat": "33.4518", "lng": "-86.7438"}, {"name": "Kinston", "state": "AL", "lat": "31.2200", "lng": "-86.1705"}, {"name": "Greenville", "state": "AL", "lat": "31.8437", "lng": "-86.6379"}, {"name": "Leeds", "state": "AL", "lat": "33.5429", "lng": "-86.5636"}, {"name": "Bayou La Batre", "state": "AL", "lat": "30.4126", "lng": "-88.2609"}, {"name": "Brook Highland", "state": "AL", "lat": "33.4359", "lng": "-86.6849"}, {"name": "Red Bay", "state": "AL", "lat": "34.4358", "lng": "-88.1362"}, {"name": "Alexandria", "state": "AL", "lat": "33.7675", "lng": "-85.8792"}, {"name": "Uniontown", "state": "AL", "lat": "32.4490", "lng": "-87.4958"}, {"name": "Florence", "state": "AL", "lat": "34.8303", "lng": "-87.6654"}, {"name": "Good Hope", "state": "AL", "lat": "34.1098", "lng": "-86.8651"}, {"name": "Dozier", "state": "AL", "lat": "31.5031", "lng": "-86.3694"}, {"name": "Minor", "state": "AL", "lat": "33.5389", "lng": "-86.9402"}, {"name": "La Fayette", "state": "AL", "lat": "32.8997", "lng": "-85.4007"}, {"name": "Florala", "state": "AL", "lat": "31.0176", "lng": "-86.3138"}, {"name": "Bucks", "state": "AL", "lat": "31.0170", "lng": "-88.0249"}, {"name": "Westover", "state": "AL", "lat": "33.3692", "lng": "-86.5354"}, {"name": "Blue Ridge", "state": "AL", "lat": "32.5010", "lng": "-86.1839"}, {"name": "Snead", "state": "AL", "lat": "34.1162", "lng": "-86.3902"}, {"name": "Leroy", "state": "AL", "lat": "31.4952", "lng": "-87.9690"}, {"name": "Banks", "state": "AL", "lat": "31.8132", "lng": "-85.8364"}, {"name": "Auburn", "state": "AL", "lat": "32.6087", "lng": "-85.4899"}, {"name": "Pine Hill", "state": "AL", "lat": "31.9858", "lng": "-87.5876"}, {"name": "Moulton", "state": "AL", "lat": "34.4843", "lng": "-87.2831"}, {"name": "Edgewater", "state": "AL", "lat": "33.5286", "lng": "-86.9574"}, {"name": "Gurley", "state": "AL", "lat": "34.7072", "lng": "-86.3768"}, {"name": "Coats Bend", "state": "AL", "lat": "34.0774", "lng": "-85.8742"}, {"name": "Spruce Pine", "state": "AL", "lat": "34.3927", "lng": "-87.7295"}, {"name": "Sims Chapel", "state": "AL", "lat": "31.2365", "lng": "-88.1435"}, {"name": "Perdido Beach", "state": "AL", "lat": "30.3553", "lng": "-87.5036"}, {"name": "Yellow Bluff", "state": "AL", "lat": "31.9622", "lng": "-87.4808"}, {"name": "Saraland", "state": "AL", "lat": "30.8457", "lng": "-88.0990"}, {"name": "East Point", "state": "AL", "lat": "34.1859", "lng": "-86.7926"}, {"name": "Ider", "state": "AL", "lat": "34.7022", "lng": "-85.6691"}, {"name": "West Point", "state": "AL", "lat": "34.2401", "lng": "-86.9625"}, {"name": "Douglas", "state": "AL", "lat": "34.1705", "lng": "-86.3224"}, {"name": "Hayden", "state": "AL", "lat": "33.8822", "lng": "-86.7840"}, {"name": "Phil Campbell", "state": "AL", "lat": "34.3519", "lng": "-87.7062"}, {"name": "Weogufka", "state": "AL", "lat": "33.0267", "lng": "-86.3169"}, {"name": "Elba", "state": "AL", "lat": "31.4172", "lng": "-86.0759"}, {"name": "Forestdale", "state": "AL", "lat": "33.5737", "lng": "-86.9002"}, {"name": "Hobson City", "state": "AL", "lat": "33.6149", "lng": "-85.8560"}, {"name": "Weaver", "state": "AL", "lat": "33.7601", "lng": "-85.8117"}, {"name": "Broomtown", "state": "AL", "lat": "34.3657", "lng": "-85.5322"}, {"name": "Newville", "state": "AL", "lat": "31.4206", "lng": "-85.3367"}, {"name": "Crossville", "state": "AL", "lat": "34.2853", "lng": "-85.9996"}, {"name": "Leighton", "state": "AL", "lat": "34.6986", "lng": "-87.5291"}, {"name": "Piedmont", "state": "AL", "lat": "33.9267", "lng": "-85.6157"}, {"name": "Phenix City", "state": "AL", "lat": "32.4588", "lng": "-85.0251"}, {"name": "Tillmans Corner", "state": "AL", "lat": "30.5818", "lng": "-88.2128"}, {"name": "Orange Beach", "state": "AL", "lat": "30.2941", "lng": "-87.5851"}, {"name": "Elmore", "state": "AL", "lat": "32.5552", "lng": "-86.3425"}, {"name": "Shoal Creek", "state": "AL", "lat": "33.4328", "lng": "-86.6071"}, {"name": "West Blocton", "state": "AL", "lat": "33.1186", "lng": "-87.1253"}, {"name": "Cherokee", "state": "AL", "lat": "34.7577", "lng": "-87.9670"}, {"name": "Fairhope", "state": "AL", "lat": "30.5220", "lng": "-87.8816"}, {"name": "Attalla", "state": "AL", "lat": "34.0049", "lng": "-86.1040"}, {"name": "Dayton", "state": "AL", "lat": "32.3509", "lng": "-87.6416"}, {"name": "Hueytown", "state": "AL", "lat": "33.4237", "lng": "-87.0221"}, {"name": "Daphne", "state": "AL", "lat": "30.6286", "lng": "-87.8866"}, {"name": "Gadsden", "state": "AL", "lat": "34.0090", "lng": "-86.0156"}, {"name": "Mobile", "state": "AL", "lat": "30.6782", "lng": "-88.1163"}, {"name": "Fyffe", "state": "AL", "lat": "34.4496", "lng": "-85.9050"}, {"name": "Toxey", "state": "AL", "lat": "31.9107", "lng": "-88.3091"}, {"name": "Kinsey", "state": "AL", "lat": "31.2926", "lng": "-85.3353"}, {"name": "Needham", "state": "AL", "lat": "31.9870", "lng": "-88.3366"}, {"name": "Hollis Crossroads", "state": "AL", "lat": "33.5231", "lng": "-85.6437"}, {"name": "Carlisle-Rockledge", "state": "AL", "lat": "34.1140", "lng": "-86.1191"}, {"name": "Stapleton", "state": "AL", "lat": "30.7394", "lng": "-87.7948"}, {"name": "Peterman", "state": "AL", "lat": "31.5837", "lng": "-87.2631"}, {"name": "Ariton", "state": "AL", "lat": "31.5978", "lng": "-85.7131"}, {"name": "Opelika", "state": "AL", "lat": "32.6621", "lng": "-85.3772"}, {"name": "Fultondale", "state": "AL", "lat": "33.6177", "lng": "-86.8015"}, {"name": "Vina", "state": "AL", "lat": "34.3757", "lng": "-88.0602"}, {"name": "Ballplay", "state": "AL", "lat": "34.0179", "lng": "-85.7853"}, {"name": "Billingsley", "state": "AL", "lat": "32.6610", "lng": "-86.7087"}, {"name": "Robertsdale", "state": "AL", "lat": "30.5534", "lng": "-87.7022"}, {"name": "Union Grove", "state": "AL", "lat": "34.4025", "lng": "-86.4483"}, {"name": "Rainbow City", "state": "AL", "lat": "33.9337", "lng": "-86.0922"}, {"name": "Loxley", "state": "AL", "lat": "30.6822", "lng": "-87.7418"}, {"name": "Belgreen", "state": "AL", "lat": "34.4767", "lng": "-87.8653"}, {"name": "Belk", "state": "AL", "lat": "33.6515", "lng": "-87.9287"}, {"name": "Hytop", "state": "AL", "lat": "34.9064", "lng": "-86.0853"}, {"name": "Panola", "state": "AL", "lat": "32.9477", "lng": "-88.2674"}, {"name": "Steele", "state": "AL", "lat": "33.9370", "lng": "-86.2004"}, {"name": "Ridgeville", "state": "AL", "lat": "34.0569", "lng": "-86.1029"}, {"name": "Fairford", "state": "AL", "lat": "31.1780", "lng": "-88.0728"}, {"name": "Addison", "state": "AL", "lat": "34.2017", "lng": "-87.1765"}, {"name": "Brantley", "state": "AL", "lat": "31.5822", "lng": "-86.2569"}, {"name": "Ozark", "state": "AL", "lat": "31.4508", "lng": "-85.6473"}, {"name": "Prattville", "state": "AL", "lat": "32.4605", "lng": "-86.4588"}, {"name": "Vandiver", "state": "AL", "lat": "33.4601", "lng": "-86.5251"}, {"name": "Shorter", "state": "AL", "lat": "32.4077", "lng": "-85.9415"}, {"name": "Edwardsville", "state": "AL", "lat": "33.8411", "lng": "-85.4523"}, {"name": "Newbern", "state": "AL", "lat": "32.5920", "lng": "-87.5331"}, {"name": "Pike Road", "state": "AL", "lat": "32.2934", "lng": "-86.0901"}, {"name": "Monroeville", "state": "AL", "lat": "31.5162", "lng": "-87.3279"}, {"name": "Malvern", "state": "AL", "lat": "31.1428", "lng": "-85.5210"}, {"name": "Penton", "state": "AL", "lat": "33.0090", "lng": "-85.4721"}, {"name": "Shelby", "state": "AL", "lat": "33.1068", "lng": "-86.5825"}, {"name": "Albertville", "state": "AL", "lat": "34.2634", "lng": "-86.2107"}, {"name": "Lester", "state": "AL", "lat": "34.9877", "lng": "-87.1515"}, {"name": "Chatom", "state": "AL", "lat": "31.4691", "lng": "-88.2460"}, {"name": "New Site", "state": "AL", "lat": "33.0282", "lng": "-85.7801"}, {"name": "Egypt", "state": "AL", "lat": "34.0759", "lng": "-86.1651"}, {"name": "Ladonia", "state": "AL", "lat": "32.4609", "lng": "-85.0877"}, {"name": "Jacksons' Gap", "state": "AL", "lat": "32.8831", "lng": "-85.8150"}, {"name": "Putnam", "state": "AL", "lat": "32.0181", "lng": "-88.0331"}, {"name": "Falkville", "state": "AL", "lat": "34.3793", "lng": "-86.9085"}, {"name": "Fruitdale", "state": "AL", "lat": "31.3429", "lng": "-88.4108"}, {"name": "Locust Fork", "state": "AL", "lat": "33.8957", "lng": "-86.6301"}, {"name": "Gilbertown", "state": "AL", "lat": "31.8758", "lng": "-88.3195"}, {"name": "Brent", "state": "AL", "lat": "32.9421", "lng": "-87.1753"}, {"name": "Providence", "state": "AL", "lat": "32.3424", "lng": "-87.7761"}, {"name": "Foley", "state": "AL", "lat": "30.3984", "lng": "-87.6648"}, {"name": "Notasulga", "state": "AL", "lat": "32.5569", "lng": "-85.6695"}, {"name": "Beaverton", "state": "AL", "lat": "33.9354", "lng": "-88.0218"}, {"name": "Rogersville", "state": "AL", "lat": "34.8251", "lng": "-87.2821"}, {"name": "Mulga", "state": "AL", "lat": "33.5533", "lng": "-86.9735"}, {"name": "Sulligent", "state": "AL", "lat": "33.8912", "lng": "-88.1266"}, {"name": "Cardiff", "state": "AL", "lat": "33.6472", "lng": "-86.9307"}, {"name": "Sylvania", "state": "AL", "lat": "34.5619", "lng": "-85.8045"}, {"name": "Carlton", "state": "AL", "lat": "31.3430", "lng": "-87.8378"}, {"name": "Sipsey", "state": "AL", "lat": "33.8226", "lng": "-87.0834"}, {"name": "Wadley", "state": "AL", "lat": "33.1239", "lng": "-85.5683"}, {"name": "Redstone Arsenal", "state": "AL", "lat": "34.6843", "lng": "-86.6470"}, {"name": "Sterrett", "state": "AL", "lat": "33.4490", "lng": "-86.4645"}, {"name": "Ragland", "state": "AL", "lat": "33.7469", "lng": "-86.1384"}, {"name": "Hartselle", "state": "AL", "lat": "34.4391", "lng": "-86.9401"}, {"name": "Fitzpatrick", "state": "AL", "lat": "32.2114", "lng": "-85.8784"}, {"name": "Delta", "state": "AL", "lat": "33.4470", "lng": "-85.6746"}, {"name": "Ivalee", "state": "AL", "lat": "34.0372", "lng": "-86.1472"}, {"name": "Midland City", "state": "AL", "lat": "31.3157", "lng": "-85.4937"}, {"name": "Munford", "state": "AL", "lat": "33.5258", "lng": "-85.9555"}, {"name": "Chelsea", "state": "AL", "lat": "33.3257", "lng": "-86.6303"}, {"name": "Whatley", "state": "AL", "lat": "31.6463", "lng": "-87.7108"}, {"name": "Tuscumbia", "state": "AL", "lat": "34.7204", "lng": "-87.7035"}, {"name": "Graham", "state": "AL", "lat": "33.4552", "lng": "-85.3231"}, {"name": "Satsuma", "state": "AL", "lat": "30.8577", "lng": "-88.0632"}, {"name": "New Brockton", "state": "AL", "lat": "31.3784", "lng": "-85.9228"}, {"name": "Gainesville", "state": "AL", "lat": "32.8149", "lng": "-88.1608"}, {"name": "Carbon Hill", "state": "AL", "lat": "33.8944", "lng": "-87.5224"}, {"name": "Emelle", "state": "AL", "lat": "32.7287", "lng": "-88.3165"}, {"name": "Kansas", "state": "AL", "lat": "33.9029", "lng": "-87.5568"}, {"name": "Northport", "state": "AL", "lat": "33.2589", "lng": "-87.5985"}, {"name": "Chunchula", "state": "AL", "lat": "30.9237", "lng": "-88.2072"}, {"name": "Geraldine", "state": "AL", "lat": "34.3577", "lng": "-86.0037"}, {"name": "Heath", "state": "AL", "lat": "31.3579", "lng": "-86.4673"}, {"name": "Fayetteville", "state": "AL", "lat": "33.1643", "lng": "-86.4411"}, {"name": "Triana", "state": "AL", "lat": "34.5904", "lng": "-86.7418"}, {"name": "Georgiana", "state": "AL", "lat": "31.6391", "lng": "-86.7468"}, {"name": "Oak Grove", "state": "AL", "lat": "33.1929", "lng": "-86.3037"}, {"name": "Dothan", "state": "AL", "lat": "31.2335", "lng": "-85.4068"}, {"name": "Valley Head", "state": "AL", "lat": "34.5575", "lng": "-85.6214"}, {"name": "Eva", "state": "AL", "lat": "34.3274", "lng": "-86.7614"}, {"name": "Reece City", "state": "AL", "lat": "34.0771", "lng": "-86.0346"}, {"name": "Hanceville", "state": "AL", "lat": "34.0634", "lng": "-86.7652"}, {"name": "Priceville", "state": "AL", "lat": "34.5248", "lng": "-86.8856"}, {"name": "Calvert", "state": "AL", "lat": "31.1540", "lng": "-88.0170"}, {"name": "Bessemer", "state": "AL", "lat": "33.3709", "lng": "-86.9713"}, {"name": "Owens Cross Roads", "state": "AL", "lat": "34.5845", "lng": "-86.4574"}, {"name": "Cordova", "state": "AL", "lat": "33.7613", "lng": "-87.1926"}, {"name": "Highland Lakes", "state": "AL", "lat": "33.3970", "lng": "-86.6497"}, {"name": "Joppa", "state": "AL", "lat": "34.2982", "lng": "-86.5506"}, {"name": "Paint Rock", "state": "AL", "lat": "34.6602", "lng": "-86.3307"}, {"name": "Hazel Green", "state": "AL", "lat": "34.9237", "lng": "-86.5671"}, {"name": "Grand Bay", "state": "AL", "lat": "30.4717", "lng": "-88.3450"}, {"name": "White Plains", "state": "AL", "lat": "33.7603", "lng": "-85.6880"}, {"name": "Nances Creek", "state": "AL", "lat": "33.8588", "lng": "-85.6733"}, {"name": "Point Clear", "state": "AL", "lat": "30.4902", "lng": "-87.9105"}, {"name": "Butler", "state": "AL", "lat": "32.0965", "lng": "-88.2108"}, {"name": "Fayette", "state": "AL", "lat": "33.6943", "lng": "-87.8307"}, {"name": "Autaugaville", "state": "AL", "lat": "32.4320", "lng": "-86.6579"}, {"name": "Deatsville", "state": "AL", "lat": "32.5864", "lng": "-86.3915"}, {"name": "Summerdale", "state": "AL", "lat": "30.4785", "lng": "-87.6906"}, {"name": "Sweet Water", "state": "AL", "lat": "32.1046", "lng": "-87.8619"}, {"name": "Fort Payne", "state": "AL", "lat": "34.4558", "lng": "-85.6966"}, {"name": "Brookside", "state": "AL", "lat": "33.6380", "lng": "-86.9013"}, {"name": "Arley", "state": "AL", "lat": "34.0886", "lng": "-87.2074"}, {"name": "Bakerhill", "state": "AL", "lat": "31.7769", "lng": "-85.2955"}, {"name": "Oak Hill", "state": "AL", "lat": "31.9216", "lng": "-87.0852"}, {"name": "Gaylesville", "state": "AL", "lat": "34.2681", "lng": "-85.5585"}, {"name": "Pinson", "state": "AL", "lat": "33.7057", "lng": "-86.6674"}, {"name": "Coffee Springs", "state": "AL", "lat": "31.1664", "lng": "-85.9103"}, {"name": "Mount Vernon", "state": "AL", "lat": "31.0889", "lng": "-88.0137"}, {"name": "Pennington", "state": "AL", "lat": "32.1994", "lng": "-88.0494"}, {"name": "Rutledge", "state": "AL", "lat": "31.7240", "lng": "-86.3020"}, {"name": "Brewton", "state": "AL", "lat": "31.1111", "lng": "-87.0737"}, {"name": "Goshen", "state": "AL", "lat": "31.7182", "lng": "-86.1242"}, {"name": "Fredonia", "state": "AL", "lat": "32.9861", "lng": "-85.2912"}, {"name": "Cedar Bluff", "state": "AL", "lat": "34.2217", "lng": "-85.5877"}, {"name": "Wilsonville", "state": "AL", "lat": "33.2351", "lng": "-86.4882"}, {"name": "Pisgah", "state": "AL", "lat": "34.6844", "lng": "-85.8460"}, {"name": "Lakeview", "state": "AL", "lat": "34.3917", "lng": "-85.9757"}, {"name": "Chickasaw", "state": "AL", "lat": "30.7715", "lng": "-88.0793"}, {"name": "Morris", "state": "AL", "lat": "33.7467", "lng": "-86.8036"}, {"name": "Bon Air", "state": "AL", "lat": "33.2621", "lng": "-86.3319"}, {"name": "Level Plains", "state": "AL", "lat": "31.3071", "lng": "-85.7687"}, {"name": "Sand Rock", "state": "AL", "lat": "34.2308", "lng": "-85.7712"}, {"name": "Babbie", "state": "AL", "lat": "31.3022", "lng": "-86.3229"}, {"name": "Rehobeth", "state": "AL", "lat": "31.1242", "lng": "-85.4383"}, {"name": "York", "state": "AL", "lat": "32.4998", "lng": "-88.2938"}, {"name": "Vincent", "state": "AL", "lat": "33.3848", "lng": "-86.4086"}, {"name": "Waterloo", "state": "AL", "lat": "34.9172", "lng": "-88.0654"}, {"name": "Reeltown", "state": "AL", "lat": "32.5788", "lng": "-85.8189"}, {"name": "Ethelsville", "state": "AL", "lat": "33.4141", "lng": "-88.2161"}, {"name": "Forkland", "state": "AL", "lat": "32.6489", "lng": "-87.8671"}, {"name": "New Hope", "state": "AL", "lat": "34.5370", "lng": "-86.4128"}, {"name": "Bon Secour", "state": "AL", "lat": "30.3222", "lng": "-87.7271"}, {"name": "Pickensville", "state": "AL", "lat": "33.2336", "lng": "-88.2743"}, {"name": "Five Points", "state": "AL", "lat": "33.0173", "lng": "-85.3516"}, {"name": "Brundidge", "state": "AL", "lat": "31.7182", "lng": "-85.8177"}, {"name": "Clio", "state": "AL", "lat": "31.7085", "lng": "-85.6109"}, {"name": "Eufaula", "state": "AL", "lat": "31.9102", "lng": "-85.1505"}, {"name": "Emerald Mountain", "state": "AL", "lat": "32.4396", "lng": "-86.0857"}, {"name": "Ray", "state": "AL", "lat": "32.8790", "lng": "-86.0350"}, {"name": "Centre", "state": "AL", "lat": "34.1552", "lng": "-85.6700"}, {"name": "Mount Olive", "state": "AL", "lat": "33.6778", "lng": "-86.8726"}, {"name": "Rock Mills", "state": "AL", "lat": "33.1563", "lng": "-85.2861"}, {"name": "Blountsville", "state": "AL", "lat": "34.0814", "lng": "-86.5867"}, {"name": "Abanda", "state": "AL", "lat": "33.0926", "lng": "-85.5253"}, {"name": "Movico", "state": "AL", "lat": "31.0630", "lng": "-88.0267"}, {"name": "Graysville", "state": "AL", "lat": "33.6583", "lng": "-86.9674"}, {"name": "Indian Springs Village", "state": "AL", "lat": "33.3591", "lng": "-86.7493"}, {"name": "Cuba", "state": "AL", "lat": "32.4410", "lng": "-88.3755"}, {"name": "Silas", "state": "AL", "lat": "31.7678", "lng": "-88.3259"}, {"name": "Alabaster", "state": "AL", "lat": "33.2198", "lng": "-86.8226"}, {"name": "Prichard", "state": "AL", "lat": "30.7735", "lng": "-88.1301"}, {"name": "Perdido", "state": "AL", "lat": "31.0034", "lng": "-87.6323"}, {"name": "Reform", "state": "AL", "lat": "33.3788", "lng": "-88.0173"}, {"name": "Homewood", "state": "AL", "lat": "33.4617", "lng": "-86.8092"}, {"name": "Hokes Bluff", "state": "AL", "lat": "33.9902", "lng": "-85.8639"}, {"name": "Susan Moore", "state": "AL", "lat": "34.0798", "lng": "-86.4235"}, {"name": "Tuskegee", "state": "AL", "lat": "32.4395", "lng": "-85.7139"}, {"name": "Avon", "state": "AL", "lat": "31.1799", "lng": "-85.2802"}, {"name": "Mentone", "state": "AL", "lat": "34.5663", "lng": "-85.5842"}, {"name": "St. Stephens", "state": "AL", "lat": "31.5474", "lng": "-88.0555"}, {"name": "New Union", "state": "AL", "lat": "34.1422", "lng": "-86.2218"}, {"name": "Pine Level", "state": "AL", "lat": "32.5797", "lng": "-86.4529"}, {"name": "Oneonta", "state": "AL", "lat": "33.9391", "lng": "-86.4929"}, {"name": "Holly Pond", "state": "AL", "lat": "34.1696", "lng": "-86.6125"}, {"name": "Dadeville", "state": "AL", "lat": "32.8326", "lng": "-85.7675"}, {"name": "Trinity", "state": "AL", "lat": "34.6012", "lng": "-87.0818"}, {"name": "Beatrice", "state": "AL", "lat": "31.7334", "lng": "-87.2090"}, {"name": "Huntsville", "state": "AL", "lat": "34.6988", "lng": "-86.6412"}, {"name": "Millerville", "state": "AL", "lat": "33.1926", "lng": "-85.9303"}, {"name": "Coosada", "state": "AL", "lat": "32.4984", "lng": "-86.3279"}, {"name": "Vredenburgh", "state": "AL", "lat": "31.8237", "lng": "-87.3178"}, {"name": "Garden City", "state": "AL", "lat": "34.0152", "lng": "-86.7520"}, {"name": "Pleasant Groves", "state": "AL", "lat": "34.7350", "lng": "-86.2054"}, {"name": "Deer Park", "state": "AL", "lat": "31.2198", "lng": "-88.3226"}, {"name": "Baileyton", "state": "AL", "lat": "34.2608", "lng": "-86.6082"}, {"name": "Fort Deposit", "state": "AL", "lat": "31.9863", "lng": "-86.5664"}, {"name": "Eclectic", "state": "AL", "lat": "32.6387", "lng": "-86.0386"}, {"name": "Samson", "state": "AL", "lat": "31.1124", "lng": "-86.0462"}, {"name": "Powell", "state": "AL", "lat": "34.5325", "lng": "-85.8979"}, {"name": "Columbia", "state": "AL", "lat": "31.2968", "lng": "-85.1103"}, {"name": "Hollins", "state": "AL", "lat": "33.1213", "lng": "-86.1290"}, {"name": "Sardis City", "state": "AL", "lat": "34.1749", "lng": "-86.1125"}, {"name": "Killen", "state": "AL", "lat": "34.8607", "lng": "-87.5267"}, {"name": "Shiloh", "state": "AL", "lat": "34.4638", "lng": "-85.8780"}, {"name": "Semmes", "state": "AL", "lat": "30.7886", "lng": "-88.2342"}, {"name": "Riverside", "state": "AL", "lat": "33.6171", "lng": "-86.2042"}, {"name": "Wedowee", "state": "AL", "lat": "33.3078", "lng": "-85.4864"}, {"name": "Megargel", "state": "AL", "lat": "31.3781", "lng": "-87.4307"}, {"name": "Lookout Mountain", "state": "AL", "lat": "34.1091", "lng": "-85.9585"}, {"name": "Lincoln", "state": "AL", "lat": "33.5935", "lng": "-86.1372"}, {"name": "Frisco City", "state": "AL", "lat": "31.4353", "lng": "-87.4037"}, {"name": "Goodwater", "state": "AL", "lat": "33.0608", "lng": "-86.0516"}, {"name": "Stevenson", "state": "AL", "lat": "34.8487", "lng": "-85.8437"}, {"name": "Woodville", "state": "AL", "lat": "34.6256", "lng": "-86.2792"}, {"name": "Cleveland", "state": "AL", "lat": "33.9965", "lng": "-86.5671"}, {"name": "Pollard", "state": "AL", "lat": "31.0235", "lng": "-87.1735"}, {"name": "Union Springs", "state": "AL", "lat": "32.1395", "lng": "-85.7141"}, {"name": "Millbrook", "state": "AL", "lat": "32.5035", "lng": "-86.3728"}, {"name": "White Hall", "state": "AL", "lat": "32.2993", "lng": "-86.7148"}, {"name": "Ashland", "state": "AL", "lat": "33.2704", "lng": "-85.8337"}, {"name": "Greensboro", "state": "AL", "lat": "32.7014", "lng": "-87.5950"}, {"name": "Catherine", "state": "AL", "lat": "32.1860", "lng": "-87.4700"}, {"name": "Talladega", "state": "AL", "lat": "33.4329", "lng": "-86.0976"}, {"name": "Camden", "state": "AL", "lat": "32.0007", "lng": "-87.2967"}, {"name": "Blue Springs", "state": "AL", "lat": "31.6635", "lng": "-85.5035"}, {"name": "Tidmore Bend", "state": "AL", "lat": "34.0324", "lng": "-85.9254"}, {"name": "Belle Fontaine", "state": "AL", "lat": "30.4920", "lng": "-88.1131"}, {"name": "Springville", "state": "AL", "lat": "33.7643", "lng": "-86.4749"}, {"name": "Memphis", "state": "AL", "lat": "33.1369", "lng": "-88.3008"}, {"name": "Camp Hill", "state": "AL", "lat": "32.8002", "lng": "-85.6536"}, {"name": "Trafford", "state": "AL", "lat": "33.8194", "lng": "-86.7467"}, {"name": "Spring Garden", "state": "AL", "lat": "33.9730", "lng": "-85.5558"}, {"name": "Geiger", "state": "AL", "lat": "32.8696", "lng": "-88.3133"}, {"name": "Hammondville", "state": "AL", "lat": "34.5685", "lng": "-85.6397"}, {"name": "Epes", "state": "AL", "lat": "32.6906", "lng": "-88.1405"}, {"name": "Gallant", "state": "AL", "lat": "34.0013", "lng": "-86.2304"}, {"name": "Coaling", "state": "AL", "lat": "33.1641", "lng": "-87.3534"}, {"name": "Margaret", "state": "AL", "lat": "33.6735", "lng": "-86.4680"}, {"name": "North Johns", "state": "AL", "lat": "33.3680", "lng": "-87.1008"}, {"name": "Mooresville", "state": "AL", "lat": "34.6270", "lng": "-86.8799"}]