[{"name": "McDougal", "state": "AR", "lat": "36.4365", "lng": "-90.3907"}, {"name": "McAlmont", "state": "AR", "lat": "34.7926", "lng": "-92.1959"}, {"name": "Paris", "state": "AR", "lat": "35.2899", "lng": "-93.7236"}, {"name": "Crawfordsville", "state": "AR", "lat": "35.2267", "lng": "-90.3241"}, {"name": "Gravette", "state": "AR", "lat": "36.4291", "lng": "-94.3713"}, {"name": "Dell", "state": "AR", "lat": "35.8592", "lng": "-90.0260"}, {"name": "Lead Hill", "state": "AR", "lat": "36.4128", "lng": "-92.9068"}, {"name": "Tontitown", "state": "AR", "lat": "36.1642", "lng": "-94.2457"}, {"name": "Waldo", "state": "AR", "lat": "33.3528", "lng": "-93.2950"}, {"name": "Judsonia", "state": "AR", "lat": "35.2770", "lng": "-91.6411"}, {"name": "Edmondson", "state": "AR", "lat": "35.1041", "lng": "-90.3053"}, {"name": "Bald Knob", "state": "AR", "lat": "35.3123", "lng": "-91.5709"}, {"name": "Cherokee Village", "state": "AR", "lat": "36.2959", "lng": "-91.5696"}, {"name": "Alpena", "state": "AR", "lat": "36.2896", "lng": "-93.3038"}, {"name": "McRae", "state": "AR", "lat": "35.1119", "lng": "-91.8253"}, {"name": "Cherry Valley", "state": "AR", "lat": "35.4020", "lng": "-90.7545"}, {"name": "Pineville", "state": "AR", "lat": "36.1612", "lng": "-92.1065"}, {"name": "Midway", "state": "AR", "lat": "34.2602", "lng": "-92.9610"}, {"name": "Marianna", "state": "AR", "lat": "34.7737", "lng": "-90.7674"}, {"name": "Brinkley", "state": "AR", "lat": "34.8899", "lng": "-91.1902"}, {"name": "Barling", "state": "AR", "lat": "35.3285", "lng": "-94.2793"}, {"name": "Parkin", "state": "AR", "lat": "35.2629", "lng": "-90.5528"}, {"name": "Cale", "state": "AR", "lat": "33.6278", "lng": "-93.2348"}, {"name": "Ward", "state": "AR", "lat": "35.0129", "lng": "-91.9571"}, {"name": "Sparkman", "state": "AR", "lat": "33.9171", "lng": "-92.8500"}, {"name": "Burdette", "state": "AR", "lat": "35.8152", "lng": "-89.9465"}, {"name": "Briarcliff", "state": "AR", "lat": "36.2721", "lng": "-92.2824"}, {"name": "College Station", "state": "AR", "lat": "34.7050", "lng": "-92.2296"}, {"name": "McNeil", "state": "AR", "lat": "33.3479", "lng": "-93.2084"}, {"name": "Winslow", "state": "AR", "lat": "35.8008", "lng": "-94.1303"}, {"name": "Bethel Heights", "state": "AR", "lat": "36.2263", "lng": "-94.1282"}, {"name": "Bella Vista", "state": "AR", "lat": "36.4667", "lng": "-94.2707"}, {"name": "Charleston", "state": "AR", "lat": "35.2954", "lng": "-94.0463"}, {"name": "Gillett", "state": "AR", "lat": "34.1192", "lng": "-91.3789"}, {"name": "Des Arc", "state": "AR", "lat": "34.9777", "lng": "-91.5068"}, {"name": "Patmos", "state": "AR", "lat": "33.5113", "lng": "-93.5671"}, {"name": "London", "state": "AR", "lat": "35.3280", "lng": "-93.2417"}, {"name": "Rockport", "state": "AR", "lat": "34.4055", "lng": "-92.8091"}, {"name": "Wilton", "state": "AR", "lat": "33.7388", "lng": "-94.1480"}, {"name": "Redfield", "state": "AR", "lat": "34.4429", "lng": "-92.1843"}, {"name": "Damascus", "state": "AR", "lat": "35.3671", "lng": "-92.4106"}, {"name": "McGehee", "state": "AR", "lat": "33.6279", "lng": "-91.3952"}, {"name": "Greers Ferry", "state": "AR", "lat": "35.5672", "lng": "-92.1689"}, {"name": "Wilmar", "state": "AR", "lat": "33.6264", "lng": "-91.9294"}, {"name": "Horseshoe Lake", "state": "AR", "lat": "34.9135", "lng": "-90.3079"}, {"name": "Heber Springs", "state": "AR", "lat": "35.5003", "lng": "-92.0332"}, {"name": "Bono", "state": "AR", "lat": "35.9116", "lng": "-90.8011"}, {"name": "Lake Village", "state": "AR", "lat": "33.3299", "lng": "-91.2847"}, {"name": "New Edinburg", "state": "AR", "lat": "33.7565", "lng": "-92.2401"}, {"name": "Ben Lomond", "state": "AR", "lat": "33.8335", "lng": "-94.1177"}, {"name": "Reader", "state": "AR", "lat": "33.7518", "lng": "-93.1009"}, {"name": "St. Joe", "state": "AR", "lat": "36.0290", "lng": "-92.8078"}, {"name": "Grady", "state": "AR", "lat": "34.0789", "lng": "-91.6980"}, {"name": "Malvern", "state": "AR", "lat": "34.3689", "lng": "-92.8187"}, {"name": "Ozan", "state": "AR", "lat": "33.8480", "lng": "-93.7203"}, {"name": "Danville", "state": "AR", "lat": "35.0530", "lng": "-93.3902"}, {"name": "Gilbert", "state": "AR", "lat": "35.9905", "lng": "-92.7166"}, {"name": "Greenbrier", "state": "AR", "lat": "35.2289", "lng": "-92.3836"}, {"name": "Hindsville", "state": "AR", "lat": "36.1458", "lng": "-93.8627"}, {"name": "Williford", "state": "AR", "lat": "36.2519", "lng": "-91.3604"}, {"name": "Thornton", "state": "AR", "lat": "33.7756", "lng": "-92.4889"}, {"name": "Victoria", "state": "AR", "lat": "35.7574", "lng": "-90.0601"}, {"name": "Siloam Springs", "state": "AR", "lat": "36.1844", "lng": "-94.5318"}, {"name": "Vilonia", "state": "AR", "lat": "35.0807", "lng": "-92.2088"}, {"name": "Cotton Plant", "state": "AR", "lat": "35.0058", "lng": "-91.2521"}, {"name": "Bradford", "state": "AR", "lat": "35.4220", "lng": "-91.4553"}, {"name": "Rogers", "state": "AR", "lat": "36.3172", "lng": "-94.1518"}, {"name": "Kensett", "state": "AR", "lat": "35.2354", "lng": "-91.6706"}, {"name": "Dover", "state": "AR", "lat": "35.3910", "lng": "-93.1143"}, {"name": "Stephens", "state": "AR", "lat": "33.4221", "lng": "-93.0670"}, {"name": "Gillham", "state": "AR", "lat": "34.1686", "lng": "-94.3145"}, {"name": "Rector", "state": "AR", "lat": "36.2642", "lng": "-90.2936"}, {"name": "Mena", "state": "AR", "lat": "34.5810", "lng": "-94.2374"}, {"name": "Blue Eye", "state": "AR", "lat": "36.4966", "lng": "-93.3977"}, {"name": "Watson", "state": "AR", "lat": "33.8938", "lng": "-91.2573"}, {"name": "Wynne", "state": "AR", "lat": "35.2326", "lng": "-90.7895"}, {"name": "Bay", "state": "AR", "lat": "35.7456", "lng": "-90.5547"}, {"name": "Beebe", "state": "AR", "lat": "35.0714", "lng": "-91.8998"}, {"name": "Waldron", "state": "AR", "lat": "34.9004", "lng": "-94.0941"}, {"name": "Eudora", "state": "AR", "lat": "33.1190", "lng": "-91.2640"}, {"name": "Mountainburg", "state": "AR", "lat": "35.6361", "lng": "-94.1679"}, {"name": "Cave Springs", "state": "AR", "lat": "36.2703", "lng": "-94.2225"}, {"name": "Coy", "state": "AR", "lat": "34.5405", "lng": "-91.8713"}, {"name": "Stuttgart", "state": "AR", "lat": "34.4963", "lng": "-91.5486"}, {"name": "Buckner", "state": "AR", "lat": "33.3572", "lng": "-93.4358"}, {"name": "Clarksville", "state": "AR", "lat": "35.4569", "lng": "-93.4803"}, {"name": "Haynes", "state": "AR", "lat": "34.8909", "lng": "-90.7927"}, {"name": "Strong", "state": "AR", "lat": "33.1079", "lng": "-92.3598"}, {"name": "Junction City", "state": "AR", "lat": "33.0220", "lng": "-92.7236"}, {"name": "Moorefield", "state": "AR", "lat": "35.7672", "lng": "-91.5708"}, {"name": "Yarborough Landing", "state": "AR", "lat": "33.7126", "lng": "-94.0108"}, {"name": "Oppelo", "state": "AR", "lat": "35.1003", "lng": "-92.7733"}, {"name": "Sheridan", "state": "AR", "lat": "34.2996", "lng": "-92.4225"}, {"name": "Okolona", "state": "AR", "lat": "34.0005", "lng": "-93.3376"}, {"name": "Hatfield", "state": "AR", "lat": "34.4859", "lng": "-94.3793"}, {"name": "Lake View", "state": "AR", "lat": "34.4212", "lng": "-90.8133"}, {"name": "Roland", "state": "AR", "lat": "34.9005", "lng": "-92.5186"}, {"name": "Bearden", "state": "AR", "lat": "33.7276", "lng": "-92.6187"}, {"name": "Delight", "state": "AR", "lat": "34.0299", "lng": "-93.5057"}, {"name": "Parkdale", "state": "AR", "lat": "33.1212", "lng": "-91.5464"}, {"name": "Jennette", "state": "AR", "lat": "35.1640", "lng": "-90.4092"}, {"name": "Nimmons", "state": "AR", "lat": "36.3062", "lng": "-90.0951"}, {"name": "Reyno", "state": "AR", "lat": "36.3609", "lng": "-90.7590"}, {"name": "Hermitage", "state": "AR", "lat": "33.4472", "lng": "-92.1714"}, {"name": "Pine Bluff", "state": "AR", "lat": "34.2116", "lng": "-92.0178"}, {"name": "Fort Smith", "state": "AR", "lat": "35.3493", "lng": "-94.3695"}, {"name": "Everton", "state": "AR", "lat": "36.1541", "lng": "-92.9095"}, {"name": "Bluff City", "state": "AR", "lat": "33.7224", "lng": "-93.1316"}, {"name": "Fifty-Six", "state": "AR", "lat": "35.9620", "lng": "-92.2301"}, {"name": "Plainview", "state": "AR", "lat": "34.9899", "lng": "-93.2979"}, {"name": "Greenland", "state": "AR", "lat": "35.9961", "lng": "-94.1903"}, {"name": "Hickory Ridge", "state": "AR", "lat": "35.4028", "lng": "-90.9944"}, {"name": "Walnut Ridge", "state": "AR", "lat": "36.0852", "lng": "-90.9462"}, {"name": "Decatur", "state": "AR", "lat": "36.3402", "lng": "-94.4578"}, {"name": "Tollette", "state": "AR", "lat": "33.8183", "lng": "-93.8969"}, {"name": "Magazine", "state": "AR", "lat": "35.1536", "lng": "-93.8064"}, {"name": "Etowah", "state": "AR", "lat": "35.7225", "lng": "-90.2320"}, {"name": "Dermott", "state": "AR", "lat": "33.5271", "lng": "-91.4324"}, {"name": "Marshall", "state": "AR", "lat": "35.9084", "lng": "-92.6460"}, {"name": "Haskell", "state": "AR", "lat": "34.5095", "lng": "-92.6406"}, {"name": "Batesville", "state": "AR", "lat": "35.7687", "lng": "-91.6226"}, {"name": "Norfork", "state": "AR", "lat": "36.2097", "lng": "-92.2800"}, {"name": "Weldon", "state": "AR", "lat": "35.4481", "lng": "-91.2315"}, {"name": "Gould", "state": "AR", "lat": "33.9872", "lng": "-91.5640"}, {"name": "Blevins", "state": "AR", "lat": "33.8716", "lng": "-93.5778"}, {"name": "Woodlawn", "state": "AR", "lat": "33.9668", "lng": "-92.0452"}, {"name": "Brookland", "state": "AR", "lat": "35.8987", "lng": "-90.5764"}, {"name": "Gum Springs", "state": "AR", "lat": "34.0639", "lng": "-93.0958"}, {"name": "Little Rock", "state": "AR", "lat": "34.7255", "lng": "-92.3580"}, {"name": "Hackett", "state": "AR", "lat": "35.1877", "lng": "-94.4107"}, {"name": "Gosnell", "state": "AR", "lat": "35.9645", "lng": "-89.9721"}, {"name": "Shannon Hills", "state": "AR", "lat": "34.6157", "lng": "-92.4217"}, {"name": "Adona", "state": "AR", "lat": "35.0399", "lng": "-92.8991"}, {"name": "Sweet Home", "state": "AR", "lat": "34.6707", "lng": "-92.2465"}, {"name": "Caraway", "state": "AR", "lat": "35.7597", "lng": "-90.3222"}, {"name": "Ogden", "state": "AR", "lat": "33.5859", "lng": "-94.0469"}, {"name": "Lake Hamilton", "state": "AR", "lat": "34.4269", "lng": "-93.0887"}, {"name": "Roe", "state": "AR", "lat": "34.6313", "lng": "-91.3864"}, {"name": "Dumas", "state": "AR", "lat": "33.8849", "lng": "-91.4861"}, {"name": "Tyronza", "state": "AR", "lat": "35.4868", "lng": "-90.3559"}, {"name": "Caldwell", "state": "AR", "lat": "35.0788", "lng": "-90.8136"}, {"name": "Rose Bud", "state": "AR", "lat": "35.3250", "lng": "-92.0812"}, {"name": "Cave City", "state": "AR", "lat": "35.9482", "lng": "-91.5468"}, {"name": "Tillar", "state": "AR", "lat": "33.7109", "lng": "-91.4517"}, {"name": "Hot Springs", "state": "AR", "lat": "34.4902", "lng": "-93.0498"}, {"name": "McCrory", "state": "AR", "lat": "35.2572", "lng": "-91.1972"}, {"name": "Humnoke", "state": "AR", "lat": "34.5422", "lng": "-91.7596"}, {"name": "Corinth", "state": "AR", "lat": "35.0693", "lng": "-93.4235"}, {"name": "Guy", "state": "AR", "lat": "35.3272", "lng": "-92.3367"}, {"name": "Widener", "state": "AR", "lat": "35.0220", "lng": "-90.6814"}, {"name": "Traskwood", "state": "AR", "lat": "34.4533", "lng": "-92.6642"}, {"name": "Ashdown", "state": "AR", "lat": "33.6746", "lng": "-94.1264"}, {"name": "St. Paul", "state": "AR", "lat": "35.8251", "lng": "-93.7652"}, {"name": "Franklin", "state": "AR", "lat": "36.1727", "lng": "-91.7697"}, {"name": "Stamps", "state": "AR", "lat": "33.3566", "lng": "-93.4956"}, {"name": "South Lead Hill", "state": "AR", "lat": "36.3948", "lng": "-92.9057"}, {"name": "Texarkana", "state": "AR", "lat": "33.4361", "lng": "-93.9960"}, {"name": "Subiaco", "state": "AR", "lat": "35.2982", "lng": "-93.6385"}, {"name": "Wickes", "state": "AR", "lat": "34.2988", "lng": "-94.3331"}, {"name": "Mansfield", "state": "AR", "lat": "35.0634", "lng": "-94.2375"}, {"name": "Bellefonte", "state": "AR", "lat": "36.1998", "lng": "-93.0468"}, {"name": "Wooster", "state": "AR", "lat": "35.1998", "lng": "-92.4503"}, {"name": "Fulton", "state": "AR", "lat": "33.6126", "lng": "-93.8137"}, {"name": "Tuckerman", "state": "AR", "lat": "35.7235", "lng": "-91.2027"}, {"name": "Sidney", "state": "AR", "lat": "36.0046", "lng": "-91.6583"}, {"name": "Antoine", "state": "AR", "lat": "34.0343", "lng": "-93.4226"}, {"name": "Mountain Pine", "state": "AR", "lat": "34.5693", "lng": "-93.1726"}, {"name": "North Little Rock", "state": "AR", "lat": "34.7807", "lng": "-92.2372"}, {"name": "Johnson", "state": "AR", "lat": "36.1328", "lng": "-94.1757"}, {"name": "Prairie Creek", "state": "AR", "lat": "36.3400", "lng": "-94.0613"}, {"name": "Ash Flat", "state": "AR", "lat": "36.2365", "lng": "-91.6066"}, {"name": "Lafe", "state": "AR", "lat": "36.2092", "lng": "-90.5043"}, {"name": "Lost Bridge Village", "state": "AR", "lat": "36.3898", "lng": "-93.9156"}, {"name": "Cotter", "state": "AR", "lat": "36.2818", "lng": "-92.5212"}, {"name": "Rondo", "state": "AR", "lat": "34.6575", "lng": "-90.8208"}, {"name": "Tull", "state": "AR", "lat": "34.4410", "lng": "-92.5779"}, {"name": "Hagarville", "state": "AR", "lat": "35.5151", "lng": "-93.3335"}, {"name": "Gurdon", "state": "AR", "lat": "33.9155", "lng": "-93.1544"}, {"name": "Marmaduke", "state": "AR", "lat": "36.1901", "lng": "-90.3860"}, {"name": "Highfill", "state": "AR", "lat": "36.2767", "lng": "-94.3236"}, {"name": "Bradley", "state": "AR", "lat": "33.0993", "lng": "-93.6569"}, {"name": "Crossett", "state": "AR", "lat": "33.1280", "lng": "-91.9631"}, {"name": "Blytheville", "state": "AR", "lat": "35.9322", "lng": "-89.9051"}, {"name": "Carlisle", "state": "AR", "lat": "34.7947", "lng": "-91.7361"}, {"name": "Fargo", "state": "AR", "lat": "34.9537", "lng": "-91.1764"}, {"name": "Mountain Home", "state": "AR", "lat": "36.3349", "lng": "-92.3846"}, {"name": "Datto", "state": "AR", "lat": "36.3925", "lng": "-90.7285"}, {"name": "Pea Ridge", "state": "AR", "lat": "36.4490", "lng": "-94.1212"}, {"name": "Paragould", "state": "AR", "lat": "36.0556", "lng": "-90.5148"}, {"name": "Coal Hill", "state": "AR", "lat": "35.4370", "lng": "-93.6659"}, {"name": "Pollard", "state": "AR", "lat": "36.4296", "lng": "-90.2670"}, {"name": "Central City", "state": "AR", "lat": "35.3300", "lng": "-94.2347"}, {"name": "Anthonyville", "state": "AR", "lat": "35.0398", "lng": "-90.3403"}, {"name": "Hartford", "state": "AR", "lat": "35.0236", "lng": "-94.3799"}, {"name": "Corning", "state": "AR", "lat": "36.4109", "lng": "-90.5860"}, {"name": "Shirley", "state": "AR", "lat": "35.6442", "lng": "-92.3137"}, {"name": "Greenwood", "state": "AR", "lat": "35.2134", "lng": "-94.2407"}, {"name": "Bauxite", "state": "AR", "lat": "34.5602", "lng": "-92.4987"}, {"name": "Chidester", "state": "AR", "lat": "33.7020", "lng": "-93.0238"}, {"name": "Birdsong", "state": "AR", "lat": "35.4588", "lng": "-90.2613"}, {"name": "Keiser", "state": "AR", "lat": "35.6740", "lng": "-90.0958"}, {"name": "Centerton", "state": "AR", "lat": "36.3559", "lng": "-94.2972"}, {"name": "Pleasant Plains", "state": "AR", "lat": "35.5539", "lng": "-91.6281"}, {"name": "Calico Rock", "state": "AR", "lat": "36.1399", "lng": "-92.1337"}, {"name": "Norman", "state": "AR", "lat": "34.4584", "lng": "-93.6791"}, {"name": "Mulberry", "state": "AR", "lat": "35.5102", "lng": "-94.0734"}, {"name": "Sunset", "state": "AR", "lat": "35.2240", "lng": "-90.2062"}, {"name": "Madison", "state": "AR", "lat": "35.0188", "lng": "-90.7299"}, {"name": "Minturn", "state": "AR", "lat": "35.9760", "lng": "-91.0275"}, {"name": "Vandervoort", "state": "AR", "lat": "34.3800", "lng": "-94.3642"}, {"name": "Murfreesboro", "state": "AR", "lat": "34.0649", "lng": "-93.6902"}, {"name": "Southside", "state": "AR", "lat": "35.7150", "lng": "-91.6329"}, {"name": "Osceola", "state": "AR", "lat": "35.6941", "lng": "-89.9935"}, {"name": "Kibler", "state": "AR", "lat": "35.4266", "lng": "-94.2367"}, {"name": "Swifton", "state": "AR", "lat": "35.8244", "lng": "-91.1294"}, {"name": "Knoxville", "state": "AR", "lat": "35.3780", "lng": "-93.3631"}, {"name": "Magnet Cove", "state": "AR", "lat": "34.4492", "lng": "-92.8379"}, {"name": "Yellville", "state": "AR", "lat": "36.2289", "lng": "-92.6860"}, {"name": "Jericho", "state": "AR", "lat": "35.2856", "lng": "-90.2293"}, {"name": "Valley Springs", "state": "AR", "lat": "36.1537", "lng": "-92.9896"}, {"name": "LaGrange", "state": "AR", "lat": "34.6555", "lng": "-90.7351"}, {"name": "Higden", "state": "AR", "lat": "35.5665", "lng": "-92.2046"}, {"name": "Oden", "state": "AR", "lat": "34.6215", "lng": "-93.7862"}, {"name": "Hughes", "state": "AR", "lat": "34.9483", "lng": "-90.4707"}, {"name": "Casa", "state": "AR", "lat": "35.0253", "lng": "-93.0448"}, {"name": "Cash", "state": "AR", "lat": "35.8013", "lng": "-90.9313"}, {"name": "Griffithville", "state": "AR", "lat": "35.1245", "lng": "-91.6459"}, {"name": "Smithville", "state": "AR", "lat": "36.0799", "lng": "-91.3027"}, {"name": "Beaver", "state": "AR", "lat": "36.4752", "lng": "-93.7727"}, {"name": "Pyatt", "state": "AR", "lat": "36.2509", "lng": "-92.8443"}, {"name": "Russellville", "state": "AR", "lat": "35.2763", "lng": "-93.1383"}, {"name": "Horatio", "state": "AR", "lat": "33.9410", "lng": "-94.3554"}, {"name": "Cabot", "state": "AR", "lat": "34.9764", "lng": "-92.0273"}, {"name": "Hoxie", "state": "AR", "lat": "36.0360", "lng": "-90.9736"}, {"name": "Lewisville", "state": "AR", "lat": "33.3643", "lng": "-93.5751"}, {"name": "Atkins", "state": "AR", "lat": "35.2414", "lng": "-92.9465"}, {"name": "Augusta", "state": "AR", "lat": "35.2856", "lng": "-91.3616"}, {"name": "Harrison", "state": "AR", "lat": "36.2438", "lng": "-93.1198"}, {"name": "Mountain View", "state": "AR", "lat": "35.8635", "lng": "-92.1041"}, {"name": "Sulphur Springs", "state": "AR", "lat": "36.4837", "lng": "-94.4591"}, {"name": "Earle", "state": "AR", "lat": "35.2734", "lng": "-90.4642"}, {"name": "Plumerville", "state": "AR", "lat": "35.1600", "lng": "-92.6425"}, {"name": "Lepanto", "state": "AR", "lat": "35.6079", "lng": "-90.3334"}, {"name": "Glenwood", "state": "AR", "lat": "34.3278", "lng": "-93.5311"}, {"name": "Gilmore", "state": "AR", "lat": "35.4131", "lng": "-90.2973"}, {"name": "Garland", "state": "AR", "lat": "33.3609", "lng": "-93.7142"}, {"name": "Wheatley", "state": "AR", "lat": "34.9211", "lng": "-91.1063"}, {"name": "Black Rock", "state": "AR", "lat": "36.1070", "lng": "-91.1074"}, {"name": "Caddo Valley", "state": "AR", "lat": "34.1888", "lng": "-93.0690"}, {"name": "Pottsville", "state": "AR", "lat": "35.2314", "lng": "-93.0638"}, {"name": "Garner", "state": "AR", "lat": "35.1418", "lng": "-91.7809"}, {"name": "Lakeview", "state": "AR", "lat": "36.3739", "lng": "-92.5387"}, {"name": "Jasper", "state": "AR", "lat": "36.0102", "lng": "-93.1862"}, {"name": "Harrell", "state": "AR", "lat": "33.5102", "lng": "-92.4011"}, {"name": "Louann", "state": "AR", "lat": "33.3916", "lng": "-92.7924"}, {"name": "Concord", "state": "AR", "lat": "35.6625", "lng": "-91.8490"}, {"name": "Mineral Springs", "state": "AR", "lat": "33.8767", "lng": "-93.9218"}, {"name": "Hartman", "state": "AR", "lat": "35.4350", "lng": "-93.6214"}, {"name": "Benton", "state": "AR", "lat": "34.5771", "lng": "-92.5715"}, {"name": "Strawberry", "state": "AR", "lat": "35.9665", "lng": "-91.3211"}, {"name": "Taylor", "state": "AR", "lat": "33.0998", "lng": "-93.4618"}, {"name": "Salem", "state": "AR", "lat": "36.3713", "lng": "-91.8246"}, {"name": "Cove", "state": "AR", "lat": "34.4366", "lng": "-94.4160"}, {"name": "Imboden", "state": "AR", "lat": "36.2021", "lng": "-91.1823"}, {"name": "Havana", "state": "AR", "lat": "35.1098", "lng": "-93.5260"}, {"name": "Scranton", "state": "AR", "lat": "35.3606", "lng": "-93.5394"}, {"name": "Sulphur Rock", "state": "AR", "lat": "35.7518", "lng": "-91.5002"}, {"name": "Dyer", "state": "AR", "lat": "35.4943", "lng": "-94.1385"}, {"name": "DeWitt", "state": "AR", "lat": "34.2873", "lng": "-91.3383"}, {"name": "Rosston", "state": "AR", "lat": "33.5877", "lng": "-93.2798"}, {"name": "Zinc", "state": "AR", "lat": "36.2836", "lng": "-92.9147"}, {"name": "Jerome", "state": "AR", "lat": "33.3988", "lng": "-91.4697"}, {"name": "Bassett", "state": "AR", "lat": "35.5356", "lng": "-90.1294"}, {"name": "Farmington", "state": "AR", "lat": "36.0370", "lng": "-94.2537"}, {"name": "Fourche", "state": "AR", "lat": "34.9933", "lng": "-92.6189"}, {"name": "Bodcaw", "state": "AR", "lat": "33.5607", "lng": "-93.4013"}, {"name": "Alma", "state": "AR", "lat": "35.4919", "lng": "-94.2165"}, {"name": "Grannis", "state": "AR", "lat": "34.2398", "lng": "-94.3220"}, {"name": "Marion", "state": "AR", "lat": "35.2041", "lng": "-90.2061"}, {"name": "Joiner", "state": "AR", "lat": "35.5056", "lng": "-90.1500"}, {"name": "Magnolia", "state": "AR", "lat": "33.2774", "lng": "-93.2261"}, {"name": "Diaz", "state": "AR", "lat": "35.6478", "lng": "-91.2620"}, {"name": "Searcy", "state": "AR", "lat": "35.2418", "lng": "-91.7351"}, {"name": "Donaldson", "state": "AR", "lat": "34.2350", "lng": "-92.9195"}, {"name": "Moro", "state": "AR", "lat": "34.7920", "lng": "-90.9880"}, {"name": "Maumelle", "state": "AR", "lat": "34.8522", "lng": "-92.4000"}, {"name": "Berryville", "state": "AR", "lat": "36.3713", "lng": "-93.5705"}, {"name": "St. Charles", "state": "AR", "lat": "34.3732", "lng": "-91.1373"}, {"name": "Avoca", "state": "AR", "lat": "36.3980", "lng": "-94.0710"}, {"name": "Van Buren", "state": "AR", "lat": "35.4480", "lng": "-94.3529"}, {"name": "Leola", "state": "AR", "lat": "34.1700", "lng": "-92.5914"}, {"name": "Lonoke", "state": "AR", "lat": "34.7908", "lng": "-91.9069"}, {"name": "Luxora", "state": "AR", "lat": "35.7576", "lng": "-89.9298"}, {"name": "Beedeville", "state": "AR", "lat": "35.4292", "lng": "-91.1107"}, {"name": "Rye", "state": "AR", "lat": "33.7505", "lng": "-91.9985"}, {"name": "Diamond City", "state": "AR", "lat": "36.4575", "lng": "-92.9129"}, {"name": "Rudy", "state": "AR", "lat": "35.5285", "lng": "-94.2411"}, {"name": "McCaskill", "state": "AR", "lat": "33.9187", "lng": "-93.6416"}, {"name": "Banks", "state": "AR", "lat": "33.5758", "lng": "-92.2671"}, {"name": "Scott", "state": "AR", "lat": "34.6967", "lng": "-92.0938"}, {"name": "Forrest City", "state": "AR", "lat": "35.0102", "lng": "-90.7874"}, {"name": "El Dorado", "state": "AR", "lat": "33.2184", "lng": "-92.6640"}, {"name": "De Valls Bluff", "state": "AR", "lat": "34.7859", "lng": "-91.4602"}, {"name": "Lowell", "state": "AR", "lat": "36.2563", "lng": "-94.1518"}, {"name": "Manila", "state": "AR", "lat": "35.8848", "lng": "-90.1648"}, {"name": "Hunter", "state": "AR", "lat": "35.0545", "lng": "-91.1227"}, {"name": "Campbell Station", "state": "AR", "lat": "35.6678", "lng": "-91.2538"}, {"name": "Oxford", "state": "AR", "lat": "36.2092", "lng": "-91.9190"}, {"name": "Grubbs", "state": "AR", "lat": "35.6540", "lng": "-91.0755"}, {"name": "Big Flat", "state": "AR", "lat": "36.0056", "lng": "-92.4066"}, {"name": "St. Francis", "state": "AR", "lat": "36.4556", "lng": "-90.1428"}, {"name": "Friendship", "state": "AR", "lat": "34.2243", "lng": "-93.0037"}, {"name": "England", "state": "AR", "lat": "34.5459", "lng": "-91.9690"}, {"name": "Portland", "state": "AR", "lat": "33.2379", "lng": "-91.5109"}, {"name": "West Point", "state": "AR", "lat": "35.2033", "lng": "-91.6099"}, {"name": "Perry", "state": "AR", "lat": "35.0444", "lng": "-92.7939"}, {"name": "Natural Steps", "state": "AR", "lat": "34.8669", "lng": "-92.4881"}, {"name": "East Camden", "state": "AR", "lat": "33.6082", "lng": "-92.7435"}, {"name": "Monette", "state": "AR", "lat": "35.8933", "lng": "-90.3442"}, {"name": "Cammack Village", "state": "AR", "lat": "34.7808", "lng": "-92.3449"}, {"name": "Belleville", "state": "AR", "lat": "35.0915", "lng": "-93.4458"}, {"name": "Oak Grove Heights", "state": "AR", "lat": "36.1271", "lng": "-90.5085"}, {"name": "Daisy", "state": "AR", "lat": "34.2349", "lng": "-93.7406"}, {"name": "Mount Pleasant", "state": "AR", "lat": "35.9818", "lng": "-91.7770"}, {"name": "Amagon", "state": "AR", "lat": "35.5632", "lng": "-91.1093"}, {"name": "Salesville", "state": "AR", "lat": "36.2409", "lng": "-92.2768"}, {"name": "Wiederkehr Village", "state": "AR", "lat": "35.4814", "lng": "-93.7579"}, {"name": "Prescott", "state": "AR", "lat": "33.8056", "lng": "-93.3909"}, {"name": "Allport", "state": "AR", "lat": "34.5393", "lng": "-91.7843"}, {"name": "Garfield", "state": "AR", "lat": "36.4554", "lng": "-93.9757"}, {"name": "Bigelow", "state": "AR", "lat": "34.9985", "lng": "-92.6312"}, {"name": "Almyra", "state": "AR", "lat": "34.4057", "lng": "-91.4109"}, {"name": "Eureka Springs", "state": "AR", "lat": "36.4105", "lng": "-93.7450"}, {"name": "Wilson", "state": "AR", "lat": "35.5661", "lng": "-90.0430"}, {"name": "Sherwood", "state": "AR", "lat": "34.8509", "lng": "-92.2029"}, {"name": "Portia", "state": "AR", "lat": "36.0849", "lng": "-91.0711"}, {"name": "Patterson", "state": "AR", "lat": "35.2591", "lng": "-91.2352"}, {"name": "Omaha", "state": "AR", "lat": "36.4583", "lng": "-93.1910"}, {"name": "Perrytown", "state": "AR", "lat": "33.6973", "lng": "-93.5341"}, {"name": "Chester", "state": "AR", "lat": "35.6778", "lng": "-94.1778"}, {"name": "Tinsman", "state": "AR", "lat": "33.6292", "lng": "-92.3533"}, {"name": "North Crossett", "state": "AR", "lat": "33.1710", "lng": "-91.9367"}, {"name": "Bergman", "state": "AR", "lat": "36.3128", "lng": "-93.0115"}, {"name": "East End", "state": "AR", "lat": "34.5554", "lng": "-92.3261"}, {"name": "Dierks", "state": "AR", "lat": "34.1200", "lng": "-94.0173"}, {"name": "Enola", "state": "AR", "lat": "35.1958", "lng": "-92.2068"}, {"name": "Alicia", "state": "AR", "lat": "35.8943", "lng": "-91.0832"}, {"name": "Alexander", "state": "AR", "lat": "34.6185", "lng": "-92.4512"}, {"name": "Ravenden Springs", "state": "AR", "lat": "36.3127", "lng": "-91.2233"}, {"name": "Leachville", "state": "AR", "lat": "35.9226", "lng": "-90.2541"}, {"name": "Elm Springs", "state": "AR", "lat": "36.2069", "lng": "-94.2366"}, {"name": "Green Forest", "state": "AR", "lat": "36.3344", "lng": "-93.4285"}, {"name": "Mayflower", "state": "AR", "lat": "34.9688", "lng": "-92.4223"}, {"name": "Nashville", "state": "AR", "lat": "33.9415", "lng": "-93.8517"}, {"name": "Avilla", "state": "AR", "lat": "34.6988", "lng": "-92.5813"}, {"name": "Turrell", "state": "AR", "lat": "35.3763", "lng": "-90.2704"}, {"name": "Ozark", "state": "AR", "lat": "35.4995", "lng": "-93.8431"}, {"name": "Holly Grove", "state": "AR", "lat": "34.6003", "lng": "-91.1963"}, {"name": "Waldenburg", "state": "AR", "lat": "35.5653", "lng": "-90.9346"}, {"name": "Piggott", "state": "AR", "lat": "36.3858", "lng": "-90.2016"}, {"name": "Kirby", "state": "AR", "lat": "34.2556", "lng": "-93.6522"}, {"name": "Monticello", "state": "AR", "lat": "33.6258", "lng": "-91.7934"}, {"name": "Quitman", "state": "AR", "lat": "35.3825", "lng": "-92.2138"}, {"name": "Landmark", "state": "AR", "lat": "34.6070", "lng": "-92.3206"}, {"name": "Altus", "state": "AR", "lat": "35.4467", "lng": "-93.7644"}, {"name": "Norphlet", "state": "AR", "lat": "33.3199", "lng": "-92.6620"}, {"name": "Jonesboro", "state": "AR", "lat": "35.8211", "lng": "-90.6793"}, {"name": "Jacksonville", "state": "AR", "lat": "34.8807", "lng": "-92.1302"}, {"name": "Cherokee City", "state": "AR", "lat": "36.2947", "lng": "-94.5769"}, {"name": "Weiner", "state": "AR", "lat": "35.6197", "lng": "-90.9054"}, {"name": "Foreman", "state": "AR", "lat": "33.7197", "lng": "-94.3979"}, {"name": "Evening Shade", "state": "AR", "lat": "36.0702", "lng": "-91.6219"}, {"name": "Russell", "state": "AR", "lat": "35.3620", "lng": "-91.5100"}, {"name": "Newark", "state": "AR", "lat": "35.7083", "lng": "-91.4432"}, {"name": "Morrilton", "state": "AR", "lat": "35.1560", "lng": "-92.7390"}, {"name": "Lavaca", "state": "AR", "lat": "35.3341", "lng": "-94.1799"}, {"name": "Clinton", "state": "AR", "lat": "35.5801", "lng": "-92.4542"}, {"name": "Viola", "state": "AR", "lat": "36.3972", "lng": "-91.9852"}, {"name": "Marie", "state": "AR", "lat": "35.6130", "lng": "-90.0829"}, {"name": "Lexa", "state": "AR", "lat": "34.5982", "lng": "-90.7519"}, {"name": "Springtown", "state": "AR", "lat": "36.2606", "lng": "-94.4239"}, {"name": "Knobel", "state": "AR", "lat": "36.3199", "lng": "-90.6024"}, {"name": "Reed", "state": "AR", "lat": "33.7020", "lng": "-91.4461"}, {"name": "Hot Springs Village", "state": "AR", "lat": "34.6568", "lng": "-92.9644"}, {"name": "Winthrop", "state": "AR", "lat": "33.8308", "lng": "-94.3542"}, {"name": "De Queen", "state": "AR", "lat": "34.0426", "lng": "-94.3420"}, {"name": "Peach Orchard", "state": "AR", "lat": "36.2812", "lng": "-90.6608"}, {"name": "Cedarville", "state": "AR", "lat": "35.5831", "lng": "-94.3615"}, {"name": "Dennard", "state": "AR", "lat": "35.7498", "lng": "-92.5394"}, {"name": "Pangburn", "state": "AR", "lat": "35.4261", "lng": "-91.8394"}, {"name": "Fairfield Bay", "state": "AR", "lat": "35.6050", "lng": "-92.2659"}, {"name": "Lonsdale", "state": "AR", "lat": "34.5450", "lng": "-92.8106"}, {"name": "Fountain Lake", "state": "AR", "lat": "34.6136", "lng": "-92.9200"}, {"name": "Fisher", "state": "AR", "lat": "35.4915", "lng": "-90.9725"}, {"name": "O'Kean", "state": "AR", "lat": "36.1715", "lng": "-90.8183"}, {"name": "Magness", "state": "AR", "lat": "35.7030", "lng": "-91.4821"}, {"name": "Summit", "state": "AR", "lat": "36.2522", "lng": "-92.6883"}, {"name": "Fayetteville", "state": "AR", "lat": "36.0713", "lng": "-94.1660"}, {"name": "Bull Shoals", "state": "AR", "lat": "36.3747", "lng": "-92.5902"}, {"name": "Hampton", "state": "AR", "lat": "33.5363", "lng": "-92.4661"}, {"name": "Little Flock", "state": "AR", "lat": "36.3855", "lng": "-94.1361"}, {"name": "Mount Ida", "state": "AR", "lat": "34.5509", "lng": "-93.6309"}, {"name": "New Blaine", "state": "AR", "lat": "35.2929", "lng": "-93.4202"}, {"name": "Sherrill", "state": "AR", "lat": "34.3850", "lng": "-91.9518"}, {"name": "Menifee", "state": "AR", "lat": "35.1493", "lng": "-92.5544"}, {"name": "Dardanelle", "state": "AR", "lat": "35.2263", "lng": "-93.1649"}, {"name": "Greenway", "state": "AR", "lat": "36.3406", "lng": "-90.2223"}, {"name": "Oak Grove", "state": "AR", "lat": "36.4642", "lng": "-93.4302"}, {"name": "Bryant", "state": "AR", "lat": "34.6152", "lng": "-92.4912"}, {"name": "Carthage", "state": "AR", "lat": "34.0726", "lng": "-92.5553"}, {"name": "Newport", "state": "AR", "lat": "35.6234", "lng": "-91.2322"}, {"name": "Ulm", "state": "AR", "lat": "34.5762", "lng": "-91.4617"}, {"name": "White Hall", "state": "AR", "lat": "34.2737", "lng": "-92.1005"}, {"name": "Dyess", "state": "AR", "lat": "35.5893", "lng": "-90.2133"}, {"name": "Trumann", "state": "AR", "lat": "35.6761", "lng": "-90.5231"}, {"name": "Egypt", "state": "AR", "lat": "35.8677", "lng": "-90.9454"}, {"name": "Hardy", "state": "AR", "lat": "36.3187", "lng": "-91.4790"}, {"name": "Maysville", "state": "AR", "lat": "36.4019", "lng": "-94.5889"}, {"name": "Blue Mountain", "state": "AR", "lat": "35.1311", "lng": "-93.7162"}, {"name": "Gateway", "state": "AR", "lat": "36.4854", "lng": "-93.9365"}, {"name": "Springdale", "state": "AR", "lat": "36.1898", "lng": "-94.1573"}, {"name": "Lake City", "state": "AR", "lat": "35.8202", "lng": "-90.4547"}, {"name": "Pocahontas", "state": "AR", "lat": "36.2640", "lng": "-90.9703"}, {"name": "Emerson", "state": "AR", "lat": "33.0973", "lng": "-93.1960"}, {"name": "Wrightsville", "state": "AR", "lat": "34.6109", "lng": "-92.2136"}, {"name": "Center Ridge", "state": "AR", "lat": "35.3806", "lng": "-92.5702"}, {"name": "Powhatan", "state": "AR", "lat": "36.0841", "lng": "-91.1202"}, {"name": "Mount Vernon", "state": "AR", "lat": "35.2236", "lng": "-92.1240"}, {"name": "Helena-West Helena", "state": "AR", "lat": "34.5314", "lng": "-90.6201"}, {"name": "Melbourne", "state": "AR", "lat": "36.0638", "lng": "-91.8865"}, {"name": "Hensley", "state": "AR", "lat": "34.5068", "lng": "-92.2069"}, {"name": "Fordyce", "state": "AR", "lat": "33.8181", "lng": "-92.4174"}, {"name": "Holiday Island", "state": "AR", "lat": "36.4762", "lng": "-93.7342"}, {"name": "McNab", "state": "AR", "lat": "33.6609", "lng": "-93.8323"}, {"name": "Lockesburg", "state": "AR", "lat": "33.9716", "lng": "-94.1761"}, {"name": "West Fork", "state": "AR", "lat": "35.9360", "lng": "-94.1798"}, {"name": "Goshen", "state": "AR", "lat": "36.1042", "lng": "-94.0038"}, {"name": "Houston", "state": "AR", "lat": "35.0349", "lng": "-92.6945"}, {"name": "Horseshoe Bend", "state": "AR", "lat": "36.2217", "lng": "-91.7396"}, {"name": "Fredonia", "state": "AR", "lat": "34.8197", "lng": "-91.4101"}, {"name": "Altheimer", "state": "AR", "lat": "34.3241", "lng": "-91.8481"}, {"name": "West Memphis", "state": "AR", "lat": "35.1531", "lng": "-90.1995"}, {"name": "Woodson", "state": "AR", "lat": "34.5380", "lng": "-92.2211"}, {"name": "Whelen Springs", "state": "AR", "lat": "33.8331", "lng": "-93.1259"}, {"name": "Staves", "state": "AR", "lat": "34.0310", "lng": "-92.2780"}, {"name": "Harrisburg", "state": "AR", "lat": "35.5634", "lng": "-90.7214"}, {"name": "Black Springs", "state": "AR", "lat": "34.4607", "lng": "-93.7123"}, {"name": "Huttig", "state": "AR", "lat": "33.0418", "lng": "-92.1818"}, {"name": "Huntington", "state": "AR", "lat": "35.0814", "lng": "-94.2663"}, {"name": "Western Grove", "state": "AR", "lat": "36.1011", "lng": "-92.9546"}, {"name": "Oakhaven", "state": "AR", "lat": "33.7293", "lng": "-93.6205"}, {"name": "Jacksonport", "state": "AR", "lat": "35.6422", "lng": "-91.3080"}, {"name": "Booneville", "state": "AR", "lat": "35.1393", "lng": "-93.9179"}, {"name": "Tumbling Shoals", "state": "AR", "lat": "35.5479", "lng": "-91.9688"}, {"name": "Flippin", "state": "AR", "lat": "36.2773", "lng": "-92.5930"}, {"name": "Humphrey", "state": "AR", "lat": "34.4224", "lng": "-91.7025"}, {"name": "Austin", "state": "AR", "lat": "35.0069", "lng": "-91.9896"}, {"name": "Piney", "state": "AR", "lat": "34.5024", "lng": "-93.1420"}, {"name": "Gassville", "state": "AR", "lat": "36.2850", "lng": "-92.4868"}, {"name": "Caulksville", "state": "AR", "lat": "35.3017", "lng": "-93.8680"}, {"name": "Palestine", "state": "AR", "lat": "34.9689", "lng": "-90.9062"}, {"name": "Perryville", "state": "AR", "lat": "35.0120", "lng": "-92.8030"}, {"name": "Georgetown", "state": "AR", "lat": "35.1267", "lng": "-91.4539"}, {"name": "Rockwell", "state": "AR", "lat": "34.4641", "lng": "-93.1341"}, {"name": "Ratcliff", "state": "AR", "lat": "35.3066", "lng": "-93.8887"}, {"name": "Holland", "state": "AR", "lat": "35.1660", "lng": "-92.2770"}, {"name": "Leslie", "state": "AR", "lat": "35.8294", "lng": "-92.5563"}, {"name": "Tupelo", "state": "AR", "lat": "35.3909", "lng": "-91.2298"}, {"name": "Wilmot", "state": "AR", "lat": "33.0588", "lng": "-91.5749"}, {"name": "Prairie Grove", "state": "AR", "lat": "35.9858", "lng": "-94.3048"}, {"name": "Bonanza", "state": "AR", "lat": "35.2335", "lng": "-94.4168"}, {"name": "Cushman", "state": "AR", "lat": "35.8658", "lng": "-91.7781"}, {"name": "Hazen", "state": "AR", "lat": "34.7967", "lng": "-91.5725"}, {"name": "Mitchellville", "state": "AR", "lat": "33.9053", "lng": "-91.4983"}, {"name": "Perla", "state": "AR", "lat": "34.3647", "lng": "-92.7763"}, {"name": "Hector", "state": "AR", "lat": "35.4644", "lng": "-92.9760"}, {"name": "Colt", "state": "AR", "lat": "35.1329", "lng": "-90.8130"}, {"name": "Hope", "state": "AR", "lat": "33.6682", "lng": "-93.5895"}, {"name": "Marvell", "state": "AR", "lat": "34.5563", "lng": "-90.9153"}, {"name": "Higginson", "state": "AR", "lat": "35.1957", "lng": "-91.7143"}, {"name": "Arkansas City", "state": "AR", "lat": "33.6089", "lng": "-91.2048"}, {"name": "Delaplaine", "state": "AR", "lat": "36.2304", "lng": "-90.7256"}, {"name": "Guion", "state": "AR", "lat": "35.9269", "lng": "-91.9389"}, {"name": "Emmet", "state": "AR", "lat": "33.7227", "lng": "-93.4657"}, {"name": "Rison", "state": "AR", "lat": "33.9603", "lng": "-92.1934"}, {"name": "Kingsland", "state": "AR", "lat": "33.8659", "lng": "-92.2911"}, {"name": "Calion", "state": "AR", "lat": "33.3285", "lng": "-92.5402"}, {"name": "Gibson", "state": "AR", "lat": "34.8923", "lng": "-92.2341"}, {"name": "Lamar", "state": "AR", "lat": "35.4436", "lng": "-93.3951"}, {"name": "Maynard", "state": "AR", "lat": "36.4217", "lng": "-90.9027"}, {"name": "Marked Tree", "state": "AR", "lat": "35.5251", "lng": "-90.4251"}, {"name": "Warren", "state": "AR", "lat": "33.6113", "lng": "-92.0678"}, {"name": "Keo", "state": "AR", "lat": "34.6088", "lng": "-92.0104"}, {"name": "Smackover", "state": "AR", "lat": "33.3636", "lng": "-92.7314"}, {"name": "Pindall", "state": "AR", "lat": "36.0637", "lng": "-92.8622"}, {"name": "Denning", "state": "AR", "lat": "35.4252", "lng": "-93.7568"}, {"name": "Highland", "state": "AR", "lat": "36.2657", "lng": "-91.5186"}, {"name": "Fouke", "state": "AR", "lat": "33.2622", "lng": "-93.8852"}, {"name": "Gentry", "state": "AR", "lat": "36.2570", "lng": "-94.4907"}, {"name": "Wabbaseka", "state": "AR", "lat": "34.3592", "lng": "-91.7927"}, {"name": "Poyen", "state": "AR", "lat": "34.3243", "lng": "-92.6421"}, {"name": "Midland", "state": "AR", "lat": "35.0927", "lng": "-94.3531"}, {"name": "Aubrey", "state": "AR", "lat": "34.7193", "lng": "-90.8976"}, {"name": "Huntsville", "state": "AR", "lat": "36.0985", "lng": "-93.7363"}, {"name": "Hamburg", "state": "AR", "lat": "33.2248", "lng": "-91.7972"}, {"name": "Clarkedale", "state": "AR", "lat": "35.2970", "lng": "-90.2103"}, {"name": "Biggers", "state": "AR", "lat": "36.3319", "lng": "-90.8052"}, {"name": "Black Oak", "state": "AR", "lat": "35.8364", "lng": "-90.3676"}, {"name": "Elkins", "state": "AR", "lat": "36.0163", "lng": "-94.0250"}, {"name": "Morrison Bluff", "state": "AR", "lat": "35.3827", "lng": "-93.5230"}, {"name": "Letona", "state": "AR", "lat": "35.3635", "lng": "-91.8296"}, {"name": "Willisville", "state": "AR", "lat": "33.5194", "lng": "-93.2949"}, {"name": "Sedgwick", "state": "AR", "lat": "35.9752", "lng": "-90.8679"}, {"name": "Felsenthal", "state": "AR", "lat": "33.0588", "lng": "-92.1533"}, {"name": "Star City", "state": "AR", "lat": "33.9406", "lng": "-91.8400"}, {"name": "Prattsville", "state": "AR", "lat": "34.3171", "lng": "-92.5428"}, {"name": "Winchester", "state": "AR", "lat": "33.7741", "lng": "-91.4737"}, {"name": "West Crossett", "state": "AR", "lat": "33.1488", "lng": "-92.0221"}, {"name": "Lincoln", "state": "AR", "lat": "35.9490", "lng": "-94.4174"}, {"name": "Success", "state": "AR", "lat": "36.4545", "lng": "-90.7226"}, {"name": "Oil Trough", "state": "AR", "lat": "35.6292", "lng": "-91.4612"}, {"name": "Clarendon", "state": "AR", "lat": "34.6936", "lng": "-91.3062"}, {"name": "Conway", "state": "AR", "lat": "35.0753", "lng": "-92.4695"}, {"name": "Washington", "state": "AR", "lat": "33.7730", "lng": "-93.6833"}, {"name": "Camden", "state": "AR", "lat": "33.5672", "lng": "-92.8467"}, {"name": "Ravenden", "state": "AR", "lat": "36.2417", "lng": "-91.2511"}, {"name": "Amity", "state": "AR", "lat": "34.2662", "lng": "-93.4634"}, {"name": "Fountain Hill", "state": "AR", "lat": "33.3575", "lng": "-91.8511"}, {"name": "Ola", "state": "AR", "lat": "35.0310", "lng": "-93.2244"}, {"name": "Lynn", "state": "AR", "lat": "36.0042", "lng": "-91.2520"}, {"name": "Twin Groves", "state": "AR", "lat": "35.3187", "lng": "-92.4253"}, {"name": "Bentonville", "state": "AR", "lat": "36.3550", "lng": "-94.2299"}, {"name": "Branch", "state": "AR", "lat": "35.3075", "lng": "-93.9557"}, {"name": "Arkadelphia", "state": "AR", "lat": "34.1250", "lng": "-93.0719"}, {"name": "Montrose", "state": "AR", "lat": "33.2989", "lng": "-91.4965"}, {"name": "Elaine", "state": "AR", "lat": "34.3086", "lng": "-90.8533"}, {"name": "Mammoth Spring", "state": "AR", "lat": "36.4924", "lng": "-91.5412"}]