[{"name": "Freedom Acres", "state": "AZ", "lat": "34.3199", "lng": "-111.3051"}, {"name": "Teec Nos Pos", "state": "AZ", "lat": "36.9221", "lng": "-109.0753"}, {"name": "Crozier", "state": "AZ", "lat": "35.4227", "lng": "-113.6486"}, {"name": "Avondale", "state": "AZ", "lat": "33.3858", "lng": "-112.3236"}, {"name": "Alpine", "state": "AZ", "lat": "33.8461", "lng": "-109.1432"}, {"name": "Elfrida", "state": "AZ", "lat": "31.6858", "lng": "-109.6896"}, {"name": "North Fork", "state": "AZ", "lat": "33.9965", "lng": "-109.9593"}, {"name": "Kaibito", "state": "AZ", "lat": "36.5920", "lng": "-111.1071"}, {"name": "Lower Santan Village", "state": "AZ", "lat": "33.1427", "lng": "-111.7853"}, {"name": "St. David", "state": "AZ", "lat": "31.8992", "lng": "-110.2251"}, {"name": "Ash Fork", "state": "AZ", "lat": "35.2171", "lng": "-112.4913"}, {"name": "Poston", "state": "AZ", "lat": "33.9921", "lng": "-114.4046"}, {"name": "Drysdale", "state": "AZ", "lat": "32.6452", "lng": "-114.7067"}, {"name": "Heber-Overgaard", "state": "AZ", "lat": "34.4141", "lng": "-110.5696"}, {"name": "Three Points", "state": "AZ", "lat": "32.0596", "lng": "-111.2865"}, {"name": "Seligman", "state": "AZ", "lat": "35.3256", "lng": "-112.8573"}, {"name": "Sacate Village", "state": "AZ", "lat": "33.1416", "lng": "-111.9810"}, {"name": "Burnside", "state": "AZ", "lat": "35.7534", "lng": "-109.6248"}, {"name": "Tuba City", "state": "AZ", "lat": "36.1250", "lng": "-111.2467"}, {"name": "Roosevelt", "state": "AZ", "lat": "33.6618", "lng": "-111.1295"}, {"name": "Winslow", "state": "AZ", "lat": "35.0252", "lng": "-110.7098"}, {"name": "Crystal Beach", "state": "AZ", "lat": "34.5714", "lng": "-114.3926"}, {"name": "Scottsdale", "state": "AZ", "lat": "33.6872", "lng": "-111.8651"}, {"name": "Mesa", "state": "AZ", "lat": "33.4017", "lng": "-111.7181"}, {"name": "Greer", "state": "AZ", "lat": "34.0053", "lng": "-109.4611"}, {"name": "Kohls Ranch", "state": "AZ", "lat": "34.3210", "lng": "-111.0838"}, {"name": "Tolleson", "state": "AZ", "lat": "33.4484", "lng": "-112.2561"}, {"name": "Maricopa", "state": "AZ", "lat": "33.0404", "lng": "-112.0006"}, {"name": "Canyon Day", "state": "AZ", "lat": "33.7826", "lng": "-110.0328"}, {"name": "Chiawuli Tak", "state": "AZ", "lat": "31.9410", "lng": "-111.7765"}, {"name": "Black Canyon City", "state": "AZ", "lat": "34.0709", "lng": "-112.1220"}, {"name": "Hackberry", "state": "AZ", "lat": "35.3401", "lng": "-113.7256"}, {"name": "New Kingman-Butler", "state": "AZ", "lat": "35.2645", "lng": "-114.0091"}, {"name": "Ajo", "state": "AZ", "lat": "32.3923", "lng": "-112.8839"}, {"name": "Surprise", "state": "AZ", "lat": "33.6800", "lng": "-112.4524"}, {"name": "Sun City West", "state": "AZ", "lat": "33.6693", "lng": "-112.3575"}, {"name": "Dolan Springs", "state": "AZ", "lat": "35.5904", "lng": "-114.2852"}, {"name": "Marana", "state": "AZ", "lat": "32.4355", "lng": "-111.1558"}, {"name": "San Miguel", "state": "AZ", "lat": "31.6295", "lng": "-111.7801"}, {"name": "Tusayan", "state": "AZ", "lat": "35.9550", "lng": "-112.1202"}, {"name": "Holbrook", "state": "AZ", "lat": "34.9044", "lng": "-110.1672"}, {"name": "Seven Mile", "state": "AZ", "lat": "33.7882", "lng": "-109.9576"}, {"name": "Wet Camp Village", "state": "AZ", "lat": "33.1413", "lng": "-111.9004"}, {"name": "Gilbert", "state": "AZ", "lat": "33.3103", "lng": "-111.7463"}, {"name": "Winkelman", "state": "AZ", "lat": "32.9853", "lng": "-110.7651"}, {"name": "Round Rock", "state": "AZ", "lat": "36.5044", "lng": "-109.4616"}, {"name": "St. Johns", "state": "AZ", "lat": "34.5018", "lng": "-109.3784"}, {"name": "Six Shooter Canyon", "state": "AZ", "lat": "33.3568", "lng": "-110.7720"}, {"name": "Aztec", "state": "AZ", "lat": "32.8082", "lng": "-113.4428"}, {"name": "Solomon", "state": "AZ", "lat": "32.8138", "lng": "-109.6291"}, {"name": "First Mesa", "state": "AZ", "lat": "35.8389", "lng": "-110.3665"}, {"name": "Rock House", "state": "AZ", "lat": "33.6318", "lng": "-110.9456"}, {"name": "Springerville", "state": "AZ", "lat": "34.1560", "lng": "-109.2989"}, {"name": "Steamboat", "state": "AZ", "lat": "35.7535", "lng": "-109.8503"}, {"name": "Morristown", "state": "AZ", "lat": "33.8549", "lng": "-112.6138"}, {"name": "Snowflake", "state": "AZ", "lat": "34.5223", "lng": "-110.0914"}, {"name": "Corona de Tucson", "state": "AZ", "lat": "31.9495", "lng": "-110.7836"}, {"name": "Chuichu", "state": "AZ", "lat": "32.7403", "lng": "-111.7821"}, {"name": "Sunizona", "state": "AZ", "lat": "31.8841", "lng": "-109.6328"}, {"name": "Fort Valley", "state": "AZ", "lat": "35.2554", "lng": "-111.7253"}, {"name": "Paulden", "state": "AZ", "lat": "34.8899", "lng": "-112.4938"}, {"name": "Sedona", "state": "AZ", "lat": "34.8574", "lng": "-111.7951"}, {"name": "Kaka", "state": "AZ", "lat": "32.5113", "lng": "-112.3168"}, {"name": "Flowing Springs", "state": "AZ", "lat": "34.3131", "lng": "-111.3379"}, {"name": "Village of Oak Creek", "state": "AZ", "lat": "34.7813", "lng": "-111.7606"}, {"name": "Bear Flat", "state": "AZ", "lat": "34.2925", "lng": "-111.0674"}, {"name": "Concho", "state": "AZ", "lat": "34.4744", "lng": "-109.6102"}, {"name": "Queen Valley", "state": "AZ", "lat": "33.2830", "lng": "-111.3049"}, {"name": "Pinon", "state": "AZ", "lat": "36.0992", "lng": "-110.2209"}, {"name": "Beaver Valley", "state": "AZ", "lat": "34.3409", "lng": "-111.2987"}, {"name": "Vernon", "state": "AZ", "lat": "34.2508", "lng": "-109.6926"}, {"name": "Pinal", "state": "AZ", "lat": "33.3799", "lng": "-110.7571"}, {"name": "Lake Havasu City", "state": "AZ", "lat": "34.5006", "lng": "-114.3113"}, {"name": "Dripping Springs", "state": "AZ", "lat": "33.1050", "lng": "-110.7552"}, {"name": "Vail", "state": "AZ", "lat": "32.0217", "lng": "-110.6937"}, {"name": "Tolani Lake", "state": "AZ", "lat": "35.4309", "lng": "-110.8431"}, {"name": "Parker Strip", "state": "AZ", "lat": "34.2803", "lng": "-114.1269"}, {"name": "Woodruff", "state": "AZ", "lat": "34.7843", "lng": "-110.0366"}, {"name": "Sonoita", "state": "AZ", "lat": "31.6645", "lng": "-110.6426"}, {"name": "Ali Molina", "state": "AZ", "lat": "31.9025", "lng": "-111.7804"}, {"name": "Tacna", "state": "AZ", "lat": "32.7004", "lng": "-113.9618"}, {"name": "Whiteriver", "state": "AZ", "lat": "33.8358", "lng": "-109.9616"}, {"name": "Leupp", "state": "AZ", "lat": "35.2966", "lng": "-111.0028"}, {"name": "Wenden", "state": "AZ", "lat": "33.8324", "lng": "-113.5433"}, {"name": "Topawa", "state": "AZ", "lat": "31.8078", "lng": "-111.8304"}, {"name": "Patagonia", "state": "AZ", "lat": "31.5436", "lng": "-110.7477"}, {"name": "Tombstone", "state": "AZ", "lat": "31.7234", "lng": "-110.0798"}, {"name": "Top-of-the-World", "state": "AZ", "lat": "33.3477", "lng": "-110.9997"}, {"name": "Rincon Valley", "state": "AZ", "lat": "32.1101", "lng": "-110.6889"}, {"name": "Ak Chin", "state": "AZ", "lat": "32.2873", "lng": "-112.0091"}, {"name": "Valencia West", "state": "AZ", "lat": "32.1354", "lng": "-111.1124"}, {"name": "Willow Canyon", "state": "AZ", "lat": "32.3881", "lng": "-110.7009"}, {"name": "Ko Vaya", "state": "AZ", "lat": "32.0815", "lng": "-111.8959"}, {"name": "Dewey-Humboldt", "state": "AZ", "lat": "34.5174", "lng": "-112.2498"}, {"name": "Mescal", "state": "AZ", "lat": "31.9674", "lng": "-110.4367"}, {"name": "Del Muerto", "state": "AZ", "lat": "36.1870", "lng": "-109.4348"}, {"name": "Colorado City", "state": "AZ", "lat": "36.9774", "lng": "-112.9830"}, {"name": "Morenci", "state": "AZ", "lat": "33.0531", "lng": "-109.3307"}, {"name": "Fort Apache", "state": "AZ", "lat": "33.7907", "lng": "-109.9873"}, {"name": "Nazlini", "state": "AZ", "lat": "35.9156", "lng": "-109.4726"}, {"name": "Bylas", "state": "AZ", "lat": "33.1292", "lng": "-110.1162"}, {"name": "Picture Rocks", "state": "AZ", "lat": "32.3274", "lng": "-111.2558"}, {"name": "Wittmann", "state": "AZ", "lat": "33.7750", "lng": "-112.5251"}, {"name": "Wheatfields", "state": "AZ", "lat": "33.4805", "lng": "-110.8366"}, {"name": "Sun City", "state": "AZ", "lat": "33.6165", "lng": "-112.2819"}, {"name": "Tucson", "state": "AZ", "lat": "32.1545", "lng": "-110.8782"}, {"name": "Quartzsite", "state": "AZ", "lat": "33.6675", "lng": "-114.2170"}, {"name": "Eloy", "state": "AZ", "lat": "32.7470", "lng": "-111.5991"}, {"name": "Hotevilla-Bacavi", "state": "AZ", "lat": "35.9225", "lng": "-110.6569"}, {"name": "Second Mesa", "state": "AZ", "lat": "35.8222", "lng": "-110.4884"}, {"name": "Cactus Flats", "state": "AZ", "lat": "32.7642", "lng": "-109.7205"}, {"name": "St. Michaels", "state": "AZ", "lat": "35.6606", "lng": "-109.0962"}, {"name": "Phoenix", "state": "AZ", "lat": "33.5722", "lng": "-112.0891"}, {"name": "Cane Beds", "state": "AZ", "lat": "36.9341", "lng": "-112.9118"}, {"name": "Kykotsmovi Village", "state": "AZ", "lat": "35.8576", "lng": "-110.6338"}, {"name": "Cornville", "state": "AZ", "lat": "34.7389", "lng": "-111.9086"}, {"name": "Doney Park", "state": "AZ", "lat": "35.2687", "lng": "-111.5053"}, {"name": "Deer Creek", "state": "AZ", "lat": "34.0644", "lng": "-111.3505"}, {"name": "Catalina", "state": "AZ", "lat": "32.4849", "lng": "-110.8996"}, {"name": "Goodyear", "state": "AZ", "lat": "33.2614", "lng": "-112.3622"}, {"name": "Youngtown", "state": "AZ", "lat": "33.5846", "lng": "-112.3047"}, {"name": "Fort Mohave", "state": "AZ", "lat": "35.0004", "lng": "-114.5748"}, {"name": "Payson", "state": "AZ", "lat": "34.2434", "lng": "-111.3195"}, {"name": "Wahak Hotrontk", "state": "AZ", "lat": "32.1748", "lng": "-112.3663"}, {"name": "Shongopovi", "state": "AZ", "lat": "35.8195", "lng": "-110.5331"}, {"name": "Pine", "state": "AZ", "lat": "34.3788", "lng": "-111.4574"}, {"name": "Indian Wells", "state": "AZ", "lat": "35.4089", "lng": "-110.1061"}, {"name": "Benson", "state": "AZ", "lat": "31.9157", "lng": "-110.3256"}, {"name": "Franklin", "state": "AZ", "lat": "32.6770", "lng": "-109.0720"}, {"name": "Yarnell", "state": "AZ", "lat": "34.2283", "lng": "-112.7631"}, {"name": "Blackwater", "state": "AZ", "lat": "33.0396", "lng": "-111.5798"}, {"name": "Vicksburg", "state": "AZ", "lat": "33.7293", "lng": "-113.8254"}, {"name": "Low Mountain", "state": "AZ", "lat": "35.9481", "lng": "-110.0981"}, {"name": "Wikieup", "state": "AZ", "lat": "34.6931", "lng": "-113.5995"}, {"name": "Moccasin", "state": "AZ", "lat": "36.9099", "lng": "-112.7546"}, {"name": "Valle", "state": "AZ", "lat": "35.6245", "lng": "-112.1350"}, {"name": "Pirtleville", "state": "AZ", "lat": "31.3613", "lng": "-109.5661"}, {"name": "Whitecone", "state": "AZ", "lat": "35.6037", "lng": "-110.0791"}, {"name": "Green Valley", "state": "AZ", "lat": "31.8437", "lng": "-111.0172"}, {"name": "Beyerville", "state": "AZ", "lat": "31.3921", "lng": "-110.8748"}, {"name": "Tubac", "state": "AZ", "lat": "31.6111", "lng": "-111.0585"}, {"name": "San Manuel", "state": "AZ", "lat": "32.6091", "lng": "-110.6415"}, {"name": "Fort Defiance", "state": "AZ", "lat": "35.7469", "lng": "-109.0685"}, {"name": "Cutter", "state": "AZ", "lat": "33.3584", "lng": "-110.6593"}, {"name": "Tonto Village", "state": "AZ", "lat": "34.3198", "lng": "-111.1393"}, {"name": "Casa Grande", "state": "AZ", "lat": "32.9068", "lng": "-111.7624"}, {"name": "Star Valley", "state": "AZ", "lat": "34.2611", "lng": "-111.2197"}, {"name": "Casa Blanca", "state": "AZ", "lat": "33.1154", "lng": "-111.9080"}, {"name": "Cornfields", "state": "AZ", "lat": "35.6513", "lng": "-109.6759"}, {"name": "Avenue B and C", "state": "AZ", "lat": "32.7192", "lng": "-114.6597"}, {"name": "El Mirage", "state": "AZ", "lat": "33.5905", "lng": "-112.3271"}, {"name": "Kohatk", "state": "AZ", "lat": "32.5782", "lng": "-112.0033"}, {"name": "Summerhaven", "state": "AZ", "lat": "32.4416", "lng": "-110.7766"}, {"name": "Dennehotso", "state": "AZ", "lat": "36.8209", "lng": "-109.8790"}, {"name": "Hard Rock", "state": "AZ", "lat": "36.0309", "lng": "-110.5048"}, {"name": "Guadalupe", "state": "AZ", "lat": "33.3664", "lng": "-111.9633"}, {"name": "Williams", "state": "AZ", "lat": "35.2476", "lng": "-112.1833"}, {"name": "Wilhoit", "state": "AZ", "lat": "34.4083", "lng": "-112.6156"}, {"name": "Kachina Village", "state": "AZ", "lat": "35.0949", "lng": "-111.6927"}, {"name": "La Paz Valley", "state": "AZ", "lat": "33.5578", "lng": "-114.2434"}, {"name": "Theba", "state": "AZ", "lat": "32.9181", "lng": "-112.8903"}, {"name": "Greasewood", "state": "AZ", "lat": "35.5279", "lng": "-109.8613"}, {"name": "Santa Rosa", "state": "AZ", "lat": "32.3326", "lng": "-112.0464"}, {"name": "Icehouse Canyon", "state": "AZ", "lat": "33.3553", "lng": "-110.7965"}, {"name": "Sells", "state": "AZ", "lat": "31.9202", "lng": "-111.8775"}, {"name": "El Prado Estates", "state": "AZ", "lat": "32.7062", "lng": "-114.5215"}, {"name": "Mayer", "state": "AZ", "lat": "34.4233", "lng": "-112.2408"}, {"name": "Spring Valley", "state": "AZ", "lat": "34.3531", "lng": "-112.1513"}, {"name": "Tucson Estates", "state": "AZ", "lat": "32.1792", "lng": "-111.1254"}, {"name": "San Carlos", "state": "AZ", "lat": "33.3500", "lng": "-110.4654"}, {"name": "Queen Creek", "state": "AZ", "lat": "33.2367", "lng": "-111.6389"}, {"name": "Dateland", "state": "AZ", "lat": "32.8209", "lng": "-113.5418"}, {"name": "Lake Montezuma", "state": "AZ", "lat": "34.6414", "lng": "-111.7960"}, {"name": "Sacaton Flats Village", "state": "AZ", "lat": "33.0559", "lng": "-111.6590"}, {"name": "Ventana", "state": "AZ", "lat": "32.4681", "lng": "-112.2434"}, {"name": "Cedar Creek", "state": "AZ", "lat": "33.9030", "lng": "-110.1929"}, {"name": "Pima", "state": "AZ", "lat": "32.8886", "lng": "-109.8437"}, {"name": "San Simon", "state": "AZ", "lat": "32.2679", "lng": "-109.2308"}, {"name": "Stotonic Village", "state": "AZ", "lat": "33.1528", "lng": "-111.8167"}, {"name": "Jakes Corner", "state": "AZ", "lat": "34.0083", "lng": "-111.3202"}, {"name": "Tees Toh", "state": "AZ", "lat": "35.4849", "lng": "-110.3989"}, {"name": "Yuma", "state": "AZ", "lat": "32.5991", "lng": "-114.5488"}, {"name": "McNary", "state": "AZ", "lat": "34.0924", "lng": "-109.8541"}, {"name": "Avra Valley", "state": "AZ", "lat": "32.4195", "lng": "-111.3393"}, {"name": "Ak-Chin Village", "state": "AZ", "lat": "33.0197", "lng": "-112.0808"}, {"name": "Verde Village", "state": "AZ", "lat": "34.7120", "lng": "-111.9940"}, {"name": "Nogales", "state": "AZ", "lat": "31.3624", "lng": "-110.9336"}, {"name": "Sunwest", "state": "AZ", "lat": "33.6510", "lng": "-113.4091"}, {"name": "Elgin", "state": "AZ", "lat": "31.6680", "lng": "-110.5347"}, {"name": "Window Rock", "state": "AZ", "lat": "35.6705", "lng": "-109.0639"}, {"name": "Bryce", "state": "AZ", "lat": "32.9258", "lng": "-109.8229"}, {"name": "Dilkon", "state": "AZ", "lat": "35.3606", "lng": "-110.3155"}, {"name": "Bowie", "state": "AZ", "lat": "32.3247", "lng": "-109.4842"}, {"name": "Arivaca Junction", "state": "AZ", "lat": "31.7390", "lng": "-111.0738"}, {"name": "Arizona City", "state": "AZ", "lat": "32.7506", "lng": "-111.6707"}, {"name": "Meadview", "state": "AZ", "lat": "35.9532", "lng": "-114.0789"}, {"name": "Walnut Creek", "state": "AZ", "lat": "35.1312", "lng": "-114.1267"}, {"name": "Fort Thomas", "state": "AZ", "lat": "33.0222", "lng": "-109.9665"}, {"name": "Sun Lakes", "state": "AZ", "lat": "33.2172", "lng": "-111.8695"}, {"name": "San Jose", "state": "AZ", "lat": "32.8169", "lng": "-109.5957"}, {"name": "Mead Ranch", "state": "AZ", "lat": "34.3462", "lng": "-111.1428"}, {"name": "Central", "state": "AZ", "lat": "32.8692", "lng": "-109.7908"}, {"name": "White Mountain Lake", "state": "AZ", "lat": "34.3441", "lng": "-109.9878"}, {"name": "Ganado", "state": "AZ", "lat": "35.7016", "lng": "-109.5504"}, {"name": "Kino Springs", "state": "AZ", "lat": "31.3641", "lng": "-110.8095"}, {"name": "Cibecue", "state": "AZ", "lat": "34.0332", "lng": "-110.4854"}, {"name": "Donovan Estates", "state": "AZ", "lat": "32.7094", "lng": "-114.6782"}, {"name": "Salome", "state": "AZ", "lat": "33.7778", "lng": "-113.6061"}, {"name": "Tanque Verde", "state": "AZ", "lat": "32.2687", "lng": "-110.7437"}, {"name": "Picacho", "state": "AZ", "lat": "32.7090", "lng": "-111.4907"}, {"name": "Catalina Foothills", "state": "AZ", "lat": "32.3041", "lng": "-110.8835"}, {"name": "Taylor", "state": "AZ", "lat": "34.4393", "lng": "-110.1018"}, {"name": "Congress", "state": "AZ", "lat": "34.1526", "lng": "-112.8642"}, {"name": "Swift Trail Junction", "state": "AZ", "lat": "32.7305", "lng": "-109.7147"}, {"name": "Oracle", "state": "AZ", "lat": "32.6085", "lng": "-110.7826"}, {"name": "Supai", "state": "AZ", "lat": "36.2299", "lng": "-112.6926"}, {"name": "Truxton", "state": "AZ", "lat": "35.4870", "lng": "-113.5607"}, {"name": "Nelson", "state": "AZ", "lat": "32.4298", "lng": "-111.2649"}, {"name": "Stanfield", "state": "AZ", "lat": "32.8793", "lng": "-111.9636"}, {"name": "Hunter Creek", "state": "AZ", "lat": "34.3054", "lng": "-111.0159"}, {"name": "Cameron", "state": "AZ", "lat": "35.8537", "lng": "-111.4269"}, {"name": "Jerome", "state": "AZ", "lat": "34.7466", "lng": "-112.1072"}, {"name": "Alamo Lake", "state": "AZ", "lat": "34.2588", "lng": "-113.5079"}, {"name": "Coolidge", "state": "AZ", "lat": "32.9395", "lng": "-111.5261"}, {"name": "Carefree", "state": "AZ", "lat": "33.8234", "lng": "-111.9161"}, {"name": "Pinedale", "state": "AZ", "lat": "34.3208", "lng": "-110.2599"}, {"name": "Huachuca City", "state": "AZ", "lat": "31.6308", "lng": "-110.3422"}, {"name": "Topock", "state": "AZ", "lat": "34.7206", "lng": "-114.4780"}, {"name": "Mojave Ranch Estates", "state": "AZ", "lat": "34.9449", "lng": "-114.5907"}, {"name": "Wagon Wheel", "state": "AZ", "lat": "34.1976", "lng": "-110.0272"}, {"name": "San Luis", "state": "AZ", "lat": "32.4911", "lng": "-114.7089"}, {"name": "Cottonwood", "state": "AZ", "lat": "34.7194", "lng": "-112.0015"}, {"name": "Golden Valley", "state": "AZ", "lat": "35.2060", "lng": "-114.2327"}, {"name": "Paradise Valley", "state": "AZ", "lat": "33.5434", "lng": "-111.9595"}, {"name": "Palominas", "state": "AZ", "lat": "31.3838", "lng": "-110.1212"}, {"name": "Oak Springs", "state": "AZ", "lat": "35.4759", "lng": "-109.1319"}, {"name": "East Verde Estates", "state": "AZ", "lat": "34.2983", "lng": "-111.3645"}, {"name": "Thatcher", "state": "AZ", "lat": "32.8320", "lng": "-109.7595"}, {"name": "Florence", "state": "AZ", "lat": "33.0590", "lng": "-111.4209"}, {"name": "Charco", "state": "AZ", "lat": "32.2474", "lng": "-112.6001"}, {"name": "Linden", "state": "AZ", "lat": "34.2625", "lng": "-110.1424"}, {"name": "So-Hi", "state": "AZ", "lat": "35.2527", "lng": "-114.1415"}, {"name": "Valle Vista", "state": "AZ", "lat": "35.4109", "lng": "-113.8627"}, {"name": "Rillito", "state": "AZ", "lat": "32.4157", "lng": "-111.1549"}, {"name": "Safford", "state": "AZ", "lat": "32.8318", "lng": "-109.7006"}, {"name": "Rye", "state": "AZ", "lat": "34.0979", "lng": "-111.3542"}, {"name": "Gisela", "state": "AZ", "lat": "34.1015", "lng": "-111.2895"}, {"name": "Claypool", "state": "AZ", "lat": "33.4060", "lng": "-110.8421"}, {"name": "South Tucson", "state": "AZ", "lat": "32.1955", "lng": "-110.9692"}, {"name": "Chilchinbito", "state": "AZ", "lat": "36.5027", "lng": "-110.0512"}, {"name": "Chinle", "state": "AZ", "lat": "36.1504", "lng": "-109.5793"}, {"name": "Rock Point", "state": "AZ", "lat": "36.7173", "lng": "-109.6287"}, {"name": "Santa Cruz", "state": "AZ", "lat": "33.2326", "lng": "-112.1593"}, {"name": "Peeples Valley", "state": "AZ", "lat": "34.2773", "lng": "-112.7654"}, {"name": "Camp Verde", "state": "AZ", "lat": "34.5699", "lng": "-111.8573"}, {"name": "Douglas", "state": "AZ", "lat": "31.3602", "lng": "-109.5394"}, {"name": "Beaver Dam", "state": "AZ", "lat": "36.9071", "lng": "-113.9363"}, {"name": "Many Farms", "state": "AZ", "lat": "36.3532", "lng": "-109.6271"}, {"name": "Hayden", "state": "AZ", "lat": "32.9995", "lng": "-110.7814"}, {"name": "Cibola", "state": "AZ", "lat": "33.3733", "lng": "-114.6792"}, {"name": "Pinetop-Lakeside", "state": "AZ", "lat": "34.1486", "lng": "-109.9658"}, {"name": "Pine Lake", "state": "AZ", "lat": "35.0887", "lng": "-113.8739"}, {"name": "El Capitan", "state": "AZ", "lat": "33.2383", "lng": "-110.7833"}, {"name": "Naco", "state": "AZ", "lat": "31.3430", "lng": "-109.9337"}, {"name": "Valentine", "state": "AZ", "lat": "35.3886", "lng": "-113.6591"}, {"name": "Ali Chukson", "state": "AZ", "lat": "31.9114", "lng": "-111.8018"}, {"name": "Arlington", "state": "AZ", "lat": "33.3346", "lng": "-112.7747"}, {"name": "Oljato-Monument Valley", "state": "AZ", "lat": "36.9867", "lng": "-110.1910"}, {"name": "Red Mesa", "state": "AZ", "lat": "36.9664", "lng": "-109.3828"}, {"name": "Whetstone", "state": "AZ", "lat": "31.7011", "lng": "-110.3398"}, {"name": "Tsaile", "state": "AZ", "lat": "36.3033", "lng": "-109.2157"}, {"name": "Mohave Valley", "state": "AZ", "lat": "34.9008", "lng": "-114.5732"}, {"name": "Prescott", "state": "AZ", "lat": "34.5850", "lng": "-112.4475"}, {"name": "Clay Springs", "state": "AZ", "lat": "34.3592", "lng": "-110.3043"}, {"name": "Pinetop Country Club", "state": "AZ", "lat": "34.1163", "lng": "-109.8910"}, {"name": "Centennial Park", "state": "AZ", "lat": "36.9538", "lng": "-112.9813"}, {"name": "Somerton", "state": "AZ", "lat": "32.6009", "lng": "-114.6990"}, {"name": "Gadsden", "state": "AZ", "lat": "32.5564", "lng": "-114.7810"}, {"name": "Kayenta", "state": "AZ", "lat": "36.7144", "lng": "-110.2590"}, {"name": "Mammoth", "state": "AZ", "lat": "32.6853", "lng": "-110.7292"}, {"name": "Anthem", "state": "AZ", "lat": "33.8560", "lng": "-112.1168"}, {"name": "Christopher Creek", "state": "AZ", "lat": "34.3206", "lng": "-111.0072"}, {"name": "Duncan", "state": "AZ", "lat": "32.7344", "lng": "-109.0972"}, {"name": "Goodyear Village", "state": "AZ", "lat": "33.1973", "lng": "-111.8724"}, {"name": "Utting", "state": "AZ", "lat": "33.8544", "lng": "-113.9129"}, {"name": "Saddlebrooke", "state": "AZ", "lat": "32.5385", "lng": "-110.8582"}, {"name": "Padre Ranchitos", "state": "AZ", "lat": "32.6497", "lng": "-114.6417"}, {"name": "Jeddito", "state": "AZ", "lat": "35.7697", "lng": "-110.1305"}, {"name": "Nutrioso", "state": "AZ", "lat": "33.9515", "lng": "-109.2058"}, {"name": "New River", "state": "AZ", "lat": "33.8835", "lng": "-112.0858"}, {"name": "Anegam", "state": "AZ", "lat": "32.3742", "lng": "-112.0350"}, {"name": "Joseph City", "state": "AZ", "lat": "34.9614", "lng": "-110.3274"}, {"name": "Whispering Pines", "state": "AZ", "lat": "34.3728", "lng": "-111.2813"}, {"name": "Tonto Basin", "state": "AZ", "lat": "33.8361", "lng": "-111.3003"}, {"name": "Chandler", "state": "AZ", "lat": "33.2827", "lng": "-111.8517"}, {"name": "Sanders", "state": "AZ", "lat": "35.2095", "lng": "-109.3224"}, {"name": "Clarkdale", "state": "AZ", "lat": "34.7501", "lng": "-112.0549"}, {"name": "Elephant Head", "state": "AZ", "lat": "31.7659", "lng": "-110.9921"}, {"name": "Katherine", "state": "AZ", "lat": "35.2206", "lng": "-114.5615"}, {"name": "Moenkopi", "state": "AZ", "lat": "36.1124", "lng": "-111.2212"}, {"name": "South Komelik", "state": "AZ", "lat": "31.7145", "lng": "-111.7744"}, {"name": "Oxbow Estates", "state": "AZ", "lat": "34.1824", "lng": "-111.3430"}, {"name": "Oatman", "state": "AZ", "lat": "35.0273", "lng": "-114.3839"}, {"name": "Chino Valley", "state": "AZ", "lat": "34.7594", "lng": "-112.4107"}, {"name": "Buckeye", "state": "AZ", "lat": "33.4314", "lng": "-112.6429"}, {"name": "Aguila", "state": "AZ", "lat": "33.9376", "lng": "-113.1665"}, {"name": "Bluewater", "state": "AZ", "lat": "34.1681", "lng": "-114.2667"}, {"name": "Klagetoh", "state": "AZ", "lat": "35.5011", "lng": "-109.5283"}, {"name": "Yucca", "state": "AZ", "lat": "34.8630", "lng": "-114.1461"}, {"name": "Haigler Creek", "state": "AZ", "lat": "34.2163", "lng": "-110.9719"}, {"name": "Wall Lane", "state": "AZ", "lat": "32.6573", "lng": "-114.7105"}, {"name": "Gu Oidak", "state": "AZ", "lat": "31.9206", "lng": "-112.0233"}, {"name": "Bullhead City", "state": "AZ", "lat": "35.1205", "lng": "-114.5460"}, {"name": "Gold Canyon", "state": "AZ", "lat": "33.3715", "lng": "-111.4369"}, {"name": "Fortuna Foothills", "state": "AZ", "lat": "32.6616", "lng": "-114.3973"}, {"name": "Vaiva Vo", "state": "AZ", "lat": "32.7167", "lng": "-111.9269"}, {"name": "Pisinemo", "state": "AZ", "lat": "32.0349", "lng": "-112.3192"}, {"name": "McNeal", "state": "AZ", "lat": "31.6079", "lng": "-109.6699"}, {"name": "Ali Chuk", "state": "AZ", "lat": "31.8169", "lng": "-112.5584"}, {"name": "Bouse", "state": "AZ", "lat": "33.8984", "lng": "-113.9962"}, {"name": "Kearny", "state": "AZ", "lat": "33.0564", "lng": "-110.9074"}, {"name": "Ehrenberg", "state": "AZ", "lat": "33.6174", "lng": "-114.4883"}, {"name": "Amado", "state": "AZ", "lat": "31.6968", "lng": "-111.0583"}, {"name": "Cave Creek", "state": "AZ", "lat": "33.8513", "lng": "-111.9801"}, {"name": "Wide Ruins", "state": "AZ", "lat": "35.4175", "lng": "-109.4994"}, {"name": "East Globe", "state": "AZ", "lat": "33.3511", "lng": "-110.7061"}, {"name": "Litchfield Park", "state": "AZ", "lat": "33.5024", "lng": "-112.3586"}, {"name": "Gila Crossing", "state": "AZ", "lat": "33.2730", "lng": "-112.1627"}, {"name": "Kaibab", "state": "AZ", "lat": "36.8815", "lng": "-112.7236"}, {"name": "Haivana Nakya", "state": "AZ", "lat": "32.0051", "lng": "-111.7124"}, {"name": "Houck", "state": "AZ", "lat": "35.2714", "lng": "-109.2236"}, {"name": "Rio Rico", "state": "AZ", "lat": "31.4957", "lng": "-110.9886"}, {"name": "Wickenburg", "state": "AZ", "lat": "33.9837", "lng": "-112.7669"}, {"name": "Buckshot", "state": "AZ", "lat": "32.7404", "lng": "-114.4829"}, {"name": "Lake of the Woods", "state": "AZ", "lat": "34.1547", "lng": "-109.9936"}, {"name": "Willcox", "state": "AZ", "lat": "32.2515", "lng": "-109.8359"}, {"name": "Antares", "state": "AZ", "lat": "35.4229", "lng": "-113.8083"}, {"name": "Miracle Valley", "state": "AZ", "lat": "31.3829", "lng": "-110.1485"}, {"name": "Summit", "state": "AZ", "lat": "32.0619", "lng": "-110.9483"}, {"name": "Cienega Springs", "state": "AZ", "lat": "34.2008", "lng": "-114.2089"}, {"name": "Oro Valley", "state": "AZ", "lat": "32.4223", "lng": "-110.9767"}, {"name": "Young", "state": "AZ", "lat": "34.1189", "lng": "-110.9559"}, {"name": "Munds Park", "state": "AZ", "lat": "34.9382", "lng": "-111.6318"}, {"name": "Peach Springs", "state": "AZ", "lat": "35.5315", "lng": "-113.4319"}, {"name": "San Tan Valley", "state": "AZ", "lat": "33.1879", "lng": "-111.5473"}, {"name": "Peridot", "state": "AZ", "lat": "33.3015", "lng": "-110.4554"}, {"name": "Cowlic", "state": "AZ", "lat": "31.8049", "lng": "-111.9876"}, {"name": "Golden Shores", "state": "AZ", "lat": "34.7819", "lng": "-114.4777"}, {"name": "Arivaca", "state": "AZ", "lat": "31.5750", "lng": "-111.2926"}, {"name": "Dudleyville", "state": "AZ", "lat": "32.9127", "lng": "-110.7345"}, {"name": "Lazy Y U", "state": "AZ", "lat": "35.1369", "lng": "-113.9685"}, {"name": "Chloride", "state": "AZ", "lat": "35.4097", "lng": "-114.1972"}, {"name": "Mesquite Creek", "state": "AZ", "lat": "34.9606", "lng": "-114.5714"}, {"name": "Washington Park", "state": "AZ", "lat": "34.3978", "lng": "-111.2731"}, {"name": "Campo Bonito", "state": "AZ", "lat": "32.5629", "lng": "-110.6984"}, {"name": "Nolic", "state": "AZ", "lat": "32.0341", "lng": "-111.9550"}, {"name": "Bagdad", "state": "AZ", "lat": "34.5771", "lng": "-113.1771"}, {"name": "Wintersburg", "state": "AZ", "lat": "33.4187", "lng": "-112.8666"}, {"name": "Komatke", "state": "AZ", "lat": "33.2953", "lng": "-112.1615"}, {"name": "LeChee", "state": "AZ", "lat": "36.8710", "lng": "-111.4328"}, {"name": "Fredonia", "state": "AZ", "lat": "36.9617", "lng": "-112.5195"}, {"name": "Lukachukai", "state": "AZ", "lat": "36.4112", "lng": "-109.2267"}, {"name": "Comobabi", "state": "AZ", "lat": "32.0539", "lng": "-111.8029"}, {"name": "Cordes Lakes", "state": "AZ", "lat": "34.3103", "lng": "-112.1073"}, {"name": "Scenic", "state": "AZ", "lat": "36.7931", "lng": "-114.0151"}, {"name": "Sehili", "state": "AZ", "lat": "36.2807", "lng": "-109.1814"}, {"name": "Wellton", "state": "AZ", "lat": "32.6399", "lng": "-114.2140"}, {"name": "Globe", "state": "AZ", "lat": "33.3869", "lng": "-110.7514"}, {"name": "Sahuarita", "state": "AZ", "lat": "31.9328", "lng": "-110.9654"}, {"name": "White Hills", "state": "AZ", "lat": "35.7242", "lng": "-114.4004"}, {"name": "Tempe", "state": "AZ", "lat": "33.3881", "lng": "-111.9318"}, {"name": "Arizona Village", "state": "AZ", "lat": "34.8548", "lng": "-114.5893"}, {"name": "York", "state": "AZ", "lat": "32.9175", "lng": "-109.1960"}, {"name": "Tat Momoli", "state": "AZ", "lat": "32.6012", "lng": "-111.8862"}, {"name": "Bisbee", "state": "AZ", "lat": "31.4126", "lng": "-109.9178"}, {"name": "Kingman", "state": "AZ", "lat": "35.2170", "lng": "-114.0105"}, {"name": "Desert Hills", "state": "AZ", "lat": "34.5506", "lng": "-114.3754"}, {"name": "Peoria", "state": "AZ", "lat": "33.7844", "lng": "-112.2990"}, {"name": "Upper Santan Village", "state": "AZ", "lat": "33.1152", "lng": "-111.7419"}, {"name": "Grand Canyon Village", "state": "AZ", "lat": "36.0492", "lng": "-112.1566"}, {"name": "Williamson", "state": "AZ", "lat": "34.7082", "lng": "-112.5342"}, {"name": "Rio Verde", "state": "AZ", "lat": "33.7278", "lng": "-111.6740"}, {"name": "Prescott Valley", "state": "AZ", "lat": "34.5982", "lng": "-112.3178"}, {"name": "Keams Canyon", "state": "AZ", "lat": "35.8229", "lng": "-110.2011"}, {"name": "Parks", "state": "AZ", "lat": "35.2939", "lng": "-111.9771"}, {"name": "Sawmill", "state": "AZ", "lat": "35.8924", "lng": "-109.1538"}, {"name": "Tumacacori-Carmen", "state": "AZ", "lat": "31.5771", "lng": "-111.0469"}, {"name": "Bitter Springs", "state": "AZ", "lat": "36.6118", "lng": "-111.6475"}, {"name": "Why", "state": "AZ", "lat": "32.2590", "lng": "-112.7307"}, {"name": "Littlefield", "state": "AZ", "lat": "36.8663", "lng": "-113.9358"}, {"name": "Carrizo", "state": "AZ", "lat": "33.9867", "lng": "-110.3314"}, {"name": "Fountain Hills", "state": "AZ", "lat": "33.6073", "lng": "-111.7398"}, {"name": "Parker", "state": "AZ", "lat": "34.0286", "lng": "-114.2224"}, {"name": "Hondah", "state": "AZ", "lat": "34.0860", "lng": "-109.9149"}, {"name": "Brenda", "state": "AZ", "lat": "33.6721", "lng": "-113.9379"}, {"name": "Seba Dalkai", "state": "AZ", "lat": "35.4816", "lng": "-110.4562"}, {"name": "Rough Rock", "state": "AZ", "lat": "36.4106", "lng": "-109.8691"}, {"name": "Tonopah", "state": "AZ", "lat": "33.4880", "lng": "-112.9308"}, {"name": "Pinion Pines", "state": "AZ", "lat": "35.1467", "lng": "-113.9059"}, {"name": "Show Low", "state": "AZ", "lat": "34.2671", "lng": "-110.0384"}, {"name": "Winslow West", "state": "AZ", "lat": "34.9923", "lng": "-110.7069"}, {"name": "Clacks Canyon", "state": "AZ", "lat": "35.2203", "lng": "-114.0723"}, {"name": "Tonalea", "state": "AZ", "lat": "36.3218", "lng": "-110.9667"}, {"name": "Glendale", "state": "AZ", "lat": "33.5797", "lng": "-112.2258"}, {"name": "McConnico", "state": "AZ", "lat": "35.1636", "lng": "-114.0898"}, {"name": "Apache Junction", "state": "AZ", "lat": "33.3985", "lng": "-111.5351"}, {"name": "Strawberry", "state": "AZ", "lat": "34.4018", "lng": "-111.5002"}, {"name": "Martinez Lake", "state": "AZ", "lat": "32.9843", "lng": "-114.4722"}, {"name": "Grand Canyon West", "state": "AZ", "lat": "35.9998", "lng": "-113.8103"}, {"name": "Sweet Water Village", "state": "AZ", "lat": "33.1274", "lng": "-111.8424"}, {"name": "Superior", "state": "AZ", "lat": "33.2851", "lng": "-111.1109"}, {"name": "Red Rock", "state": "AZ", "lat": "32.5610", "lng": "-111.3745"}, {"name": "Sierra Vista", "state": "AZ", "lat": "31.5630", "lng": "-110.3153"}, {"name": "Rainbow City", "state": "AZ", "lat": "33.8731", "lng": "-109.9763"}, {"name": "Sierra Vista Southeast", "state": "AZ", "lat": "31.4525", "lng": "-110.2160"}, {"name": "Willow Valley", "state": "AZ", "lat": "34.9296", "lng": "-114.6159"}, {"name": "Cactus Forest", "state": "AZ", "lat": "32.9578", "lng": "-111.3170"}, {"name": "East Fork", "state": "AZ", "lat": "33.8081", "lng": "-109.9228"}, {"name": "Lupton", "state": "AZ", "lat": "35.3548", "lng": "-109.0528"}, {"name": "Gila Bend", "state": "AZ", "lat": "32.9662", "lng": "-112.7155"}, {"name": "Wellton Hills", "state": "AZ", "lat": "32.6232", "lng": "-114.1453"}, {"name": "Citrus Park", "state": "AZ", "lat": "33.5304", "lng": "-112.4440"}, {"name": "Casas Adobes", "state": "AZ", "lat": "32.3423", "lng": "-111.0114"}, {"name": "Turkey Creek", "state": "AZ", "lat": "33.8011", "lng": "-109.9461"}, {"name": "Mountainaire", "state": "AZ", "lat": "35.0920", "lng": "-111.6493"}, {"name": "Drexel Heights", "state": "AZ", "lat": "32.1457", "lng": "-111.0479"}, {"name": "Central Heights-Midland City", "state": "AZ", "lat": "33.4000", "lng": "-110.8153"}, {"name": "Maish Vaya", "state": "AZ", "lat": "32.1703", "lng": "-112.1342"}, {"name": "Toyei", "state": "AZ", "lat": "35.7043", "lng": "-109.9370"}, {"name": "Sacaton", "state": "AZ", "lat": "33.0793", "lng": "-111.7683"}, {"name": "Miami", "state": "AZ", "lat": "33.3951", "lng": "-110.8722"}, {"name": "Sun Valley", "state": "AZ", "lat": "34.9835", "lng": "-110.0374"}, {"name": "Rancho Mesa Verde", "state": "AZ", "lat": "32.5944", "lng": "-114.6551"}, {"name": "Page", "state": "AZ", "lat": "36.9425", "lng": "-111.5071"}, {"name": "Pimaco Two", "state": "AZ", "lat": "31.9666", "lng": "-110.4663"}, {"name": "Shonto", "state": "AZ", "lat": "36.5893", "lng": "-110.6607"}, {"name": "Geronimo Estates", "state": "AZ", "lat": "34.3695", "lng": "-111.3617"}, {"name": "Clifton", "state": "AZ", "lat": "33.0249", "lng": "-109.2883"}, {"name": "Flowing Wells", "state": "AZ", "lat": "32.2937", "lng": "-111.0110"}, {"name": "Maricopa Colony", "state": "AZ", "lat": "33.3626", "lng": "-112.2267"}, {"name": "Eagar", "state": "AZ", "lat": "34.1058", "lng": "-109.2956"}, {"name": "Mesa del Caballo", "state": "AZ", "lat": "34.2860", "lng": "-111.2952"}, {"name": "Round Valley", "state": "AZ", "lat": "34.1877", "lng": "-111.3018"}, {"name": "Flagstaff", "state": "AZ", "lat": "35.1872", "lng": "-111.6195"}, {"name": "Dragoon", "state": "AZ", "lat": "32.0263", "lng": "-110.0365"}, {"name": "Copper Hill", "state": "AZ", "lat": "33.4379", "lng": "-110.7516"}]