[{"name": "El Dorado Hills", "state": "CA", "lat": "38.6750", "lng": "-121.0490"}, {"name": "Lemon Cove", "state": "CA", "lat": "36.3790", "lng": "-119.0312"}, {"name": "Dillon Beach", "state": "CA", "lat": "38.2436", "lng": "-122.9560"}, {"name": "Patterson Tract", "state": "CA", "lat": "36.3795", "lng": "-119.2956"}, {"name": "Redcrest", "state": "CA", "lat": "40.3987", "lng": "-123.9474"}, {"name": "Madera", "state": "CA", "lat": "36.9640", "lng": "-120.0803"}, {"name": "Brooktrails", "state": "CA", "lat": "39.4429", "lng": "-123.3963"}, {"name": "Geyserville", "state": "CA", "lat": "38.7173", "lng": "-122.9034"}, {"name": "Delhi", "state": "CA", "lat": "37.4306", "lng": "-120.7759"}, {"name": "Stanton", "state": "CA", "lat": "33.8002", "lng": "-117.9935"}, {"name": "Cobb", "state": "CA", "lat": "38.8356", "lng": "-122.7230"}, {"name": "Amador City", "state": "CA", "lat": "38.4190", "lng": "-120.8232"}, {"name": "Vallejo", "state": "CA", "lat": "38.1133", "lng": "-122.2359"}, {"name": "Scotts Valley", "state": "CA", "lat": "37.0555", "lng": "-122.0118"}, {"name": "Fish Camp", "state": "CA", "lat": "37.4797", "lng": "-119.6374"}, {"name": "Alpine", "state": "CA", "lat": "32.8439", "lng": "-116.7585"}, {"name": "Rowland Heights", "state": "CA", "lat": "33.9716", "lng": "-117.8911"}, {"name": "Alta", "state": "CA", "lat": "39.2138", "lng": "-120.8033"}, {"name": "North San Juan", "state": "CA", "lat": "39.3718", "lng": "-121.1060"}, {"name": "Mountain Mesa", "state": "CA", "lat": "35.6411", "lng": "-118.4047"}, {"name": "Shafter", "state": "CA", "lat": "35.4794", "lng": "-119.2013"}, {"name": "Bombay Beach", "state": "CA", "lat": "33.3548", "lng": "-115.7306"}, {"name": "Fairfax", "state": "CA", "lat": "37.9884", "lng": "-122.5950"}, {"name": "Round Mountain", "state": "CA", "lat": "40.8005", "lng": "-121.9375"}, {"name": "Avocado Heights", "state": "CA", "lat": "34.0381", "lng": "-118.0026"}, {"name": "Dunnigan", "state": "CA", "lat": "38.8926", "lng": "-121.9741"}, {"name": "Strathmore", "state": "CA", "lat": "36.1438", "lng": "-119.0612"}, {"name": "Inglewood", "state": "CA", "lat": "33.9566", "lng": "-118.3444"}, {"name": "Randsburg", "state": "CA", "lat": "35.3680", "lng": "-117.6607"}, {"name": "Granite Hills", "state": "CA", "lat": "32.8033", "lng": "-116.9056"}, {"name": "Burlingame", "state": "CA", "lat": "37.5860", "lng": "-122.3669"}, {"name": "Keddie", "state": "CA", "lat": "40.0059", "lng": "-120.9525"}, {"name": "Lodi", "state": "CA", "lat": "38.1218", "lng": "-121.2933"}, {"name": "Saticoy", "state": "CA", "lat": "34.2819", "lng": "-119.1452"}, {"name": "Avery", "state": "CA", "lat": "38.1939", "lng": "-120.3790"}, {"name": "Spreckels", "state": "CA", "lat": "36.6247", "lng": "-121.6465"}, {"name": "South Whittier", "state": "CA", "lat": "33.9336", "lng": "-118.0311"}, {"name": "Boron", "state": "CA", "lat": "35.0164", "lng": "-117.6659"}, {"name": "Cherry Valley", "state": "CA", "lat": "33.9797", "lng": "-116.9694"}, {"name": "Milpitas", "state": "CA", "lat": "37.4340", "lng": "-121.8921"}, {"name": "El Sobrante", "state": "CA", "lat": "33.8724", "lng": "-117.4624"}, {"name": "Exeter", "state": "CA", "lat": "36.2940", "lng": "-119.1459"}, {"name": "Whitewater", "state": "CA", "lat": "33.9356", "lng": "-116.6873"}, {"name": "Inyokern", "state": "CA", "lat": "35.6546", "lng": "-117.8213"}, {"name": "Rackerby", "state": "CA", "lat": "39.4261", "lng": "-121.3542"}, {"name": "Pajaro Dunes", "state": "CA", "lat": "36.8722", "lng": "-121.8101"}, {"name": "Adin", "state": "CA", "lat": "41.1964", "lng": "-120.9494"}, {"name": "Lake Nacimiento", "state": "CA", "lat": "35.7309", "lng": "-120.8702"}, {"name": "Live Oak", "state": "CA", "lat": "39.2788", "lng": "-121.6624"}, {"name": "Fort Jones", "state": "CA", "lat": "41.6086", "lng": "-122.8409"}, {"name": "Rancho Cordova", "state": "CA", "lat": "38.5740", "lng": "-121.2523"}, {"name": "Black Point-Green Point", "state": "CA", "lat": "38.1120", "lng": "-122.5190"}, {"name": "Manhattan Beach", "state": "CA", "lat": "33.8895", "lng": "-118.3972"}, {"name": "Montecito", "state": "CA", "lat": "34.4382", "lng": "-119.6286"}, {"name": "El Monte", "state": "CA", "lat": "34.0739", "lng": "-118.0291"}, {"name": "Bostonia", "state": "CA", "lat": "32.8189", "lng": "-116.9479"}, {"name": "Palo Cedro", "state": "CA", "lat": "40.5511", "lng": "-122.2363"}, {"name": "Belmont", "state": "CA", "lat": "37.5154", "lng": "-122.2955"}, {"name": "Robbins", "state": "CA", "lat": "38.8672", "lng": "-121.7055"}, {"name": "Woodacre", "state": "CA", "lat": "38.0052", "lng": "-122.6384"}, {"name": "Sugarloaf Mountain Park", "state": "CA", "lat": "35.8379", "lng": "-118.6039"}, {"name": "Willowbrook", "state": "CA", "lat": "33.9199", "lng": "-118.2362"}, {"name": "Mather", "state": "CA", "lat": "38.5489", "lng": "-121.2832"}, {"name": "Los Berros", "state": "CA", "lat": "35.0809", "lng": "-120.5451"}, {"name": "Waterloo", "state": "CA", "lat": "38.0365", "lng": "-121.1846"}, {"name": "Callender", "state": "CA", "lat": "35.0480", "lng": "-120.5759"}, {"name": "Carmet", "state": "CA", "lat": "38.3743", "lng": "-123.0720"}, {"name": "Yosemite Lakes", "state": "CA", "lat": "37.1886", "lng": "-119.7723"}, {"name": "Buckhorn", "state": "CA", "lat": "38.4532", "lng": "-120.5354"}, {"name": "Edmundson Acres", "state": "CA", "lat": "35.2273", "lng": "-118.8233"}, {"name": "Grenada", "state": "CA", "lat": "41.6406", "lng": "-122.5260"}, {"name": "Montclair", "state": "CA", "lat": "34.0714", "lng": "-117.6981"}, {"name": "Buck Meadows", "state": "CA", "lat": "37.8127", "lng": "-120.0653"}, {"name": "Grimes", "state": "CA", "lat": "39.0742", "lng": "-121.8988"}, {"name": "Hayfork", "state": "CA", "lat": "40.5610", "lng": "-123.1299"}, {"name": "Indio", "state": "CA", "lat": "33.7346", "lng": "-116.2346"}, {"name": "Sierra City", "state": "CA", "lat": "39.5740", "lng": "-120.6297"}, {"name": "Mission Hills", "state": "CA", "lat": "34.6861", "lng": "-120.4405"}, {"name": "Valley Acres", "state": "CA", "lat": "35.2087", "lng": "-119.4106"}, {"name": "Montebello", "state": "CA", "lat": "34.0155", "lng": "-118.1108"}, {"name": "Newell", "state": "CA", "lat": "41.8898", "lng": "-121.3675"}, {"name": "Parksdale", "state": "CA", "lat": "36.9462", "lng": "-120.0218"}, {"name": "Graton", "state": "CA", "lat": "38.4376", "lng": "-122.8660"}, {"name": "Livingston", "state": "CA", "lat": "37.3875", "lng": "-120.7248"}, {"name": "Traver", "state": "CA", "lat": "36.4526", "lng": "-119.4824"}, {"name": "Floriston", "state": "CA", "lat": "39.3930", "lng": "-120.0145"}, {"name": "Montague", "state": "CA", "lat": "41.7275", "lng": "-122.5302"}, {"name": "Mesa", "state": "CA", "lat": "37.4189", "lng": "-118.5424"}, {"name": "Lompico", "state": "CA", "lat": "37.1101", "lng": "-122.0523"}, {"name": "Hidden Meadows", "state": "CA", "lat": "33.2236", "lng": "-117.1198"}, {"name": "La Vina", "state": "CA", "lat": "36.8799", "lng": "-120.1147"}, {"name": "Lindsay", "state": "CA", "lat": "36.2082", "lng": "-119.0897"}, {"name": "Bass Lake", "state": "CA", "lat": "37.3280", "lng": "-119.5668"}, {"name": "Calimesa", "state": "CA", "lat": "33.9874", "lng": "-117.0542"}, {"name": "Thousand Palms", "state": "CA", "lat": "33.8150", "lng": "-116.3545"}, {"name": "Modesto", "state": "CA", "lat": "37.6374", "lng": "-121.0028"}, {"name": "Pico Rivera", "state": "CA", "lat": "33.9902", "lng": "-118.0888"}, {"name": "East Rancho Dominguez", "state": "CA", "lat": "33.8949", "lng": "-118.1956"}, {"name": "Maricopa", "state": "CA", "lat": "35.0517", "lng": "-119.4054"}, {"name": "Wilton", "state": "CA", "lat": "38.4130", "lng": "-121.2127"}, {"name": "Ocotillo", "state": "CA", "lat": "32.7431", "lng": "-116.0020"}, {"name": "Klamath", "state": "CA", "lat": "41.5322", "lng": "-124.0063"}, {"name": "Costa Mesa", "state": "CA", "lat": "33.6667", "lng": "-117.9135"}, {"name": "Oceano", "state": "CA", "lat": "35.1019", "lng": "-120.6090"}, {"name": "Robinson Mill", "state": "CA", "lat": "39.4857", "lng": "-121.3202"}, {"name": "Colusa", "state": "CA", "lat": "39.2049", "lng": "-122.0096"}, {"name": "Meadowbrook", "state": "CA", "lat": "33.7254", "lng": "-117.2851"}, {"name": "Hidden Valley Lake", "state": "CA", "lat": "38.8003", "lng": "-122.5505"}, {"name": "Caruthers", "state": "CA", "lat": "36.5399", "lng": "-119.8450"}, {"name": "Potrero", "state": "CA", "lat": "32.6131", "lng": "-116.6068"}, {"name": "Laton", "state": "CA", "lat": "36.4338", "lng": "-119.6916"}, {"name": "Hiouchi", "state": "CA", "lat": "41.7937", "lng": "-124.0661"}, {"name": "Fuller Acres", "state": "CA", "lat": "35.3023", "lng": "-118.9143"}, {"name": "Herald", "state": "CA", "lat": "38.2913", "lng": "-121.2318"}, {"name": "Furnace Creek", "state": "CA", "lat": "36.4277", "lng": "-116.8747"}, {"name": "Lucerne Valley", "state": "CA", "lat": "34.4427", "lng": "-116.9021"}, {"name": "Volcano", "state": "CA", "lat": "38.4456", "lng": "-120.6306"}, {"name": "Redding", "state": "CA", "lat": "40.5698", "lng": "-122.3650"}, {"name": "Concord", "state": "CA", "lat": "37.9722", "lng": "-122.0016"}, {"name": "West Modesto", "state": "CA", "lat": "37.6180", "lng": "-121.0343"}, {"name": "Golden Hills", "state": "CA", "lat": "35.1512", "lng": "-118.5024"}, {"name": "Santa Fe Springs", "state": "CA", "lat": "33.9330", "lng": "-118.0625"}, {"name": "Fellows", "state": "CA", "lat": "35.1780", "lng": "-119.5472"}, {"name": "Forestville", "state": "CA", "lat": "38.4825", "lng": "-122.8899"}, {"name": "Los Molinos", "state": "CA", "lat": "40.0270", "lng": "-122.0981"}, {"name": "Banning", "state": "CA", "lat": "33.9461", "lng": "-116.8991"}, {"name": "Sacramento", "state": "CA", "lat": "38.5667", "lng": "-121.4683"}, {"name": "Independence", "state": "CA", "lat": "36.8275", "lng": "-118.2133"}, {"name": "Spring Valley Lake", "state": "CA", "lat": "34.4988", "lng": "-117.2684"}, {"name": "Valley Ford", "state": "CA", "lat": "38.3246", "lng": "-122.9148"}, {"name": "Plumas Eureka", "state": "CA", "lat": "39.7982", "lng": "-120.6645"}, {"name": "Westside", "state": "CA", "lat": "36.4042", "lng": "-120.1344"}, {"name": "Country Club", "state": "CA", "lat": "37.9687", "lng": "-121.3408"}, {"name": "East Quincy", "state": "CA", "lat": "39.9165", "lng": "-120.9189"}, {"name": "Rancho San Diego", "state": "CA", "lat": "32.7624", "lng": "-116.9197"}, {"name": "Lewiston", "state": "CA", "lat": "40.6969", "lng": "-122.8225"}, {"name": "Bonadelle Ranchos-Madera Ranchos", "state": "CA", "lat": "36.9596", "lng": "-119.8893"}, {"name": "Teviston", "state": "CA", "lat": "35.9290", "lng": "-119.2783"}, {"name": "Lagunitas-Forest Knolls", "state": "CA", "lat": "38.0180", "lng": "-122.6914"}, {"name": "Palo Alto", "state": "CA", "lat": "37.3913", "lng": "-122.1467"}, {"name": "Pearsonville", "state": "CA", "lat": "35.8188", "lng": "-117.8755"}, {"name": "Bonita", "state": "CA", "lat": "32.6652", "lng": "-117.0296"}, {"name": "Del Rio", "state": "CA", "lat": "37.7432", "lng": "-121.0091"}, {"name": "Danville", "state": "CA", "lat": "37.8121", "lng": "-121.9698"}, {"name": "Casa de Oro-Mount Helix", "state": "CA", "lat": "32.7640", "lng": "-116.9687"}, {"name": "Cloverdale", "state": "CA", "lat": "38.7962", "lng": "-123.0154"}, {"name": "La Quinta", "state": "CA", "lat": "33.6536", "lng": "-116.2785"}, {"name": "Roseland", "state": "CA", "lat": "38.4178", "lng": "-122.7298"}, {"name": "Big Bear City", "state": "CA", "lat": "34.2536", "lng": "-116.7903"}, {"name": "Chinese Camp", "state": "CA", "lat": "37.8703", "lng": "-120.4443"}, {"name": "Washington", "state": "CA", "lat": "39.3591", "lng": "-120.7906"}, {"name": "San Jacinto", "state": "CA", "lat": "33.7970", "lng": "-116.9915"}, {"name": "Carrick", "state": "CA", "lat": "41.4467", "lng": "-122.3635"}, {"name": "Meadow Vista", "state": "CA", "lat": "39.0029", "lng": "-121.0304"}, {"name": "Old Fig Garden", "state": "CA", "lat": "36.7989", "lng": "-119.8051"}, {"name": "Likely", "state": "CA", "lat": "41.2254", "lng": "-120.5033"}, {"name": "Sugarloaf Saw Mill", "state": "CA", "lat": "35.8343", "lng": "-118.6166"}, {"name": "Riverdale Park", "state": "CA", "lat": "37.6028", "lng": "-121.0425"}, {"name": "Tulelake", "state": "CA", "lat": "41.9533", "lng": "-121.4753"}, {"name": "Las Flores", "state": "CA", "lat": "33.5838", "lng": "-117.6235"}, {"name": "Biola", "state": "CA", "lat": "36.8006", "lng": "-120.0199"}, {"name": "Los Ranchos", "state": "CA", "lat": "35.2102", "lng": "-120.6291"}, {"name": "San Mateo", "state": "CA", "lat": "37.5522", "lng": "-122.3122"}, {"name": "Livermore", "state": "CA", "lat": "37.6861", "lng": "-121.7608"}, {"name": "Diablo Grande", "state": "CA", "lat": "37.4006", "lng": "-121.2699"}, {"name": "Idyllwild-Pine Cove", "state": "CA", "lat": "33.7443", "lng": "-116.7257"}, {"name": "Morongo Valley", "state": "CA", "lat": "34.0724", "lng": "-116.5627"}, {"name": "Thornton", "state": "CA", "lat": "38.2310", "lng": "-121.4249"}, {"name": "San Diego", "state": "CA", "lat": "32.8312", "lng": "-117.1225"}, {"name": "Bermuda Dunes", "state": "CA", "lat": "33.7435", "lng": "-116.2874"}, {"name": "Copperopolis", "state": "CA", "lat": "37.9365", "lng": "-120.6277"}, {"name": "La Crescenta-Montrose", "state": "CA", "lat": "34.2323", "lng": "-118.2353"}, {"name": "Pine Canyon", "state": "CA", "lat": "36.1757", "lng": "-121.1498"}, {"name": "Brookdale", "state": "CA", "lat": "37.1058", "lng": "-122.1106"}, {"name": "Signal Hill", "state": "CA", "lat": "33.8029", "lng": "-118.1681"}, {"name": "Stirling City", "state": "CA", "lat": "39.9064", "lng": "-121.5361"}, {"name": "Loma Rica", "state": "CA", "lat": "39.3204", "lng": "-121.4038"}, {"name": "Tamalpais-Homestead Valley", "state": "CA", "lat": "37.8793", "lng": "-122.5382"}, {"name": "Tuttle", "state": "CA", "lat": "37.2965", "lng": "-120.3789"}, {"name": "West Park", "state": "CA", "lat": "36.7055", "lng": "-119.8516"}, {"name": "Pleasanton", "state": "CA", "lat": "37.6663", "lng": "-121.8805"}, {"name": "March ARB", "state": "CA", "lat": "33.8888", "lng": "-117.2777"}, {"name": "Big Lagoon", "state": "CA", "lat": "41.1592", "lng": "-124.1303"}, {"name": "Muscoy", "state": "CA", "lat": "34.1548", "lng": "-117.3482"}, {"name": "West Covina", "state": "CA", "lat": "34.0555", "lng": "-117.9112"}, {"name": "Bellflower", "state": "CA", "lat": "33.8880", "lng": "-118.1271"}, {"name": "Allensworth", "state": "CA", "lat": "35.8499", "lng": "-119.3892"}, {"name": "Lemon Hill", "state": "CA", "lat": "38.5172", "lng": "-121.4573"}, {"name": "Fort Dick", "state": "CA", "lat": "41.8663", "lng": "-124.1526"}, {"name": "Rancho Cucamonga", "state": "CA", "lat": "34.1248", "lng": "-117.5666"}, {"name": "Rio del Mar", "state": "CA", "lat": "36.9608", "lng": "-121.8808"}, {"name": "Agoura Hills", "state": "CA", "lat": "34.1510", "lng": "-118.7608"}, {"name": "St. Helena", "state": "CA", "lat": "38.5063", "lng": "-122.4682"}, {"name": "Dorris", "state": "CA", "lat": "41.9643", "lng": "-121.9208"}, {"name": "Lenwood", "state": "CA", "lat": "34.8861", "lng": "-117.1078"}, {"name": "Garberville", "state": "CA", "lat": "40.1003", "lng": "-123.7948"}, {"name": "Carmichael", "state": "CA", "lat": "38.6337", "lng": "-121.3230"}, {"name": "Richvale", "state": "CA", "lat": "39.4937", "lng": "-121.7507"}, {"name": "New Cuyama", "state": "CA", "lat": "34.9421", "lng": "-119.6806"}, {"name": "Tomales", "state": "CA", "lat": "38.2470", "lng": "-122.9054"}, {"name": "Anza", "state": "CA", "lat": "33.5679", "lng": "-116.6967"}, {"name": "Rodriguez Camp", "state": "CA", "lat": "35.8090", "lng": "-119.1388"}, {"name": "Ballard", "state": "CA", "lat": "34.6340", "lng": "-120.1156"}, {"name": "Jacumba", "state": "CA", "lat": "32.6278", "lng": "-116.1827"}, {"name": "Westley", "state": "CA", "lat": "37.5444", "lng": "-121.2035"}, {"name": "Romoland", "state": "CA", "lat": "33.7648", "lng": "-117.1572"}, {"name": "Santa Ana", "state": "CA", "lat": "33.7366", "lng": "-117.8819"}, {"name": "Sunol", "state": "CA", "lat": "37.5894", "lng": "-121.8854"}, {"name": "Lancaster", "state": "CA", "lat": "34.6934", "lng": "-118.1753"}, {"name": "Moorpark", "state": "CA", "lat": "34.2855", "lng": "-118.8770"}, {"name": "Graeagle", "state": "CA", "lat": "39.7572", "lng": "-120.6486"}, {"name": "Descanso", "state": "CA", "lat": "32.8696", "lng": "-116.6279"}, {"name": "Isleton", "state": "CA", "lat": "38.1617", "lng": "-121.6051"}, {"name": "Orange Cove", "state": "CA", "lat": "36.6211", "lng": "-119.3188"}, {"name": "Pollock Pines", "state": "CA", "lat": "38.7564", "lng": "-120.5904"}, {"name": "Macdoel", "state": "CA", "lat": "41.8256", "lng": "-122.0058"}, {"name": "Vernon", "state": "CA", "lat": "34.0019", "lng": "-118.2106"}, {"name": "West Sacramento", "state": "CA", "lat": "38.5557", "lng": "-121.5504"}, {"name": "San Geronimo", "state": "CA", "lat": "38.0067", "lng": "-122.6634"}, {"name": "Parlier", "state": "CA", "lat": "36.6085", "lng": "-119.5435"}, {"name": "Long Barn", "state": "CA", "lat": "38.0957", "lng": "-120.1285"}, {"name": "Calexico", "state": "CA", "lat": "32.6849", "lng": "-115.4944"}, {"name": "Fairhaven", "state": "CA", "lat": "40.7885", "lng": "-124.2013"}, {"name": "Compton", "state": "CA", "lat": "33.8930", "lng": "-118.2275"}, {"name": "San Andreas", "state": "CA", "lat": "38.1912", "lng": "-120.6763"}, {"name": "Courtland", "state": "CA", "lat": "38.3329", "lng": "-121.5570"}, {"name": "Herlong", "state": "CA", "lat": "40.1419", "lng": "-120.1399"}, {"name": "Desert Edge", "state": "CA", "lat": "33.9223", "lng": "-116.4401"}, {"name": "Chester", "state": "CA", "lat": "40.3017", "lng": "-121.2339"}, {"name": "Fort Bragg", "state": "CA", "lat": "39.4400", "lng": "-123.8013"}, {"name": "Bootjack", "state": "CA", "lat": "37.4672", "lng": "-119.8887"}, {"name": "Wheatland", "state": "CA", "lat": "39.0287", "lng": "-121.3900"}, {"name": "Chino", "state": "CA", "lat": "33.9836", "lng": "-117.6654"}, {"name": "Valley Ranch", "state": "CA", "lat": "39.7403", "lng": "-120.5650"}, {"name": "Valley Center", "state": "CA", "lat": "33.2331", "lng": "-117.0158"}, {"name": "Prunedale", "state": "CA", "lat": "36.8064", "lng": "-121.6555"}, {"name": "Taft Heights", "state": "CA", "lat": "35.1337", "lng": "-119.4711"}, {"name": "Twain", "state": "CA", "lat": "40.0355", "lng": "-121.0404"}, {"name": "Grizzly Flats", "state": "CA", "lat": "38.6357", "lng": "-120.5354"}, {"name": "Junction City", "state": "CA", "lat": "40.7274", "lng": "-123.0615"}, {"name": "Victorville", "state": "CA", "lat": "34.5277", "lng": "-117.3536"}, {"name": "Taft Mosswood", "state": "CA", "lat": "37.9140", "lng": "-121.2831"}, {"name": "Cedarville", "state": "CA", "lat": "41.5280", "lng": "-120.1748"}, {"name": "West Goshen", "state": "CA", "lat": "36.3490", "lng": "-119.4516"}, {"name": "Onyx", "state": "CA", "lat": "35.6839", "lng": "-118.2102"}, {"name": "Downieville", "state": "CA", "lat": "39.5700", "lng": "-120.8213"}, {"name": "Rolling Hills", "state": "CA", "lat": "33.7600", "lng": "-118.3471"}, {"name": "Mesa Verde", "state": "CA", "lat": "33.5957", "lng": "-114.7317"}, {"name": "Sheridan", "state": "CA", "lat": "38.9690", "lng": "-121.3560"}, {"name": "Hickman", "state": "CA", "lat": "37.6227", "lng": "-120.7532"}, {"name": "Mission Canyon", "state": "CA", "lat": "34.4534", "lng": "-119.7125"}, {"name": "Running Springs", "state": "CA", "lat": "34.2104", "lng": "-117.1147"}, {"name": "Davenport", "state": "CA", "lat": "37.0176", "lng": "-122.1882"}, {"name": "La Honda", "state": "CA", "lat": "37.3182", "lng": "-122.2651"}, {"name": "Posey", "state": "CA", "lat": "35.8038", "lng": "-118.6786"}, {"name": "Jamul", "state": "CA", "lat": "32.7184", "lng": "-116.8709"}, {"name": "Ladera Heights", "state": "CA", "lat": "33.9972", "lng": "-118.3740"}, {"name": "Searles Valley", "state": "CA", "lat": "35.7701", "lng": "-117.3967"}, {"name": "Kingsburg", "state": "CA", "lat": "36.5242", "lng": "-119.5608"}, {"name": "Leona Valley", "state": "CA", "lat": "34.6147", "lng": "-118.2990"}, {"name": "Oakville", "state": "CA", "lat": "38.4384", "lng": "-122.4067"}, {"name": "Elmira", "state": "CA", "lat": "38.3523", "lng": "-121.9077"}, {"name": "Auburn Lake Trails", "state": "CA", "lat": "38.8917", "lng": "-120.9849"}, {"name": "Lake Almanor Peninsula", "state": "CA", "lat": "40.2812", "lng": "-121.1345"}, {"name": "Eldridge", "state": "CA", "lat": "38.3339", "lng": "-122.5065"}, {"name": "Shoshone", "state": "CA", "lat": "35.9510", "lng": "-116.3056"}, {"name": "Coachella", "state": "CA", "lat": "33.6905", "lng": "-116.1430"}, {"name": "Toro Canyon", "state": "CA", "lat": "34.4235", "lng": "-119.5568"}, {"name": "Greenview", "state": "CA", "lat": "41.5471", "lng": "-122.9185"}, {"name": "Villa Park", "state": "CA", "lat": "33.8180", "lng": "-117.8103"}, {"name": "Campo", "state": "CA", "lat": "32.6394", "lng": "-116.4745"}, {"name": "Morgan Hill", "state": "CA", "lat": "37.1324", "lng": "-121.6410"}, {"name": "Imperial Beach", "state": "CA", "lat": "32.5689", "lng": "-117.1184"}, {"name": "Norco", "state": "CA", "lat": "33.9253", "lng": "-117.5500"}, {"name": "Riverdale", "state": "CA", "lat": "36.4304", "lng": "-119.8670"}, {"name": "Los Altos", "state": "CA", "lat": "37.3685", "lng": "-122.0966"}, {"name": "Rolling Hills Estates", "state": "CA", "lat": "33.7783", "lng": "-118.3508"}, {"name": "Middletown", "state": "CA", "lat": "38.7519", "lng": "-122.6221"}, {"name": "Sun Village", "state": "CA", "lat": "34.5596", "lng": "-117.9559"}, {"name": "Pismo Beach", "state": "CA", "lat": "35.1492", "lng": "-120.6506"}, {"name": "Campbell", "state": "CA", "lat": "37.2801", "lng": "-121.9538"}, {"name": "Fountain Valley", "state": "CA", "lat": "33.7105", "lng": "-117.9514"}, {"name": "Trona", "state": "CA", "lat": "35.8150", "lng": "-117.3449"}, {"name": "Keeler", "state": "CA", "lat": "36.4846", "lng": "-117.8720"}, {"name": "Carmel Valley Village", "state": "CA", "lat": "36.4824", "lng": "-121.7198"}, {"name": "El Centro", "state": "CA", "lat": "32.7867", "lng": "-115.5586"}, {"name": "Torrance", "state": "CA", "lat": "33.8346", "lng": "-118.3417"}, {"name": "Oakdale", "state": "CA", "lat": "37.7616", "lng": "-120.8471"}, {"name": "San Juan Bautista", "state": "CA", "lat": "36.8457", "lng": "-121.5384"}, {"name": "Holtville", "state": "CA", "lat": "32.8129", "lng": "-115.3779"}, {"name": "East Orosi", "state": "CA", "lat": "36.5481", "lng": "-119.2599"}, {"name": "Newcastle", "state": "CA", "lat": "38.8678", "lng": "-121.1318"}, {"name": "Clearlake Riviera", "state": "CA", "lat": "38.9512", "lng": "-122.7207"}, {"name": "Vacaville", "state": "CA", "lat": "38.3590", "lng": "-121.9680"}, {"name": "Quartz Hill", "state": "CA", "lat": "34.6527", "lng": "-118.2163"}, {"name": "Chualar", "state": "CA", "lat": "36.5711", "lng": "-121.5103"}, {"name": "Palermo", "state": "CA", "lat": "39.4313", "lng": "-121.5226"}, {"name": "Nice", "state": "CA", "lat": "39.1266", "lng": "-122.8525"}, {"name": "Seaside", "state": "CA", "lat": "36.6224", "lng": "-121.8191"}, {"name": "Simi Valley", "state": "CA", "lat": "34.2663", "lng": "-118.7490"}, {"name": "Plainview", "state": "CA", "lat": "36.1423", "lng": "-119.1375"}, {"name": "Beckwourth", "state": "CA", "lat": "39.8485", "lng": "-120.4111"}, {"name": "Willows", "state": "CA", "lat": "39.5149", "lng": "-122.1995"}, {"name": "Menlo Park", "state": "CA", "lat": "37.4686", "lng": "-122.1672"}, {"name": "Valley Home", "state": "CA", "lat": "37.8272", "lng": "-120.9143"}, {"name": "North Highlands", "state": "CA", "lat": "38.6713", "lng": "-121.3721"}, {"name": "Indianola", "state": "CA", "lat": "40.8133", "lng": "-124.0808"}, {"name": "Mission Viejo", "state": "CA", "lat": "33.6095", "lng": "-117.6550"}, {"name": "Alamo", "state": "CA", "lat": "37.8546", "lng": "-122.0131"}, {"name": "Rail Road Flat", "state": "CA", "lat": "38.3168", "lng": "-120.4910"}, {"name": "Thermalito", "state": "CA", "lat": "39.4909", "lng": "-121.6150"}, {"name": "Lomita", "state": "CA", "lat": "33.7933", "lng": "-118.3175"}, {"name": "Potter Valley", "state": "CA", "lat": "39.3190", "lng": "-123.1123"}, {"name": "Indian Wells", "state": "CA", "lat": "33.7036", "lng": "-116.3396"}, {"name": "Lower Lake", "state": "CA", "lat": "38.9118", "lng": "-122.6084"}, {"name": "Burbank", "state": "CA", "lat": "34.1879", "lng": "-118.3235"}, {"name": "Casa Conejo", "state": "CA", "lat": "34.1847", "lng": "-118.9445"}, {"name": "Rosedale", "state": "CA", "lat": "35.3887", "lng": "-119.2058"}, {"name": "Coronado", "state": "CA", "lat": "32.6640", "lng": "-117.1600"}, {"name": "Warm Springs", "state": "CA", "lat": "33.7067", "lng": "-117.3344"}, {"name": "Dustin Acres", "state": "CA", "lat": "35.2159", "lng": "-119.3750"}, {"name": "Yucca Valley", "state": "CA", "lat": "34.1234", "lng": "-116.4216"}, {"name": "Maxwell", "state": "CA", "lat": "39.2771", "lng": "-122.1946"}, {"name": "Patton Village", "state": "CA", "lat": "40.1401", "lng": "-120.1778"}, {"name": "Upland", "state": "CA", "lat": "34.1178", "lng": "-117.6604"}, {"name": "El Cerrito", "state": "CA", "lat": "37.9197", "lng": "-122.3025"}, {"name": "Shingletown", "state": "CA", "lat": "40.5035", "lng": "-121.8600"}, {"name": "Anderson", "state": "CA", "lat": "40.4510", "lng": "-122.2962"}, {"name": "Bloomington", "state": "CA", "lat": "34.0601", "lng": "-117.4013"}, {"name": "Palm Springs", "state": "CA", "lat": "33.8017", "lng": "-116.5382"}, {"name": "Atherton", "state": "CA", "lat": "37.4539", "lng": "-122.2032"}, {"name": "Needles", "state": "CA", "lat": "34.8164", "lng": "-114.6189"}, {"name": "Clipper Mills", "state": "CA", "lat": "39.5324", "lng": "-121.1666"}, {"name": "Weldon", "state": "CA", "lat": "35.6431", "lng": "-118.3103"}, {"name": "Altadena", "state": "CA", "lat": "34.1928", "lng": "-118.1345"}, {"name": "National City", "state": "CA", "lat": "32.6654", "lng": "-117.0983"}, {"name": "Foresthill", "state": "CA", "lat": "39.0053", "lng": "-120.8313"}, {"name": "Daphnedale Park", "state": "CA", "lat": "41.5089", "lng": "-120.5507"}, {"name": "American Canyon", "state": "CA", "lat": "38.1796", "lng": "-122.2583"}, {"name": "Plymouth", "state": "CA", "lat": "38.4776", "lng": "-120.8584"}, {"name": "Rialto", "state": "CA", "lat": "34.1175", "lng": "-117.3894"}, {"name": "Rohnert Park", "state": "CA", "lat": "38.3480", "lng": "-122.6964"}, {"name": "Dinuba", "state": "CA", "lat": "36.5453", "lng": "-119.3987"}, {"name": "Pacific Grove", "state": "CA", "lat": "36.6191", "lng": "-121.9255"}, {"name": "Rosamond", "state": "CA", "lat": "34.8658", "lng": "-118.2154"}, {"name": "Roseville", "state": "CA", "lat": "38.7691", "lng": "-121.3178"}, {"name": "Angels", "state": "CA", "lat": "38.0706", "lng": "-120.5501"}, {"name": "Occidental", "state": "CA", "lat": "38.4004", "lng": "-122.9349"}, {"name": "Vista", "state": "CA", "lat": "33.1896", "lng": "-117.2386"}, {"name": "Phelan", "state": "CA", "lat": "34.4398", "lng": "-117.5248"}, {"name": "Sunnyside", "state": "CA", "lat": "36.7294", "lng": "-119.6945"}, {"name": "Johnstonville", "state": "CA", "lat": "40.3789", "lng": "-120.5846"}, {"name": "Inverness", "state": "CA", "lat": "38.0821", "lng": "-122.8471"}, {"name": "Acton", "state": "CA", "lat": "34.4956", "lng": "-118.1858"}, {"name": "Pasadena", "state": "CA", "lat": "34.1597", "lng": "-118.1390"}, {"name": "Alleghany", "state": "CA", "lat": "39.4666", "lng": "-120.8410"}, {"name": "Tres Pinos", "state": "CA", "lat": "36.7904", "lng": "-121.3106"}, {"name": "Castaic", "state": "CA", "lat": "34.4818", "lng": "-118.6317"}, {"name": "Stonyford", "state": "CA", "lat": "39.3703", "lng": "-122.5445"}, {"name": "Covelo", "state": "CA", "lat": "39.8025", "lng": "-123.2499"}, {"name": "Vandenberg Village", "state": "CA", "lat": "34.7111", "lng": "-120.4623"}, {"name": "Cambria", "state": "CA", "lat": "35.5523", "lng": "-121.0847"}, {"name": "Miranda", "state": "CA", "lat": "40.2289", "lng": "-123.8174"}, {"name": "Silverado Resort", "state": "CA", "lat": "38.3536", "lng": "-122.2556"}, {"name": "Amesti", "state": "CA", "lat": "36.9583", "lng": "-121.7805"}, {"name": "Planada", "state": "CA", "lat": "37.2892", "lng": "-120.3207"}, {"name": "Hyampom", "state": "CA", "lat": "40.6262", "lng": "-123.4689"}, {"name": "Gold Mountain", "state": "CA", "lat": "39.7613", "lng": "-120.5191"}, {"name": "China Lake Acres", "state": "CA", "lat": "35.6387", "lng": "-117.7667"}, {"name": "Valle Vista", "state": "CA", "lat": "33.7436", "lng": "-116.8872"}, {"name": "Los Alamos", "state": "CA", "lat": "34.7375", "lng": "-120.2783"}, {"name": "Pine Flat", "state": "CA", "lat": "35.8737", "lng": "-118.6427"}, {"name": "Newark", "state": "CA", "lat": "37.5204", "lng": "-122.0312"}, {"name": "Santee", "state": "CA", "lat": "32.8554", "lng": "-116.9851"}, {"name": "Mi-Wuk Village", "state": "CA", "lat": "38.0570", "lng": "-120.1790"}, {"name": "Sereno del Mar", "state": "CA", "lat": "38.3836", "lng": "-123.0732"}, {"name": "Walnut Park", "state": "CA", "lat": "33.9683", "lng": "-118.2220"}, {"name": "Santa Paula", "state": "CA", "lat": "34.3521", "lng": "-119.0698"}, {"name": "San Ardo", "state": "CA", "lat": "36.0238", "lng": "-120.9074"}, {"name": "Del Rey", "state": "CA", "lat": "36.6562", "lng": "-119.5993"}, {"name": "Mono Vista", "state": "CA", "lat": "38.0124", "lng": "-120.2697"}, {"name": "Lake Forest", "state": "CA", "lat": "33.6606", "lng": "-117.6712"}, {"name": "Sonora", "state": "CA", "lat": "37.9819", "lng": "-120.3828"}, {"name": "Dobbins", "state": "CA", "lat": "39.3657", "lng": "-121.2128"}, {"name": "Newport Beach", "state": "CA", "lat": "33.6151", "lng": "-117.8669"}, {"name": "Peters", "state": "CA", "lat": "37.9763", "lng": "-121.0439"}, {"name": "Santa Clara", "state": "CA", "lat": "37.3646", "lng": "-121.9680"}, {"name": "Pine Valley", "state": "CA", "lat": "32.8415", "lng": "-116.5107"}, {"name": "Laguna Woods", "state": "CA", "lat": "33.6099", "lng": "-117.7299"}, {"name": "Penngrove", "state": "CA", "lat": "38.3005", "lng": "-122.6707"}, {"name": "Elizabeth Lake", "state": "CA", "lat": "34.6590", "lng": "-118.3783"}, {"name": "Montara", "state": "CA", "lat": "37.5482", "lng": "-122.4924"}, {"name": "Lennox", "state": "CA", "lat": "33.9380", "lng": "-118.3586"}, {"name": "Barstow", "state": "CA", "lat": "34.8661", "lng": "-117.0472"}, {"name": "Walnut Grove", "state": "CA", "lat": "38.2477", "lng": "-121.5280"}, {"name": "Redway", "state": "CA", "lat": "40.1209", "lng": "-123.8220"}, {"name": "Desert Palms", "state": "CA", "lat": "33.7790", "lng": "-116.2930"}, {"name": "Pajaro", "state": "CA", "lat": "36.9016", "lng": "-121.7417"}, {"name": "Mesa Vista", "state": "CA", "lat": "38.8103", "lng": "-119.8033"}, {"name": "Azusa", "state": "CA", "lat": "34.1386", "lng": "-117.9124"}, {"name": "Half Moon Bay", "state": "CA", "lat": "37.4688", "lng": "-122.4383"}, {"name": "Los Gatos", "state": "CA", "lat": "37.2302", "lng": "-121.9560"}, {"name": "Pinole", "state": "CA", "lat": "37.9931", "lng": "-122.2834"}, {"name": "Hoopa", "state": "CA", "lat": "41.0803", "lng": "-123.6972"}, {"name": "San Anselmo", "state": "CA", "lat": "37.9821", "lng": "-122.5699"}, {"name": "San Martin", "state": "CA", "lat": "37.0829", "lng": "-121.5963"}, {"name": "Auberry", "state": "CA", "lat": "37.0754", "lng": "-119.4900"}, {"name": "Sky Valley", "state": "CA", "lat": "33.8912", "lng": "-116.3551"}, {"name": "Easton", "state": "CA", "lat": "36.6524", "lng": "-119.7908"}, {"name": "McKinleyville", "state": "CA", "lat": "40.9489", "lng": "-124.0857"}, {"name": "Alto", "state": "CA", "lat": "37.9056", "lng": "-122.5187"}, {"name": "Sausalito", "state": "CA", "lat": "37.8580", "lng": "-122.4932"}, {"name": "Highlands-Baywood Park", "state": "CA", "lat": "37.5227", "lng": "-122.3448"}, {"name": "Allendale", "state": "CA", "lat": "38.4426", "lng": "-121.9814"}, {"name": "Rosemont", "state": "CA", "lat": "38.5477", "lng": "-121.3553"}, {"name": "Dublin", "state": "CA", "lat": "37.7161", "lng": "-121.8964"}, {"name": "Tarpey Village", "state": "CA", "lat": "36.7941", "lng": "-119.7012"}, {"name": "San Lorenzo", "state": "CA", "lat": "37.6737", "lng": "-122.1349"}, {"name": "Day Valley", "state": "CA", "lat": "37.0255", "lng": "-121.8559"}, {"name": "Paxton", "state": "CA", "lat": "40.0334", "lng": "-121.0030"}, {"name": "Cedar Slope", "state": "CA", "lat": "36.1436", "lng": "-118.5771"}, {"name": "Seacliff", "state": "CA", "lat": "36.9770", "lng": "-121.9176"}, {"name": "Stockton", "state": "CA", "lat": "37.9766", "lng": "-121.3111"}, {"name": "Angwin", "state": "CA", "lat": "38.5776", "lng": "-122.4512"}, {"name": "Tecopa", "state": "CA", "lat": "35.8350", "lng": "-116.2074"}, {"name": "Durham", "state": "CA", "lat": "39.6232", "lng": "-121.7875"}, {"name": "Orcutt", "state": "CA", "lat": "34.8668", "lng": "-120.4269"}, {"name": "Emerald Lake Hills", "state": "CA", "lat": "37.4663", "lng": "-122.2675"}, {"name": "Guinda", "state": "CA", "lat": "38.8274", "lng": "-122.1985"}, {"name": "Salton Sea Beach", "state": "CA", "lat": "33.3759", "lng": "-116.0113"}, {"name": "Fairfield", "state": "CA", "lat": "38.2594", "lng": "-122.0319"}, {"name": "Vineyard", "state": "CA", "lat": "38.4744", "lng": "-121.3190"}, {"name": "Acalanes Ridge", "state": "CA", "lat": "37.9045", "lng": "-122.0786"}, {"name": "North Edwards", "state": "CA", "lat": "35.0474", "lng": "-117.8093"}, {"name": "Rosemead", "state": "CA", "lat": "34.0688", "lng": "-118.0823"}, {"name": "Milford", "state": "CA", "lat": "40.1634", "lng": "-120.3686"}, {"name": "Honcut", "state": "CA", "lat": "39.3326", "lng": "-121.5387"}, {"name": "Escalon", "state": "CA", "lat": "37.7912", "lng": "-120.9981"}, {"name": "Rossmoor", "state": "CA", "lat": "33.7886", "lng": "-118.0803"}, {"name": "Ojai", "state": "CA", "lat": "34.4487", "lng": "-119.2469"}, {"name": "Placerville", "state": "CA", "lat": "38.7308", "lng": "-120.7978"}, {"name": "South El Monte", "state": "CA", "lat": "34.0493", "lng": "-118.0484"}, {"name": "Millville", "state": "CA", "lat": "40.5576", "lng": "-122.1696"}, {"name": "Temescal Valley", "state": "CA", "lat": "33.7581", "lng": "-117.4677"}, {"name": "Diablo", "state": "CA", "lat": "37.8408", "lng": "-121.9565"}, {"name": "Panorama Heights", "state": "CA", "lat": "35.8068", "lng": "-118.6270"}, {"name": "Fulton", "state": "CA", "lat": "38.4937", "lng": "-122.7734"}, {"name": "Rancho Mirage", "state": "CA", "lat": "33.7634", "lng": "-116.4271"}, {"name": "Yuba City", "state": "CA", "lat": "39.1357", "lng": "-121.6381"}, {"name": "San Diego Country Estates", "state": "CA", "lat": "33.0093", "lng": "-116.7874"}, {"name": "Capitola", "state": "CA", "lat": "36.9772", "lng": "-121.9539"}, {"name": "Lanare", "state": "CA", "lat": "36.4377", "lng": "-119.9322"}, {"name": "Contra Costa Centre", "state": "CA", "lat": "37.9261", "lng": "-122.0539"}, {"name": "Kennedy Meadows", "state": "CA", "lat": "36.0076", "lng": "-118.1100"}, {"name": "Rancho Santa Margarita", "state": "CA", "lat": "33.6317", "lng": "-117.5989"}, {"name": "North Shore", "state": "CA", "lat": "33.5157", "lng": "-115.9092"}, {"name": "Interlaken", "state": "CA", "lat": "36.9505", "lng": "-121.7363"}, {"name": "Homestead Valley", "state": "CA", "lat": "34.2730", "lng": "-116.4145"}, {"name": "Coleville", "state": "CA", "lat": "38.5834", "lng": "-119.5160"}, {"name": "Knightsen", "state": "CA", "lat": "37.9633", "lng": "-121.6511"}, {"name": "Mendocino", "state": "CA", "lat": "39.3110", "lng": "-123.7908"}, {"name": "Dunsmuir", "state": "CA", "lat": "41.2319", "lng": "-122.2714"}, {"name": "Kings Beach", "state": "CA", "lat": "39.2490", "lng": "-120.0201"}, {"name": "Myers Flat", "state": "CA", "lat": "40.2666", "lng": "-123.8737"}, {"name": "Corona", "state": "CA", "lat": "33.8620", "lng": "-117.5641"}, {"name": "East Shore", "state": "CA", "lat": "40.2451", "lng": "-121.0768"}, {"name": "Yreka", "state": "CA", "lat": "41.7292", "lng": "-122.6311"}, {"name": "Beaumont", "state": "CA", "lat": "33.9070", "lng": "-116.9762"}, {"name": "Bear Creek", "state": "CA", "lat": "37.2966", "lng": "-120.4177"}, {"name": "San Pablo", "state": "CA", "lat": "37.9628", "lng": "-122.3425"}, {"name": "Alpine Village", "state": "CA", "lat": "38.7856", "lng": "-119.8009"}, {"name": "Dorrington", "state": "CA", "lat": "38.2949", "lng": "-120.2706"}, {"name": "Smith River", "state": "CA", "lat": "41.9250", "lng": "-124.1494"}, {"name": "Oakley", "state": "CA", "lat": "37.9929", "lng": "-121.6951"}, {"name": "Agua Dulce", "state": "CA", "lat": "34.5044", "lng": "-118.3160"}, {"name": "McArthur", "state": "CA", "lat": "41.0415", "lng": "-121.4068"}, {"name": "Oroville East", "state": "CA", "lat": "39.4947", "lng": "-121.4866"}, {"name": "Meridian", "state": "CA", "lat": "39.1404", "lng": "-121.9079"}, {"name": "Dixon Lane-Meadow Creek", "state": "CA", "lat": "37.3864", "lng": "-118.4153"}, {"name": "Chino Hills", "state": "CA", "lat": "33.9507", "lng": "-117.7253"}, {"name": "Bonsall", "state": "CA", "lat": "33.2761", "lng": "-117.1942"}, {"name": "Folsom", "state": "CA", "lat": "38.6669", "lng": "-121.1422"}, {"name": "Susanville", "state": "CA", "lat": "40.4205", "lng": "-120.6129"}, {"name": "San Rafael", "state": "CA", "lat": "37.9904", "lng": "-122.5222"}, {"name": "Calabasas", "state": "CA", "lat": "34.1375", "lng": "-118.6689"}, {"name": "Cuyama", "state": "CA", "lat": "34.9312", "lng": "-119.6148"}, {"name": "Wawona", "state": "CA", "lat": "37.5482", "lng": "-119.6395"}, {"name": "Concow", "state": "CA", "lat": "39.7733", "lng": "-121.5196"}, {"name": "Westlake Village", "state": "CA", "lat": "34.1369", "lng": "-118.8221"}, {"name": "Sisquoc", "state": "CA", "lat": "34.8622", "lng": "-120.2942"}, {"name": "Jackson", "state": "CA", "lat": "38.3485", "lng": "-120.7728"}, {"name": "Trowbridge", "state": "CA", "lat": "38.9263", "lng": "-121.5148"}, {"name": "Calistoga", "state": "CA", "lat": "38.5818", "lng": "-122.5824"}, {"name": "Ladera Ranch", "state": "CA", "lat": "33.5491", "lng": "-117.6416"}, {"name": "Cleone", "state": "CA", "lat": "39.4927", "lng": "-123.7812"}, {"name": "Ford City", "state": "CA", "lat": "35.1647", "lng": "-119.4584"}, {"name": "University of California-Davis", "state": "CA", "lat": "38.5374", "lng": "-121.7576"}, {"name": "Oasis", "state": "CA", "lat": "33.5275", "lng": "-116.1261"}, {"name": "Marina", "state": "CA", "lat": "36.6812", "lng": "-121.7894"}, {"name": "San Clemente", "state": "CA", "lat": "33.4498", "lng": "-117.6103"}, {"name": "Whittier", "state": "CA", "lat": "33.9678", "lng": "-118.0188"}, {"name": "Mono City", "state": "CA", "lat": "38.0412", "lng": "-119.1466"}, {"name": "Laguna Beach", "state": "CA", "lat": "33.5449", "lng": "-117.7613"}, {"name": "Kernville", "state": "CA", "lat": "35.7531", "lng": "-118.4321"}, {"name": "Silver City", "state": "CA", "lat": "36.4638", "lng": "-118.6508"}, {"name": "Ripon", "state": "CA", "lat": "37.7415", "lng": "-121.1309"}, {"name": "Mexican Colony", "state": "CA", "lat": "35.4689", "lng": "-119.2687"}, {"name": "Bella Vista", "state": "CA", "lat": "40.6502", "lng": "-122.2450"}, {"name": "Hydesville", "state": "CA", "lat": "40.5579", "lng": "-124.0822"}, {"name": "Niland", "state": "CA", "lat": "33.2387", "lng": "-115.5146"}, {"name": "Bodega Bay", "state": "CA", "lat": "38.3250", "lng": "-123.0308"}, {"name": "Calpine", "state": "CA", "lat": "39.6633", "lng": "-120.4436"}, {"name": "Hat Creek", "state": "CA", "lat": "40.8101", "lng": "-121.4809"}, {"name": "Boulevard", "state": "CA", "lat": "32.6640", "lng": "-116.2896"}, {"name": "Carson", "state": "CA", "lat": "33.8374", "lng": "-118.2559"}, {"name": "Guadalupe", "state": "CA", "lat": "34.9608", "lng": "-120.5735"}, {"name": "Elkhorn", "state": "CA", "lat": "36.8103", "lng": "-121.7211"}, {"name": "Delleker", "state": "CA", "lat": "39.8101", "lng": "-120.4968"}, {"name": "Huntington Beach", "state": "CA", "lat": "33.6960", "lng": "-118.0025"}, {"name": "Williams", "state": "CA", "lat": "39.1487", "lng": "-122.1373"}, {"name": "Solvang", "state": "CA", "lat": "34.5936", "lng": "-120.1401"}, {"name": "Sebastopol", "state": "CA", "lat": "38.4000", "lng": "-122.8277"}, {"name": "Elk Grove", "state": "CA", "lat": "38.4160", "lng": "-121.3840"}, {"name": "Ripley", "state": "CA", "lat": "33.5238", "lng": "-114.6530"}, {"name": "Corning", "state": "CA", "lat": "39.9282", "lng": "-122.1820"}, {"name": "Cherokee Strip", "state": "CA", "lat": "35.4698", "lng": "-119.2617"}, {"name": "Crestline", "state": "CA", "lat": "34.2486", "lng": "-117.2890"}, {"name": "Blacklake", "state": "CA", "lat": "35.0497", "lng": "-120.5387"}, {"name": "Irvine", "state": "CA", "lat": "33.6772", "lng": "-117.7738"}, {"name": "San Marino", "state": "CA", "lat": "34.1224", "lng": "-118.1132"}, {"name": "Cherryland", "state": "CA", "lat": "37.6792", "lng": "-122.1038"}, {"name": "Baldwin Park", "state": "CA", "lat": "34.0829", "lng": "-117.9721"}, {"name": "Bertsch-Oceanview", "state": "CA", "lat": "41.7524", "lng": "-124.1594"}, {"name": "Fair Oaks", "state": "CA", "lat": "38.6504", "lng": "-121.2497"}, {"name": "Arroyo Grande", "state": "CA", "lat": "35.1242", "lng": "-120.5845"}, {"name": "Sunnyside-Tahoe City", "state": "CA", "lat": "39.1504", "lng": "-120.1613"}, {"name": "Orland", "state": "CA", "lat": "39.7461", "lng": "-122.1855"}, {"name": "Alhambra Valley", "state": "CA", "lat": "37.9665", "lng": "-122.1320"}, {"name": "Hughson", "state": "CA", "lat": "37.6020", "lng": "-120.8660"}, {"name": "Santa Nella", "state": "CA", "lat": "37.1014", "lng": "-121.0153"}, {"name": "Mendota", "state": "CA", "lat": "36.7555", "lng": "-120.3777"}, {"name": "Zayante", "state": "CA", "lat": "37.0889", "lng": "-122.0414"}, {"name": "Bonny Doon", "state": "CA", "lat": "37.0435", "lng": "-122.1369"}, {"name": "Marysville", "state": "CA", "lat": "39.1518", "lng": "-121.5836"}, {"name": "Tracy", "state": "CA", "lat": "37.7260", "lng": "-121.4440"}, {"name": "Winters", "state": "CA", "lat": "38.5320", "lng": "-121.9781"}, {"name": "Rose Hills", "state": "CA", "lat": "34.0090", "lng": "-118.0420"}, {"name": "Tehachapi", "state": "CA", "lat": "35.1270", "lng": "-118.4750"}, {"name": "Mabie", "state": "CA", "lat": "39.7771", "lng": "-120.5447"}, {"name": "East Whittier", "state": "CA", "lat": "33.9244", "lng": "-117.9887"}, {"name": "Florence-Graham", "state": "CA", "lat": "33.9682", "lng": "-118.2447"}, {"name": "Los Alamitos", "state": "CA", "lat": "33.7972", "lng": "-118.0594"}, {"name": "Mad River", "state": "CA", "lat": "40.4325", "lng": "-123.4917"}, {"name": "Madison", "state": "CA", "lat": "38.6750", "lng": "-121.9702"}, {"name": "Salida", "state": "CA", "lat": "37.7145", "lng": "-121.0870"}, {"name": "Ivanhoe", "state": "CA", "lat": "36.3886", "lng": "-119.2202"}, {"name": "San Carlos", "state": "CA", "lat": "37.4982", "lng": "-122.2680"}, {"name": "Wasco", "state": "CA", "lat": "35.5938", "lng": "-119.3671"}, {"name": "Magalia", "state": "CA", "lat": "39.8228", "lng": "-121.6078"}, {"name": "North Richmond", "state": "CA", "lat": "37.9642", "lng": "-122.3711"}, {"name": "Cassel", "state": "CA", "lat": "40.9213", "lng": "-121.5515"}, {"name": "Hesperia", "state": "CA", "lat": "34.3975", "lng": "-117.3147"}, {"name": "Tupman", "state": "CA", "lat": "35.2987", "lng": "-119.3576"}, {"name": "Prattville", "state": "CA", "lat": "40.2060", "lng": "-121.1575"}, {"name": "Home Garden", "state": "CA", "lat": "36.3030", "lng": "-119.6370"}, {"name": "Fairview", "state": "CA", "lat": "37.6761", "lng": "-122.0481"}, {"name": "Storrie", "state": "CA", "lat": "39.9239", "lng": "-121.3188"}, {"name": "Homewood Canyon", "state": "CA", "lat": "35.8900", "lng": "-117.3863"}, {"name": "Almanor", "state": "CA", "lat": "40.2146", "lng": "-121.1762"}, {"name": "San Marcos", "state": "CA", "lat": "33.1350", "lng": "-117.1743"}, {"name": "El Segundo", "state": "CA", "lat": "33.9169", "lng": "-118.4021"}, {"name": "Poso Park", "state": "CA", "lat": "35.8114", "lng": "-118.6363"}, {"name": "Keyes", "state": "CA", "lat": "37.5618", "lng": "-120.9088"}, {"name": "Mineral", "state": "CA", "lat": "40.3755", "lng": "-121.5694"}, {"name": "La Palma", "state": "CA", "lat": "33.8504", "lng": "-118.0406"}, {"name": "Meiners Oaks", "state": "CA", "lat": "34.4505", "lng": "-119.2731"}, {"name": "Broadmoor", "state": "CA", "lat": "37.6914", "lng": "-122.4811"}, {"name": "Darwin", "state": "CA", "lat": "36.2688", "lng": "-117.5891"}, {"name": "Little Valley", "state": "CA", "lat": "40.8930", "lng": "-121.1781"}, {"name": "Weott", "state": "CA", "lat": "40.3226", "lng": "-123.9209"}, {"name": "August", "state": "CA", "lat": "37.9796", "lng": "-121.2625"}, {"name": "Fowler", "state": "CA", "lat": "36.6246", "lng": "-119.6739"}, {"name": "Yountville", "state": "CA", "lat": "38.3963", "lng": "-122.3671"}, {"name": "Willits", "state": "CA", "lat": "39.4047", "lng": "-123.3494"}, {"name": "Big Bear Lake", "state": "CA", "lat": "34.2429", "lng": "-116.8950"}, {"name": "Clayton", "state": "CA", "lat": "37.9403", "lng": "-121.9301"}, {"name": "Camarillo", "state": "CA", "lat": "34.2230", "lng": "-119.0322"}, {"name": "Mayflower Village", "state": "CA", "lat": "34.1159", "lng": "-118.0096"}, {"name": "Piru", "state": "CA", "lat": "34.4075", "lng": "-118.7999"}, {"name": "Buena Vista", "state": "CA", "lat": "38.2974", "lng": "-120.9179"}, {"name": "Saratoga", "state": "CA", "lat": "37.2684", "lng": "-122.0263"}, {"name": "Bodega", "state": "CA", "lat": "38.3488", "lng": "-122.9712"}, {"name": "La Presa", "state": "CA", "lat": "32.7110", "lng": "-117.0027"}, {"name": "Channel Islands Beach", "state": "CA", "lat": "34.1586", "lng": "-119.2231"}, {"name": "Del Aire", "state": "CA", "lat": "33.9168", "lng": "-118.3693"}, {"name": "Shaver Lake", "state": "CA", "lat": "37.0971", "lng": "-119.3245"}, {"name": "Stinson Beach", "state": "CA", "lat": "37.9051", "lng": "-122.6457"}, {"name": "Oxnard", "state": "CA", "lat": "34.1962", "lng": "-119.1819"}, {"name": "Valley Springs", "state": "CA", "lat": "38.1837", "lng": "-120.8150"}, {"name": "San Luis Obispo", "state": "CA", "lat": "35.2670", "lng": "-120.6689"}, {"name": "Yucaipa", "state": "CA", "lat": "34.0336", "lng": "-117.0430"}, {"name": "Gilroy", "state": "CA", "lat": "37.0047", "lng": "-121.5856"}, {"name": "Temecula", "state": "CA", "lat": "33.4928", "lng": "-117.1315"}, {"name": "Kenwood", "state": "CA", "lat": "38.4153", "lng": "-122.5387"}, {"name": "La Mesa", "state": "CA", "lat": "32.7703", "lng": "-117.0204"}, {"name": "Escondido", "state": "CA", "lat": "33.1347", "lng": "-117.0723"}, {"name": "Hilmar-Irwin", "state": "CA", "lat": "37.4045", "lng": "-120.8504"}, {"name": "Verdi", "state": "CA", "lat": "39.5237", "lng": "-120.0164"}, {"name": "Penryn", "state": "CA", "lat": "38.8478", "lng": "-121.1699"}, {"name": "Arnold", "state": "CA", "lat": "38.2423", "lng": "-120.3547"}, {"name": "Blackhawk", "state": "CA", "lat": "37.8160", "lng": "-121.9071"}, {"name": "Greeley Hill", "state": "CA", "lat": "37.7569", "lng": "-120.1290"}, {"name": "King City", "state": "CA", "lat": "36.2166", "lng": "-121.1330"}, {"name": "Sierra Village", "state": "CA", "lat": "38.0768", "lng": "-120.1624"}, {"name": "North Gate", "state": "CA", "lat": "37.9062", "lng": "-121.9981"}, {"name": "Alta Sierra", "state": "CA", "lat": "39.1237", "lng": "-121.0523"}, {"name": "Centerville", "state": "CA", "lat": "36.7361", "lng": "-119.4960"}, {"name": "Wilsonia", "state": "CA", "lat": "36.7346", "lng": "-118.9558"}, {"name": "Woodland", "state": "CA", "lat": "38.6712", "lng": "-121.7500"}, {"name": "Tiburon", "state": "CA", "lat": "37.8854", "lng": "-122.4637"}, {"name": "Manila", "state": "CA", "lat": "40.8513", "lng": "-124.1631"}, {"name": "Santa Margarita", "state": "CA", "lat": "35.3894", "lng": "-120.6084"}, {"name": "Camp Nelson", "state": "CA", "lat": "36.1420", "lng": "-118.6107"}, {"name": "Oceanside", "state": "CA", "lat": "33.2247", "lng": "-117.3083"}, {"name": "South San Jose Hills", "state": "CA", "lat": "34.0123", "lng": "-117.9041"}, {"name": "Weed", "state": "CA", "lat": "41.4128", "lng": "-122.3816"}, {"name": "Mountain House", "state": "CA", "lat": "37.7740", "lng": "-121.5452"}, {"name": "Big Bend", "state": "CA", "lat": "41.0108", "lng": "-121.9239"}, {"name": "Boyes Hot Springs", "state": "CA", "lat": "38.3126", "lng": "-122.4888"}, {"name": "Lake Davis", "state": "CA", "lat": "39.8564", "lng": "-120.4630"}, {"name": "Alturas", "state": "CA", "lat": "41.4898", "lng": "-120.5516"}, {"name": "Monson", "state": "CA", "lat": "36.4927", "lng": "-119.3358"}, {"name": "Daly City", "state": "CA", "lat": "37.6863", "lng": "-122.4684"}, {"name": "Sierra Brooks", "state": "CA", "lat": "39.6426", "lng": "-120.2153"}, {"name": "London", "state": "CA", "lat": "36.4810", "lng": "-119.4440"}, {"name": "Eureka", "state": "CA", "lat": "40.7941", "lng": "-124.1568"}, {"name": "Aliso Viejo", "state": "CA", "lat": "33.5792", "lng": "-117.7289"}, {"name": "Sunnyvale", "state": "CA", "lat": "37.3836", "lng": "-122.0257"}, {"name": "Soda Bay", "state": "CA", "lat": "39.0024", "lng": "-122.7794"}, {"name": "Cathedral City", "state": "CA", "lat": "33.8363", "lng": "-116.4642"}, {"name": "East Richmond Heights", "state": "CA", "lat": "37.9451", "lng": "-122.3140"}, {"name": "Hermosa Beach", "state": "CA", "lat": "33.8654", "lng": "-118.3966"}, {"name": "Lake Almanor Country Club", "state": "CA", "lat": "40.2578", "lng": "-121.1470"}, {"name": "Brisbane", "state": "CA", "lat": "37.6898", "lng": "-122.4019"}, {"name": "Cerritos", "state": "CA", "lat": "33.8677", "lng": "-118.0686"}, {"name": "Corte Madera", "state": "CA", "lat": "37.9238", "lng": "-122.5129"}, {"name": "Reliez Valley", "state": "CA", "lat": "37.9399", "lng": "-122.1026"}, {"name": "Tobin", "state": "CA", "lat": "39.9361", "lng": "-121.2959"}, {"name": "Mountain View", "state": "CA", "lat": "37.4000", "lng": "-122.0796"}, {"name": "Pleasure Point", "state": "CA", "lat": "36.9618", "lng": "-121.9715"}, {"name": "Ross", "state": "CA", "lat": "37.9638", "lng": "-122.5615"}, {"name": "Ponderosa", "state": "CA", "lat": "36.1050", "lng": "-118.5293"}, {"name": "Firebaugh", "state": "CA", "lat": "36.8534", "lng": "-120.4537"}, {"name": "Selma", "state": "CA", "lat": "36.5744", "lng": "-119.6156"}, {"name": "Portola Valley", "state": "CA", "lat": "37.3713", "lng": "-122.2203"}, {"name": "Lodoga", "state": "CA", "lat": "39.3041", "lng": "-122.5058"}, {"name": "Sugarloaf Village", "state": "CA", "lat": "35.8269", "lng": "-118.6355"}, {"name": "Walnut Creek", "state": "CA", "lat": "37.9025", "lng": "-122.0398"}, {"name": "Ferndale", "state": "CA", "lat": "40.5799", "lng": "-124.2619"}, {"name": "Fortuna", "state": "CA", "lat": "40.5860", "lng": "-124.1424"}, {"name": "Artesia", "state": "CA", "lat": "33.8676", "lng": "-118.0806"}, {"name": "Kennedy", "state": "CA", "lat": "37.9290", "lng": "-121.2457"}, {"name": "Salinas", "state": "CA", "lat": "36.6884", "lng": "-121.6317"}, {"name": "Rancho Santa Fe", "state": "CA", "lat": "33.0240", "lng": "-117.1992"}, {"name": "Burnt Ranch", "state": "CA", "lat": "40.8111", "lng": "-123.5082"}, {"name": "Clay", "state": "CA", "lat": "38.3140", "lng": "-121.1596"}, {"name": "Rio Vista", "state": "CA", "lat": "38.1761", "lng": "-121.7034"}, {"name": "Hayward", "state": "CA", "lat": "37.6328", "lng": "-122.0772"}, {"name": "Butte Creek Canyon", "state": "CA", "lat": "39.7489", "lng": "-121.6969"}, {"name": "Jamestown", "state": "CA", "lat": "37.9574", "lng": "-120.4110"}, {"name": "San Miguel", "state": "CA", "lat": "37.8867", "lng": "-122.0369"}, {"name": "College City", "state": "CA", "lat": "39.0063", "lng": "-122.0068"}, {"name": "Colfax", "state": "CA", "lat": "39.0938", "lng": "-120.9532"}, {"name": "June Lake", "state": "CA", "lat": "37.7677", "lng": "-119.1022"}, {"name": "Yankee Hill", "state": "CA", "lat": "39.7007", "lng": "-121.5147"}, {"name": "Lucas Valley-Marinwood", "state": "CA", "lat": "38.0405", "lng": "-122.5765"}, {"name": "Douglas City", "state": "CA", "lat": "40.6636", "lng": "-122.9261"}, {"name": "Pioneer", "state": "CA", "lat": "38.4355", "lng": "-120.5848"}, {"name": "Eucalyptus Hills", "state": "CA", "lat": "32.8850", "lng": "-116.9453"}, {"name": "Boulder Creek", "state": "CA", "lat": "37.1341", "lng": "-122.1271"}, {"name": "McFarland", "state": "CA", "lat": "35.6781", "lng": "-119.2414"}, {"name": "Mountain Center", "state": "CA", "lat": "33.7112", "lng": "-116.7248"}, {"name": "Tonyville", "state": "CA", "lat": "36.2474", "lng": "-119.0903"}, {"name": "El Paso de Robles", "state": "CA", "lat": "35.6394", "lng": "-120.6560"}, {"name": "Palmdale", "state": "CA", "lat": "34.5944", "lng": "-118.1057"}, {"name": "Nicasio", "state": "CA", "lat": "38.0606", "lng": "-122.7008"}, {"name": "McClellan Park", "state": "CA", "lat": "38.6631", "lng": "-121.4015"}, {"name": "Industry", "state": "CA", "lat": "34.0175", "lng": "-117.9268"}, {"name": "Chilcoot-Vinton", "state": "CA", "lat": "39.8067", "lng": "-120.1388"}, {"name": "Garnet", "state": "CA", "lat": "33.9179", "lng": "-116.4796"}, {"name": "Lake Riverside", "state": "CA", "lat": "33.5173", "lng": "-116.8107"}, {"name": "Lakeview", "state": "CA", "lat": "33.8285", "lng": "-117.1233"}, {"name": "Duarte", "state": "CA", "lat": "34.1609", "lng": "-117.9504"}, {"name": "San Juan Capistrano", "state": "CA", "lat": "33.5009", "lng": "-117.6544"}, {"name": "Wofford Heights", "state": "CA", "lat": "35.7127", "lng": "-118.4731"}, {"name": "Arvin", "state": "CA", "lat": "35.1944", "lng": "-118.8306"}, {"name": "Monterey Park", "state": "CA", "lat": "34.0497", "lng": "-118.1326"}, {"name": "Turlock", "state": "CA", "lat": "37.5053", "lng": "-120.8587"}, {"name": "Indio Hills", "state": "CA", "lat": "33.8411", "lng": "-116.2484"}, {"name": "Mecca", "state": "CA", "lat": "33.5767", "lng": "-116.0645"}, {"name": "Downey", "state": "CA", "lat": "33.9379", "lng": "-118.1312"}, {"name": "Alameda", "state": "CA", "lat": "37.7670", "lng": "-122.2673"}, {"name": "Three Rivers", "state": "CA", "lat": "36.4319", "lng": "-118.8806"}, {"name": "Pine Mountain Club", "state": "CA", "lat": "34.8446", "lng": "-119.1669"}, {"name": "Pasatiempo", "state": "CA", "lat": "37.0035", "lng": "-122.0265"}, {"name": "Salton City", "state": "CA", "lat": "33.2994", "lng": "-115.9609"}, {"name": "Sleepy Hollow", "state": "CA", "lat": "38.0120", "lng": "-122.5877"}, {"name": "Lake Mathews", "state": "CA", "lat": "33.8250", "lng": "-117.3683"}, {"name": "McGee Creek", "state": "CA", "lat": "37.5727", "lng": "-118.7910"}, {"name": "Rouse", "state": "CA", "lat": "37.6195", "lng": "-121.0084"}, {"name": "Hornitos", "state": "CA", "lat": "37.5034", "lng": "-120.2420"}, {"name": "Tipton", "state": "CA", "lat": "36.0585", "lng": "-119.3130"}, {"name": "Stanford", "state": "CA", "lat": "37.4252", "lng": "-122.1674"}, {"name": "Beverly Hills", "state": "CA", "lat": "34.0786", "lng": "-118.4021"}, {"name": "Benton", "state": "CA", "lat": "37.8189", "lng": "-118.4845"}, {"name": "Strawberry", "state": "CA", "lat": "37.8925", "lng": "-122.5078"}, {"name": "Los Altos Hills", "state": "CA", "lat": "37.3672", "lng": "-122.1390"}, {"name": "Little River", "state": "CA", "lat": "39.2703", "lng": "-123.7817"}, {"name": "Bucks Lake", "state": "CA", "lat": "39.8798", "lng": "-121.1941"}, {"name": "Chowchilla", "state": "CA", "lat": "37.1095", "lng": "-120.2349"}, {"name": "Bishop", "state": "CA", "lat": "37.3665", "lng": "-118.3958"}, {"name": "University of California-Merced", "state": "CA", "lat": "37.3666", "lng": "-120.4190"}, {"name": "Hartley", "state": "CA", "lat": "38.4203", "lng": "-121.9521"}, {"name": "Valinda", "state": "CA", "lat": "34.0400", "lng": "-117.9301"}, {"name": "Commerce", "state": "CA", "lat": "33.9963", "lng": "-118.1519"}, {"name": "Vandenberg AFB", "state": "CA", "lat": "34.7483", "lng": "-120.5182"}, {"name": "Thermal", "state": "CA", "lat": "33.6262", "lng": "-116.1309"}, {"name": "Topanga", "state": "CA", "lat": "34.0964", "lng": "-118.6053"}, {"name": "Temelec", "state": "CA", "lat": "38.2577", "lng": "-122.4982"}, {"name": "Hasley Canyon", "state": "CA", "lat": "34.4817", "lng": "-118.6665"}, {"name": "Paynes Creek", "state": "CA", "lat": "40.3410", "lng": "-121.9174"}, {"name": "Malaga", "state": "CA", "lat": "36.6816", "lng": "-119.7318"}, {"name": "Hawthorne", "state": "CA", "lat": "33.9146", "lng": "-118.3476"}, {"name": "Cantua Creek", "state": "CA", "lat": "36.5001", "lng": "-120.3164"}, {"name": "Rancho Tehama Reserve", "state": "CA", "lat": "40.0010", "lng": "-122.4418"}, {"name": "Spring Valley", "state": "CA", "lat": "32.7317", "lng": "-116.9766"}, {"name": "Belden", "state": "CA", "lat": "40.0040", "lng": "-121.2541"}, {"name": "Lakehead", "state": "CA", "lat": "40.9007", "lng": "-122.3924"}, {"name": "San Pasqual", "state": "CA", "lat": "34.1392", "lng": "-118.1025"}, {"name": "Santa Barbara", "state": "CA", "lat": "34.4285", "lng": "-119.7202"}, {"name": "Highgrove", "state": "CA", "lat": "34.0106", "lng": "-117.3098"}, {"name": "Nipinnawasee", "state": "CA", "lat": "37.4031", "lng": "-119.7293"}, {"name": "Kensington", "state": "CA", "lat": "37.9084", "lng": "-122.2805"}, {"name": "Cazadero", "state": "CA", "lat": "38.5265", "lng": "-123.0978"}, {"name": "Winton", "state": "CA", "lat": "37.3854", "lng": "-120.6173"}, {"name": "Garey", "state": "CA", "lat": "34.8869", "lng": "-120.3141"}, {"name": "Tahoma", "state": "CA", "lat": "39.0633", "lng": "-120.1438"}, {"name": "Rancho Murieta", "state": "CA", "lat": "38.5085", "lng": "-121.0716"}, {"name": "Stallion Springs", "state": "CA", "lat": "35.0935", "lng": "-118.6477"}, {"name": "Mettler", "state": "CA", "lat": "35.0635", "lng": "-118.9729"}, {"name": "Healdsburg", "state": "CA", "lat": "38.6229", "lng": "-122.8651"}, {"name": "Farmington", "state": "CA", "lat": "37.9299", "lng": "-121.0044"}, {"name": "Mayfair", "state": "CA", "lat": "36.7694", "lng": "-119.7612"}, {"name": "Coronita", "state": "CA", "lat": "33.8760", "lng": "-117.6110"}, {"name": "Felton", "state": "CA", "lat": "37.0392", "lng": "-122.0804"}, {"name": "Hillsborough", "state": "CA", "lat": "37.5573", "lng": "-122.3587"}, {"name": "Point Reyes Station", "state": "CA", "lat": "38.0847", "lng": "-122.8093"}, {"name": "Tranquillity", "state": "CA", "lat": "36.6480", "lng": "-120.2526"}, {"name": "Nord", "state": "CA", "lat": "39.7739", "lng": "-121.9548"}, {"name": "La Habra Heights", "state": "CA", "lat": "33.9603", "lng": "-117.9509"}, {"name": "Madera Acres", "state": "CA", "lat": "37.0123", "lng": "-120.0799"}, {"name": "Crest", "state": "CA", "lat": "32.8000", "lng": "-116.8671"}, {"name": "Lakewood", "state": "CA", "lat": "33.8471", "lng": "-118.1221"}, {"name": "Paradise", "state": "CA", "lat": "39.7558", "lng": "-121.6063"}, {"name": "Rollingwood", "state": "CA", "lat": "37.9655", "lng": "-122.3305"}, {"name": "Bridgeport", "state": "CA", "lat": "38.2561", "lng": "-119.2123"}, {"name": "Bangor", "state": "CA", "lat": "39.3761", "lng": "-121.4117"}, {"name": "Oak Hills", "state": "CA", "lat": "34.3912", "lng": "-117.4125"}, {"name": "Freeport", "state": "CA", "lat": "38.4636", "lng": "-121.5022"}, {"name": "Samoa", "state": "CA", "lat": "40.8146", "lng": "-124.1893"}, {"name": "Cottonwood", "state": "CA", "lat": "40.3904", "lng": "-122.2861"}, {"name": "Trinity Center", "state": "CA", "lat": "40.9841", "lng": "-122.7083"}, {"name": "Lynwood", "state": "CA", "lat": "33.9240", "lng": "-118.2017"}, {"name": "Paskenta", "state": "CA", "lat": "39.8834", "lng": "-122.5457"}, {"name": "Clear Creek", "state": "CA", "lat": "40.3023", "lng": "-121.0531"}, {"name": "Eastvale", "state": "CA", "lat": "33.9617", "lng": "-117.5802"}, {"name": "Greenville", "state": "CA", "lat": "40.1336", "lng": "-120.9454"}, {"name": "Dollar Point", "state": "CA", "lat": "39.1905", "lng": "-120.1089"}, {"name": "Tulare", "state": "CA", "lat": "36.1996", "lng": "-119.3401"}, {"name": "Sunny Slopes", "state": "CA", "lat": "37.5694", "lng": "-118.6759"}, {"name": "Norwalk", "state": "CA", "lat": "33.9069", "lng": "-118.0829"}, {"name": "Alpaugh", "state": "CA", "lat": "35.8876", "lng": "-119.4873"}, {"name": "Point Arena", "state": "CA", "lat": "38.9123", "lng": "-123.6954"}, {"name": "Coto de Caza", "state": "CA", "lat": "33.5961", "lng": "-117.5862"}, {"name": "Carpinteria", "state": "CA", "lat": "34.3962", "lng": "-119.5117"}, {"name": "Berkeley", "state": "CA", "lat": "37.8723", "lng": "-122.2760"}, {"name": "Heber", "state": "CA", "lat": "32.7318", "lng": "-115.5204"}, {"name": "Airport", "state": "CA", "lat": "37.6324", "lng": "-120.9774"}, {"name": "Taft", "state": "CA", "lat": "35.1267", "lng": "-119.4243"}, {"name": "Bystrom", "state": "CA", "lat": "37.6199", "lng": "-120.9827"}, {"name": "Discovery Bay", "state": "CA", "lat": "37.9071", "lng": "-121.6076"}, {"name": "Canby", "state": "CA", "lat": "41.4477", "lng": "-120.8843"}, {"name": "Huntington Park", "state": "CA", "lat": "33.9800", "lng": "-118.2167"}, {"name": "Goleta", "state": "CA", "lat": "34.4360", "lng": "-119.8595"}, {"name": "Gerber", "state": "CA", "lat": "40.0614", "lng": "-122.1482"}, {"name": "Fruitridge Pocket", "state": "CA", "lat": "38.5326", "lng": "-121.4558"}, {"name": "Moss Beach", "state": "CA", "lat": "37.5185", "lng": "-122.5036"}, {"name": "Good Hope", "state": "CA", "lat": "33.7706", "lng": "-117.2772"}, {"name": "Reedley", "state": "CA", "lat": "36.5983", "lng": "-119.4473"}, {"name": "Chula Vista", "state": "CA", "lat": "32.6281", "lng": "-117.0145"}, {"name": "Linden", "state": "CA", "lat": "38.0186", "lng": "-121.0994"}, {"name": "Scotia", "state": "CA", "lat": "40.4774", "lng": "-124.1032"}, {"name": "Ramona", "state": "CA", "lat": "33.0474", "lng": "-116.8767"}, {"name": "Camp Pendleton South", "state": "CA", "lat": "33.2284", "lng": "-117.3791"}, {"name": "Benbow", "state": "CA", "lat": "40.0603", "lng": "-123.7653"}, {"name": "East Oakdale", "state": "CA", "lat": "37.7854", "lng": "-120.8007"}, {"name": "Riverbank", "state": "CA", "lat": "37.7268", "lng": "-120.9402"}, {"name": "Flournoy", "state": "CA", "lat": "39.9284", "lng": "-122.4461"}, {"name": "Long Beach", "state": "CA", "lat": "33.7980", "lng": "-118.1675"}, {"name": "Petaluma", "state": "CA", "lat": "38.2423", "lng": "-122.6267"}, {"name": "Bodfish", "state": "CA", "lat": "35.5765", "lng": "-118.4764"}, {"name": "Santa Susana", "state": "CA", "lat": "34.2580", "lng": "-118.6662"}, {"name": "Novato", "state": "CA", "lat": "38.0920", "lng": "-122.5576"}, {"name": "Nevada City", "state": "CA", "lat": "39.2607", "lng": "-121.0231"}, {"name": "Weedpatch", "state": "CA", "lat": "35.2369", "lng": "-118.9123"}, {"name": "Marin City", "state": "CA", "lat": "37.8711", "lng": "-122.5137"}, {"name": "Ione", "state": "CA", "lat": "38.3613", "lng": "-120.9422"}, {"name": "Mountain Gate", "state": "CA", "lat": "40.7184", "lng": "-122.3262"}, {"name": "Mount Hermon", "state": "CA", "lat": "37.0511", "lng": "-122.0533"}, {"name": "Grayson", "state": "CA", "lat": "37.5650", "lng": "-121.1794"}, {"name": "Del Rey Oaks", "state": "CA", "lat": "36.5929", "lng": "-121.8381"}, {"name": "Casmalia", "state": "CA", "lat": "34.8376", "lng": "-120.5311"}, {"name": "Ridgecrest", "state": "CA", "lat": "35.6308", "lng": "-117.6621"}, {"name": "Vine Hill", "state": "CA", "lat": "38.0071", "lng": "-122.0873"}, {"name": "Raisin City", "state": "CA", "lat": "36.6033", "lng": "-119.9092"}, {"name": "Green Valley", "state": "CA", "lat": "38.2606", "lng": "-122.1621"}, {"name": "Sutter", "state": "CA", "lat": "39.1557", "lng": "-121.7492"}, {"name": "Perris", "state": "CA", "lat": "33.7899", "lng": "-117.2233"}, {"name": "Avalon", "state": "CA", "lat": "33.3342", "lng": "-118.3315"}, {"name": "Kettleman City", "state": "CA", "lat": "36.0089", "lng": "-119.9628"}, {"name": "Ceres", "state": "CA", "lat": "37.5953", "lng": "-120.9625"}, {"name": "Shandon", "state": "CA", "lat": "35.6536", "lng": "-120.3832"}, {"name": "Sierraville", "state": "CA", "lat": "39.5750", "lng": "-120.3637"}, {"name": "Desert Hot Springs", "state": "CA", "lat": "33.9551", "lng": "-116.5430"}, {"name": "West Whittier-Los Nietos", "state": "CA", "lat": "33.9759", "lng": "-118.0689"}, {"name": "Auburn", "state": "CA", "lat": "38.8950", "lng": "-121.0777"}, {"name": "Weaverville", "state": "CA", "lat": "40.7488", "lng": "-122.9274"}, {"name": "Desert Shores", "state": "CA", "lat": "33.4041", "lng": "-116.0394"}, {"name": "Calpella", "state": "CA", "lat": "39.2322", "lng": "-123.1970"}, {"name": "Lookout", "state": "CA", "lat": "41.2100", "lng": "-121.1545"}, {"name": "Twentynine Palms", "state": "CA", "lat": "34.1478", "lng": "-116.0659"}, {"name": "Watsonville", "state": "CA", "lat": "36.9206", "lng": "-121.7706"}, {"name": "Kentfield", "state": "CA", "lat": "37.9481", "lng": "-122.5498"}, {"name": "Colma", "state": "CA", "lat": "37.6767", "lng": "-122.4526"}, {"name": "Edna", "state": "CA", "lat": "35.2108", "lng": "-120.6060"}, {"name": "Idlewild", "state": "CA", "lat": "35.8096", "lng": "-118.6704"}, {"name": "Lake Don Pedro", "state": "CA", "lat": "37.6461", "lng": "-120.3368"}, {"name": "South Pasadena", "state": "CA", "lat": "34.1103", "lng": "-118.1573"}, {"name": "Poplar-Cotton Center", "state": "CA", "lat": "36.0564", "lng": "-119.1493"}, {"name": "Wrightwood", "state": "CA", "lat": "34.3495", "lng": "-117.6299"}, {"name": "San Gabriel", "state": "CA", "lat": "34.0948", "lng": "-118.0990"}, {"name": "Woodbridge", "state": "CA", "lat": "38.1692", "lng": "-121.3113"}, {"name": "Soledad", "state": "CA", "lat": "36.4434", "lng": "-121.3431"}, {"name": "Old Station", "state": "CA", "lat": "40.6722", "lng": "-121.4228"}, {"name": "Three Rocks", "state": "CA", "lat": "36.5051", "lng": "-120.3936"}, {"name": "El Portal", "state": "CA", "lat": "37.6736", "lng": "-119.7990"}, {"name": "West Point", "state": "CA", "lat": "38.4043", "lng": "-120.5374"}, {"name": "Camanche North Shore", "state": "CA", "lat": "38.2442", "lng": "-120.9538"}, {"name": "Glendora", "state": "CA", "lat": "34.1449", "lng": "-117.8467"}, {"name": "Terminous", "state": "CA", "lat": "38.1154", "lng": "-121.4896"}, {"name": "Hood", "state": "CA", "lat": "38.3693", "lng": "-121.5155"}, {"name": "Atwater", "state": "CA", "lat": "37.3543", "lng": "-120.5981"}, {"name": "Sierra Madre", "state": "CA", "lat": "34.1687", "lng": "-118.0504"}, {"name": "Crescent Mills", "state": "CA", "lat": "40.1008", "lng": "-120.9217"}, {"name": "Antioch", "state": "CA", "lat": "37.9789", "lng": "-121.7957"}, {"name": "Warner Valley", "state": "CA", "lat": "40.3955", "lng": "-121.3174"}, {"name": "Minkler", "state": "CA", "lat": "36.7277", "lng": "-119.4587"}, {"name": "Fiddletown", "state": "CA", "lat": "38.5091", "lng": "-120.7605"}, {"name": "Bell Gardens", "state": "CA", "lat": "33.9663", "lng": "-118.1550"}, {"name": "Pine Grove", "state": "CA", "lat": "38.4074", "lng": "-120.6606"}, {"name": "Windsor", "state": "CA", "lat": "38.5418", "lng": "-122.8086"}, {"name": "West Puente Valley", "state": "CA", "lat": "34.0512", "lng": "-117.9681"}, {"name": "Santa Monica", "state": "CA", "lat": "34.0232", "lng": "-118.4813"}, {"name": "Lone Pine", "state": "CA", "lat": "36.5774", "lng": "-118.0777"}, {"name": "Tuttletown", "state": "CA", "lat": "38.0003", "lng": "-120.4503"}, {"name": "Coarsegold", "state": "CA", "lat": "37.2526", "lng": "-119.7000"}, {"name": "Parkwood", "state": "CA", "lat": "36.9293", "lng": "-120.0482"}, {"name": "Lucerne", "state": "CA", "lat": "39.0697", "lng": "-122.7760"}, {"name": "Kingvale", "state": "CA", "lat": "39.3204", "lng": "-120.4386"}, {"name": "Sultana", "state": "CA", "lat": "36.5464", "lng": "-119.3360"}, {"name": "Lawndale", "state": "CA", "lat": "33.8884", "lng": "-118.3531"}, {"name": "French Valley", "state": "CA", "lat": "33.5998", "lng": "-117.1069"}, {"name": "Piedmont", "state": "CA", "lat": "37.8226", "lng": "-122.2301"}, {"name": "La Ca\u00c3\u00b1ada Flintridge", "state": "CA", "lat": "34.2097", "lng": "-118.2002"}, {"name": "Elk Creek", "state": "CA", "lat": "39.6002", "lng": "-122.5376"}, {"name": "Las Lomas", "state": "CA", "lat": "36.8689", "lng": "-121.7317"}, {"name": "Goodyears Bar", "state": "CA", "lat": "39.5458", "lng": "-120.8881"}, {"name": "Murphys", "state": "CA", "lat": "38.1447", "lng": "-120.4348"}, {"name": "South Lake Tahoe", "state": "CA", "lat": "38.9393", "lng": "-119.9828"}, {"name": "Leggett", "state": "CA", "lat": "39.8634", "lng": "-123.7253"}, {"name": "El Rancho", "state": "CA", "lat": "36.2207", "lng": "-119.0690"}, {"name": "Arcata", "state": "CA", "lat": "40.8615", "lng": "-124.0757"}, {"name": "Laytonville", "state": "CA", "lat": "39.6715", "lng": "-123.4945"}, {"name": "Crowley Lake", "state": "CA", "lat": "37.5692", "lng": "-118.7465"}, {"name": "Silver Lakes", "state": "CA", "lat": "34.7519", "lng": "-117.3431"}, {"name": "North Tustin", "state": "CA", "lat": "33.7644", "lng": "-117.7945"}, {"name": "Galt", "state": "CA", "lat": "38.2693", "lng": "-121.3000"}, {"name": "Stevinson", "state": "CA", "lat": "37.3247", "lng": "-120.8497"}, {"name": "Fort Washington", "state": "CA", "lat": "36.8793", "lng": "-119.7613"}, {"name": "East Hemet", "state": "CA", "lat": "33.7301", "lng": "-116.9410"}, {"name": "Cherokee", "state": "CA", "lat": "39.6514", "lng": "-121.5345"}, {"name": "Placentia", "state": "CA", "lat": "33.8807", "lng": "-117.8553"}, {"name": "Santa Maria", "state": "CA", "lat": "34.9333", "lng": "-120.4432"}, {"name": "Clovis", "state": "CA", "lat": "36.8277", "lng": "-119.6838"}, {"name": "Seeley", "state": "CA", "lat": "32.7899", "lng": "-115.6842"}, {"name": "Patterson", "state": "CA", "lat": "37.4738", "lng": "-121.1438"}, {"name": "Bay Point", "state": "CA", "lat": "38.0328", "lng": "-121.9616"}, {"name": "Cold Springs", "state": "CA", "lat": "38.7468", "lng": "-120.8761"}, {"name": "Littlerock", "state": "CA", "lat": "34.5232", "lng": "-117.9808"}, {"name": "Beale AFB", "state": "CA", "lat": "39.1095", "lng": "-121.3542"}, {"name": "San Bruno", "state": "CA", "lat": "37.6254", "lng": "-122.4313"}, {"name": "Portola", "state": "CA", "lat": "39.8242", "lng": "-120.4732"}, {"name": "Friant", "state": "CA", "lat": "36.9848", "lng": "-119.7130"}, {"name": "South San Gabriel", "state": "CA", "lat": "34.0489", "lng": "-118.0962"}, {"name": "Pierpoint", "state": "CA", "lat": "36.1405", "lng": "-118.6296"}, {"name": "Eagleville", "state": "CA", "lat": "41.3191", "lng": "-120.1147"}, {"name": "Olancha", "state": "CA", "lat": "36.2704", "lng": "-118.0015"}, {"name": "Wildomar", "state": "CA", "lat": "33.6173", "lng": "-117.2583"}, {"name": "Larkspur", "state": "CA", "lat": "37.9394", "lng": "-122.5313"}, {"name": "Laguna Niguel", "state": "CA", "lat": "33.5275", "lng": "-117.7050"}, {"name": "San Ramon", "state": "CA", "lat": "37.7625", "lng": "-121.9365"}, {"name": "Cowan", "state": "CA", "lat": "37.5601", "lng": "-120.9888"}, {"name": "Bend", "state": "CA", "lat": "40.2561", "lng": "-122.2095"}, {"name": "Sequoia Crest", "state": "CA", "lat": "36.1858", "lng": "-118.6256"}, {"name": "Lemoore", "state": "CA", "lat": "36.2960", "lng": "-119.7983"}, {"name": "Lake California", "state": "CA", "lat": "40.3608", "lng": "-122.2102"}, {"name": "Grand Terrace", "state": "CA", "lat": "34.0312", "lng": "-117.3132"}, {"name": "Cohasset", "state": "CA", "lat": "39.9027", "lng": "-121.7448"}, {"name": "West Athens", "state": "CA", "lat": "33.9235", "lng": "-118.3033"}, {"name": "Hamilton City", "state": "CA", "lat": "39.7422", "lng": "-122.0125"}, {"name": "Diamond Springs", "state": "CA", "lat": "38.6920", "lng": "-120.8391"}, {"name": "Mokelumne Hill", "state": "CA", "lat": "38.3057", "lng": "-120.7061"}, {"name": "Mira Monte", "state": "CA", "lat": "34.4284", "lng": "-119.2853"}, {"name": "Isla Vista", "state": "CA", "lat": "34.4144", "lng": "-119.8581"}, {"name": "Del Monte Forest", "state": "CA", "lat": "36.5857", "lng": "-121.9439"}, {"name": "Vina", "state": "CA", "lat": "39.9343", "lng": "-122.0518"}, {"name": "Harbison Canyon", "state": "CA", "lat": "32.8273", "lng": "-116.8381"}, {"name": "Byron", "state": "CA", "lat": "37.8756", "lng": "-121.6421"}, {"name": "Graniteville", "state": "CA", "lat": "39.4443", "lng": "-120.7360"}, {"name": "Aptos", "state": "CA", "lat": "36.9912", "lng": "-121.8934"}, {"name": "East Pasadena", "state": "CA", "lat": "34.1377", "lng": "-118.0775"}, {"name": "Proberta", "state": "CA", "lat": "40.0762", "lng": "-122.1776"}, {"name": "Fetters Hot Springs-Agua Caliente", "state": "CA", "lat": "38.3274", "lng": "-122.4871"}, {"name": "Palo Verde", "state": "CA", "lat": "33.4279", "lng": "-114.7273"}, {"name": "Orosi", "state": "CA", "lat": "36.5434", "lng": "-119.2903"}, {"name": "Irwindale", "state": "CA", "lat": "34.1121", "lng": "-117.9636"}, {"name": "Burney", "state": "CA", "lat": "40.8846", "lng": "-121.6691"}, {"name": "Fontana", "state": "CA", "lat": "34.0968", "lng": "-117.4599"}, {"name": "Bethel Island", "state": "CA", "lat": "38.0288", "lng": "-121.6404"}, {"name": "California Pines", "state": "CA", "lat": "41.4117", "lng": "-120.6605"}, {"name": "Clio", "state": "CA", "lat": "39.7487", "lng": "-120.5725"}, {"name": "Cotati", "state": "CA", "lat": "38.3279", "lng": "-122.7092"}, {"name": "West Hollywood", "state": "CA", "lat": "34.0883", "lng": "-118.3719"}, {"name": "Loleta", "state": "CA", "lat": "40.6408", "lng": "-124.2225"}, {"name": "Etna", "state": "CA", "lat": "41.4582", "lng": "-122.8946"}, {"name": "San Bernardino", "state": "CA", "lat": "34.1417", "lng": "-117.2945"}, {"name": "Jurupa Valley", "state": "CA", "lat": "34.0010", "lng": "-117.4706"}, {"name": "Castle Hill", "state": "CA", "lat": "37.8730", "lng": "-122.0574"}, {"name": "Parklawn", "state": "CA", "lat": "37.6069", "lng": "-120.9793"}, {"name": "Valley Wells", "state": "CA", "lat": "35.8761", "lng": "-117.3366"}, {"name": "Colton", "state": "CA", "lat": "34.0538", "lng": "-117.3254"}, {"name": "Santa Venetia", "state": "CA", "lat": "38.0055", "lng": "-122.5033"}, {"name": "Loyalton", "state": "CA", "lat": "39.6768", "lng": "-120.2448"}, {"name": "Camp Pendleton North", "state": "CA", "lat": "33.3148", "lng": "-117.3162"}, {"name": "Red Bluff", "state": "CA", "lat": "40.1735", "lng": "-122.2413"}, {"name": "Sattley", "state": "CA", "lat": "39.6265", "lng": "-120.4357"}, {"name": "Bell", "state": "CA", "lat": "33.9801", "lng": "-118.1798"}, {"name": "Rough and Ready", "state": "CA", "lat": "39.2341", "lng": "-121.1381"}, {"name": "Tehama", "state": "CA", "lat": "40.0218", "lng": "-122.1269"}, {"name": "Clarksburg", "state": "CA", "lat": "38.4193", "lng": "-121.5415"}, {"name": "Caspar", "state": "CA", "lat": "39.3631", "lng": "-123.8044"}, {"name": "Carnelian Bay", "state": "CA", "lat": "39.2348", "lng": "-120.0766"}, {"name": "La Mirada", "state": "CA", "lat": "33.9025", "lng": "-118.0093"}, {"name": "San Antonio Heights", "state": "CA", "lat": "34.1571", "lng": "-117.6592"}, {"name": "Arcadia", "state": "CA", "lat": "34.1342", "lng": "-118.0373"}, {"name": "Lake Hughes", "state": "CA", "lat": "34.6833", "lng": "-118.4588"}, {"name": "Frazier Park", "state": "CA", "lat": "34.8122", "lng": "-118.9542"}, {"name": "San Joaquin", "state": "CA", "lat": "36.6057", "lng": "-120.1897"}, {"name": "Rancho Calaveras", "state": "CA", "lat": "38.1248", "lng": "-120.8570"}, {"name": "Ben Lomond", "state": "CA", "lat": "37.0782", "lng": "-122.0882"}, {"name": "Litchfield", "state": "CA", "lat": "40.3876", "lng": "-120.3809"}, {"name": "Porterville", "state": "CA", "lat": "36.0644", "lng": "-119.0338"}, {"name": "Templeton", "state": "CA", "lat": "35.5560", "lng": "-120.7182"}, {"name": "Earlimart", "state": "CA", "lat": "35.8824", "lng": "-119.2715"}, {"name": "Salmon Creek", "state": "CA", "lat": "38.3463", "lng": "-123.0595"}, {"name": "Vista Santa Rosa", "state": "CA", "lat": "33.6227", "lng": "-116.2126"}, {"name": "Bluewater", "state": "CA", "lat": "34.1760", "lng": "-114.2640"}, {"name": "Loomis", "state": "CA", "lat": "38.8093", "lng": "-121.1955"}, {"name": "Oak Glen", "state": "CA", "lat": "34.0448", "lng": "-116.9497"}, {"name": "Lemon Grove", "state": "CA", "lat": "32.7331", "lng": "-117.0344"}, {"name": "Challenge-Brownsville", "state": "CA", "lat": "39.4646", "lng": "-121.2632"}, {"name": "Stevenson Ranch", "state": "CA", "lat": "34.3894", "lng": "-118.5885"}, {"name": "Coffee Creek", "state": "CA", "lat": "41.0802", "lng": "-122.7136"}, {"name": "Ruth", "state": "CA", "lat": "40.2943", "lng": "-123.3483"}, {"name": "Summerland", "state": "CA", "lat": "34.4255", "lng": "-119.5893"}, {"name": "Franklin", "state": "CA", "lat": "37.3277", "lng": "-120.5321"}, {"name": "Orangevale", "state": "CA", "lat": "38.6880", "lng": "-121.2208"}, {"name": "Big Pine", "state": "CA", "lat": "37.1655", "lng": "-118.2951"}, {"name": "Matheny", "state": "CA", "lat": "36.1707", "lng": "-119.3516"}, {"name": "Ukiah", "state": "CA", "lat": "39.1463", "lng": "-123.2105"}, {"name": "Olivehurst", "state": "CA", "lat": "39.0817", "lng": "-121.5549"}, {"name": "Redlands", "state": "CA", "lat": "34.0511", "lng": "-117.1712"}, {"name": "Laguna Hills", "state": "CA", "lat": "33.5920", "lng": "-117.6992"}, {"name": "Shelter Cove", "state": "CA", "lat": "40.0389", "lng": "-124.0558"}, {"name": "West Menlo Park", "state": "CA", "lat": "37.4338", "lng": "-122.2034"}, {"name": "Martell", "state": "CA", "lat": "38.3623", "lng": "-120.8039"}, {"name": "Rocklin", "state": "CA", "lat": "38.8075", "lng": "-121.2488"}, {"name": "Grangeville", "state": "CA", "lat": "36.3439", "lng": "-119.7074"}, {"name": "South San Francisco", "state": "CA", "lat": "37.6536", "lng": "-122.4197"}, {"name": "Hercules", "state": "CA", "lat": "38.0064", "lng": "-122.2564"}, {"name": "North Auburn", "state": "CA", "lat": "38.9306", "lng": "-121.0821"}, {"name": "Redwood City", "state": "CA", "lat": "37.5026", "lng": "-122.2252"}, {"name": "Sutter Creek", "state": "CA", "lat": "38.3827", "lng": "-120.8107"}, {"name": "Dos Palos Y", "state": "CA", "lat": "37.0468", "lng": "-120.6395"}, {"name": "Dixon", "state": "CA", "lat": "38.4467", "lng": "-121.8250"}, {"name": "Homeland", "state": "CA", "lat": "33.7459", "lng": "-117.1132"}, {"name": "Lee Vining", "state": "CA", "lat": "37.9547", "lng": "-119.1221"}, {"name": "Catheys Valley", "state": "CA", "lat": "37.4371", "lng": "-120.0936"}, {"name": "Dutch Flat", "state": "CA", "lat": "39.2080", "lng": "-120.8345"}, {"name": "Cabazon", "state": "CA", "lat": "33.9127", "lng": "-116.7828"}, {"name": "Tennant", "state": "CA", "lat": "41.5818", "lng": "-121.9148"}, {"name": "Linnell Camp", "state": "CA", "lat": "36.3089", "lng": "-119.2225"}, {"name": "Vallecito", "state": "CA", "lat": "38.0740", "lng": "-120.4563"}, {"name": "Garden Grove", "state": "CA", "lat": "33.7787", "lng": "-117.9601"}, {"name": "Fremont", "state": "CA", "lat": "37.5265", "lng": "-121.9852"}, {"name": "Fruitdale", "state": "CA", "lat": "37.3117", "lng": "-121.9357"}, {"name": "Lathrop", "state": "CA", "lat": "37.8090", "lng": "-121.3130"}, {"name": "Blairsden", "state": "CA", "lat": "39.7752", "lng": "-120.6109"}, {"name": "Coalinga", "state": "CA", "lat": "36.1432", "lng": "-120.3266"}, {"name": "Garden Acres", "state": "CA", "lat": "37.9637", "lng": "-121.2296"}, {"name": "Coulterville", "state": "CA", "lat": "37.7106", "lng": "-120.1991"}, {"name": "Moreno Valley", "state": "CA", "lat": "33.9244", "lng": "-117.2045"}, {"name": "East Nicolaus", "state": "CA", "lat": "38.9100", "lng": "-121.5443"}, {"name": "Lakeland Village", "state": "CA", "lat": "33.6480", "lng": "-117.3706"}, {"name": "West Rancho Dominguez", "state": "CA", "lat": "33.9057", "lng": "-118.2682"}, {"name": "Pala", "state": "CA", "lat": "33.3617", "lng": "-117.0696"}, {"name": "Plumas Lake", "state": "CA", "lat": "38.9924", "lng": "-121.5580"}, {"name": "Atascadero", "state": "CA", "lat": "35.4827", "lng": "-120.6858"}, {"name": "California City", "state": "CA", "lat": "35.1578", "lng": "-117.8720"}, {"name": "Trinidad", "state": "CA", "lat": "41.0589", "lng": "-124.1434"}, {"name": "Benicia", "state": "CA", "lat": "38.0704", "lng": "-122.1541"}, {"name": "Knights Landing", "state": "CA", "lat": "38.7979", "lng": "-121.7176"}, {"name": "French Gulch", "state": "CA", "lat": "40.7166", "lng": "-122.6311"}, {"name": "Mount Laguna", "state": "CA", "lat": "32.8711", "lng": "-116.4247"}, {"name": "Paradise Park", "state": "CA", "lat": "37.0063", "lng": "-122.0425"}, {"name": "Nuevo", "state": "CA", "lat": "33.8011", "lng": "-117.1415"}, {"name": "Solana Beach", "state": "CA", "lat": "32.9942", "lng": "-117.2575"}, {"name": "Oak Shores", "state": "CA", "lat": "35.7624", "lng": "-120.9817"}, {"name": "Ladera", "state": "CA", "lat": "37.3996", "lng": "-122.1991"}, {"name": "Millbrae", "state": "CA", "lat": "37.5994", "lng": "-122.4024"}, {"name": "Culver City", "state": "CA", "lat": "34.0058", "lng": "-118.3968"}, {"name": "Castroville", "state": "CA", "lat": "36.7650", "lng": "-121.7535"}, {"name": "Delft Colony", "state": "CA", "lat": "36.5120", "lng": "-119.4465"}, {"name": "Chico", "state": "CA", "lat": "39.7575", "lng": "-121.8152"}, {"name": "El Cajon", "state": "CA", "lat": "32.8017", "lng": "-116.9604"}, {"name": "Rio Oso", "state": "CA", "lat": "38.9518", "lng": "-121.5310"}, {"name": "Crescent City", "state": "CA", "lat": "41.7727", "lng": "-124.1902"}, {"name": "Truckee", "state": "CA", "lat": "39.3454", "lng": "-120.1848"}, {"name": "Greenfield", "state": "CA", "lat": "36.3232", "lng": "-121.2451"}, {"name": "Martinez", "state": "CA", "lat": "37.9985", "lng": "-122.1160"}, {"name": "South Monrovia Island", "state": "CA", "lat": "34.1234", "lng": "-117.9958"}, {"name": "Port Hueneme", "state": "CA", "lat": "34.1617", "lng": "-119.2036"}, {"name": "Fieldbrook", "state": "CA", "lat": "40.9723", "lng": "-124.0250"}, {"name": "Ontario", "state": "CA", "lat": "34.0393", "lng": "-117.6064"}, {"name": "McClenney Tract", "state": "CA", "lat": "35.8220", "lng": "-118.6478"}, {"name": "Castro Valley", "state": "CA", "lat": "37.7092", "lng": "-122.0632"}, {"name": "Murrieta", "state": "CA", "lat": "33.5720", "lng": "-117.1909"}, {"name": "Gasquet", "state": "CA", "lat": "41.8429", "lng": "-123.9733"}, {"name": "Pittsburg", "state": "CA", "lat": "38.0185", "lng": "-121.8970"}, {"name": "Hopland", "state": "CA", "lat": "38.9691", "lng": "-123.1173"}, {"name": "La Puente", "state": "CA", "lat": "34.0323", "lng": "-117.9533"}, {"name": "Hacienda Heights", "state": "CA", "lat": "33.9970", "lng": "-117.9728"}, {"name": "Montalvin Manor", "state": "CA", "lat": "37.9977", "lng": "-122.3300"}, {"name": "Taylorsville", "state": "CA", "lat": "40.0587", "lng": "-120.8386"}, {"name": "Bradbury", "state": "CA", "lat": "34.1536", "lng": "-117.9684"}, {"name": "Cudahy", "state": "CA", "lat": "33.9631", "lng": "-118.1830"}, {"name": "Grass Valley", "state": "CA", "lat": "39.2237", "lng": "-121.0521"}, {"name": "Big River", "state": "CA", "lat": "34.1393", "lng": "-114.3604"}, {"name": "Myrtletown", "state": "CA", "lat": "40.7888", "lng": "-124.1286"}, {"name": "Markleeville", "state": "CA", "lat": "38.6840", "lng": "-119.8226"}, {"name": "South Oroville", "state": "CA", "lat": "39.4767", "lng": "-121.5439"}, {"name": "Palos Verdes Estates", "state": "CA", "lat": "33.7871", "lng": "-118.3976"}, {"name": "Monterey Park Tract", "state": "CA", "lat": "37.5268", "lng": "-121.0115"}, {"name": "Janesville", "state": "CA", "lat": "40.2809", "lng": "-120.5335"}, {"name": "Denair", "state": "CA", "lat": "37.5262", "lng": "-120.7994"}, {"name": "Orinda", "state": "CA", "lat": "37.8808", "lng": "-122.1790"}, {"name": "Huron", "state": "CA", "lat": "36.2040", "lng": "-120.0961"}, {"name": "Rainbow", "state": "CA", "lat": "33.4098", "lng": "-117.1394"}, {"name": "Ridgemark", "state": "CA", "lat": "36.8083", "lng": "-121.3623"}, {"name": "Citrus Heights", "state": "CA", "lat": "38.6948", "lng": "-121.2880"}, {"name": "Lake of the Woods", "state": "CA", "lat": "34.8226", "lng": "-119.0027"}, {"name": "Oak View", "state": "CA", "lat": "34.3990", "lng": "-119.2976"}, {"name": "South Dos Palos", "state": "CA", "lat": "36.9707", "lng": "-120.6467"}, {"name": "Anchor Bay", "state": "CA", "lat": "38.8126", "lng": "-123.5704"}, {"name": "Boonville", "state": "CA", "lat": "39.0115", "lng": "-123.3740"}, {"name": "La Verne", "state": "CA", "lat": "34.1208", "lng": "-117.7702"}, {"name": "Albion", "state": "CA", "lat": "39.2256", "lng": "-123.7564"}, {"name": "Oildale", "state": "CA", "lat": "35.4249", "lng": "-119.0279"}, {"name": "Westmont", "state": "CA", "lat": "33.9417", "lng": "-118.3018"}, {"name": "La Selva Beach", "state": "CA", "lat": "36.9276", "lng": "-121.8445"}, {"name": "Collierville", "state": "CA", "lat": "38.2141", "lng": "-121.2675"}, {"name": "Lafayette", "state": "CA", "lat": "37.8919", "lng": "-122.1189"}, {"name": "Walker", "state": "CA", "lat": "38.5341", "lng": "-119.4582"}, {"name": "Caribou", "state": "CA", "lat": "40.0761", "lng": "-121.1616"}, {"name": "Monterey", "state": "CA", "lat": "36.5922", "lng": "-121.8807"}, {"name": "East Los Angeles", "state": "CA", "lat": "34.0326", "lng": "-118.1691"}, {"name": "Sonoma", "state": "CA", "lat": "38.2902", "lng": "-122.4598"}, {"name": "Groveland", "state": "CA", "lat": "37.8325", "lng": "-120.2394"}, {"name": "Merced", "state": "CA", "lat": "37.3057", "lng": "-120.4779"}, {"name": "Aspen Springs", "state": "CA", "lat": "37.5500", "lng": "-118.7087"}, {"name": "San Simeon", "state": "CA", "lat": "35.6182", "lng": "-121.1375"}, {"name": "Le Grand", "state": "CA", "lat": "37.2288", "lng": "-120.2540"}, {"name": "Westwood", "state": "CA", "lat": "40.3049", "lng": "-121.0044"}, {"name": "Soda Springs", "state": "CA", "lat": "39.3248", "lng": "-120.3785"}, {"name": "Carmel-by-the-Sea", "state": "CA", "lat": "36.5528", "lng": "-121.9222"}, {"name": "Del Mar", "state": "CA", "lat": "32.9633", "lng": "-117.2627"}, {"name": "Desert View Highlands", "state": "CA", "lat": "34.5902", "lng": "-118.1536"}, {"name": "Mountain Ranch", "state": "CA", "lat": "38.2509", "lng": "-120.5119"}, {"name": "Blue Lake", "state": "CA", "lat": "40.8813", "lng": "-123.9931"}, {"name": "Waterford", "state": "CA", "lat": "37.6429", "lng": "-120.7553"}, {"name": "Alum Rock", "state": "CA", "lat": "37.3694", "lng": "-121.8241"}, {"name": "North Lakeport", "state": "CA", "lat": "39.0883", "lng": "-122.9054"}, {"name": "Menifee", "state": "CA", "lat": "33.6909", "lng": "-117.1849"}, {"name": "Bowles", "state": "CA", "lat": "36.6089", "lng": "-119.7526"}, {"name": "Boronda", "state": "CA", "lat": "36.6947", "lng": "-121.6745"}, {"name": "Charter Oak", "state": "CA", "lat": "34.1025", "lng": "-117.8564"}, {"name": "Big Creek", "state": "CA", "lat": "37.2035", "lng": "-119.2487"}, {"name": "Monument Hills", "state": "CA", "lat": "38.6641", "lng": "-121.8756"}, {"name": "Avila Beach", "state": "CA", "lat": "35.1971", "lng": "-120.7192"}, {"name": "California Hot Springs", "state": "CA", "lat": "35.8863", "lng": "-118.6561"}, {"name": "Keene", "state": "CA", "lat": "35.2330", "lng": "-118.6103"}, {"name": "Sand City", "state": "CA", "lat": "36.6189", "lng": "-121.8478"}, {"name": "Rutherford", "state": "CA", "lat": "38.4568", "lng": "-122.4231"}, {"name": "Canyondam", "state": "CA", "lat": "40.1699", "lng": "-121.0769"}, {"name": "Tustin", "state": "CA", "lat": "33.7309", "lng": "-117.8106"}, {"name": "Victor", "state": "CA", "lat": "38.1385", "lng": "-121.1987"}, {"name": "Kelly Ridge", "state": "CA", "lat": "39.5289", "lng": "-121.4662"}, {"name": "Val Verde", "state": "CA", "lat": "34.4504", "lng": "-118.6717"}, {"name": "Farmersville", "state": "CA", "lat": "36.3054", "lng": "-119.2081"}, {"name": "Saranap", "state": "CA", "lat": "37.8878", "lng": "-122.0761"}, {"name": "Richmond", "state": "CA", "lat": "37.9477", "lng": "-122.3390"}, {"name": "Santa Cruz", "state": "CA", "lat": "36.9789", "lng": "-122.0346"}, {"name": "Happy Camp", "state": "CA", "lat": "41.8103", "lng": "-123.3892"}, {"name": "Hornbrook", "state": "CA", "lat": "41.9079", "lng": "-122.5596"}, {"name": "Corralitos", "state": "CA", "lat": "36.9941", "lng": "-121.7892"}, {"name": "Wilkerson", "state": "CA", "lat": "37.2794", "lng": "-118.3877"}, {"name": "Midpines", "state": "CA", "lat": "37.5531", "lng": "-119.9485"}, {"name": "Twin Lakes", "state": "CA", "lat": "36.9646", "lng": "-121.9896"}, {"name": "Alhambra", "state": "CA", "lat": "34.0840", "lng": "-118.1355"}, {"name": "Suisun City", "state": "CA", "lat": "38.2471", "lng": "-122.0086"}, {"name": "Tooleville", "state": "CA", "lat": "36.2878", "lng": "-119.1154"}, {"name": "Parkway", "state": "CA", "lat": "38.4993", "lng": "-121.4520"}, {"name": "Calwa", "state": "CA", "lat": "36.7136", "lng": "-119.7609"}, {"name": "Bakersfield", "state": "CA", "lat": "35.3530", "lng": "-119.0359"}, {"name": "Phillipsville", "state": "CA", "lat": "40.2117", "lng": "-123.7844"}, {"name": "Lemoore Station", "state": "CA", "lat": "36.2633", "lng": "-119.9049"}, {"name": "Lake Los Angeles", "state": "CA", "lat": "34.6097", "lng": "-117.8339"}, {"name": "Aromas", "state": "CA", "lat": "36.8771", "lng": "-121.6404"}, {"name": "Edwards AFB", "state": "CA", "lat": "34.9045", "lng": "-117.9294"}, {"name": "Winter Gardens", "state": "CA", "lat": "32.8376", "lng": "-116.9268"}, {"name": "Mammoth Lakes", "state": "CA", "lat": "37.6273", "lng": "-118.9900"}, {"name": "Fullerton", "state": "CA", "lat": "33.8841", "lng": "-117.9279"}, {"name": "Gustine", "state": "CA", "lat": "37.2545", "lng": "-120.9949"}, {"name": "Delano", "state": "CA", "lat": "35.7670", "lng": "-119.2637"}, {"name": "San Francisco", "state": "CA", "lat": "37.7562", "lng": "-122.4430"}, {"name": "East Sonora", "state": "CA", "lat": "37.9777", "lng": "-120.3410"}, {"name": "Foothill Farms", "state": "CA", "lat": "38.6867", "lng": "-121.3475"}, {"name": "Lake City", "state": "CA", "lat": "41.6460", "lng": "-120.2255"}, {"name": "Terra Bella", "state": "CA", "lat": "35.9567", "lng": "-119.0328"}, {"name": "Phoenix Lake", "state": "CA", "lat": "38.0074", "lng": "-120.3090"}, {"name": "Edgewood", "state": "CA", "lat": "41.4621", "lng": "-122.4259"}, {"name": "Pike", "state": "CA", "lat": "39.4278", "lng": "-120.9996"}, {"name": "Muir Beach", "state": "CA", "lat": "37.8654", "lng": "-122.5858"}, {"name": "Woodlake", "state": "CA", "lat": "36.4124", "lng": "-119.0999"}, {"name": "Dana Point", "state": "CA", "lat": "33.4733", "lng": "-117.6969"}, {"name": "Lockwood", "state": "CA", "lat": "35.9412", "lng": "-121.0802"}, {"name": "Mount Shasta", "state": "CA", "lat": "41.3206", "lng": "-122.3150"}, {"name": "Woodcrest", "state": "CA", "lat": "33.8789", "lng": "-117.3686"}, {"name": "Woodside", "state": "CA", "lat": "37.4221", "lng": "-122.2591"}, {"name": "El Verano", "state": "CA", "lat": "38.2975", "lng": "-122.4915"}, {"name": "Squirrel Mountain Valley", "state": "CA", "lat": "35.6175", "lng": "-118.4047"}, {"name": "Woodlands", "state": "CA", "lat": "35.0289", "lng": "-120.5524"}, {"name": "Tuolumne City", "state": "CA", "lat": "37.9615", "lng": "-120.2428"}, {"name": "Seville", "state": "CA", "lat": "36.4856", "lng": "-119.2247"}, {"name": "Shasta", "state": "CA", "lat": "40.5911", "lng": "-122.4797"}, {"name": "San Fernando", "state": "CA", "lat": "34.2886", "lng": "-118.4363"}, {"name": "Lompoc", "state": "CA", "lat": "34.6618", "lng": "-120.4714"}, {"name": "South Gate", "state": "CA", "lat": "33.9448", "lng": "-118.1926"}, {"name": "Bolinas", "state": "CA", "lat": "37.9177", "lng": "-122.7095"}, {"name": "Norris Canyon", "state": "CA", "lat": "37.7454", "lng": "-121.9878"}, {"name": "Hemet", "state": "CA", "lat": "33.7341", "lng": "-116.9969"}, {"name": "Chalfant", "state": "CA", "lat": "37.5105", "lng": "-118.3750"}, {"name": "Spaulding", "state": "CA", "lat": "40.6556", "lng": "-120.7863"}, {"name": "Hamilton Branch", "state": "CA", "lat": "40.2772", "lng": "-121.0961"}, {"name": "Arbuckle", "state": "CA", "lat": "39.0141", "lng": "-122.0610"}, {"name": "Philo", "state": "CA", "lat": "39.0657", "lng": "-123.4452"}, {"name": "Lexington Hills", "state": "CA", "lat": "37.1616", "lng": "-121.9879"}, {"name": "Gazelle", "state": "CA", "lat": "41.5137", "lng": "-122.5215"}, {"name": "Forbestown", "state": "CA", "lat": "39.5300", "lng": "-121.2689"}, {"name": "Loma Mar", "state": "CA", "lat": "37.2658", "lng": "-122.3007"}, {"name": "Little Grass Valley", "state": "CA", "lat": "39.7252", "lng": "-120.9591"}, {"name": "Goshen", "state": "CA", "lat": "36.3518", "lng": "-119.4210"}, {"name": "Antelope", "state": "CA", "lat": "38.7153", "lng": "-121.3610"}, {"name": "Humboldt Hill", "state": "CA", "lat": "40.7219", "lng": "-124.1987"}, {"name": "Guerneville", "state": "CA", "lat": "38.5137", "lng": "-122.9894"}, {"name": "Fresno", "state": "CA", "lat": "36.7831", "lng": "-119.7941"}, {"name": "East Foothills", "state": "CA", "lat": "37.3827", "lng": "-121.8138"}, {"name": "North El Monte", "state": "CA", "lat": "34.1029", "lng": "-118.0239"}, {"name": "Union City", "state": "CA", "lat": "37.6030", "lng": "-122.0187"}, {"name": "Walnut", "state": "CA", "lat": "34.0334", "lng": "-117.8593"}, {"name": "El Granada", "state": "CA", "lat": "37.5134", "lng": "-122.4660"}, {"name": "Orange", "state": "CA", "lat": "33.8038", "lng": "-117.8218"}, {"name": "Deer Park", "state": "CA", "lat": "38.5361", "lng": "-122.4679"}, {"name": "Bradley", "state": "CA", "lat": "35.8628", "lng": "-120.8042"}, {"name": "Buena Park", "state": "CA", "lat": "33.8572", "lng": "-118.0046"}, {"name": "Fort Bidwell", "state": "CA", "lat": "41.8629", "lng": "-120.1589"}, {"name": "Citrus", "state": "CA", "lat": "34.1161", "lng": "-117.8890"}, {"name": "Camino", "state": "CA", "lat": "38.7412", "lng": "-120.6814"}, {"name": "Newman", "state": "CA", "lat": "37.3157", "lng": "-121.0211"}, {"name": "Loma Linda", "state": "CA", "lat": "34.0451", "lng": "-117.2498"}, {"name": "River Pines", "state": "CA", "lat": "38.5454", "lng": "-120.7475"}, {"name": "Garden Farms", "state": "CA", "lat": "35.4158", "lng": "-120.6140"}, {"name": "Moskowite Corner", "state": "CA", "lat": "38.4464", "lng": "-122.1945"}, {"name": "Pomona", "state": "CA", "lat": "34.0585", "lng": "-117.7626"}, {"name": "Stratford", "state": "CA", "lat": "36.1884", "lng": "-119.8224"}, {"name": "Lake Elsinore", "state": "CA", "lat": "33.6846", "lng": "-117.3344"}, {"name": "Covina", "state": "CA", "lat": "34.0903", "lng": "-117.8817"}, {"name": "Larkfield-Wikiup", "state": "CA", "lat": "38.5130", "lng": "-122.7536"}, {"name": "Cayucos", "state": "CA", "lat": "35.4375", "lng": "-120.8847"}, {"name": "Albany", "state": "CA", "lat": "37.8898", "lng": "-122.3018"}, {"name": "Fallbrook", "state": "CA", "lat": "33.3693", "lng": "-117.2258"}, {"name": "Borrego Springs", "state": "CA", "lat": "33.2410", "lng": "-116.3572"}, {"name": "Paramount", "state": "CA", "lat": "33.8977", "lng": "-118.1652"}, {"name": "Winterhaven", "state": "CA", "lat": "32.7372", "lng": "-114.6378"}, {"name": "Dos Palos", "state": "CA", "lat": "36.9854", "lng": "-120.6337"}, {"name": "Lake San Marcos", "state": "CA", "lat": "33.1197", "lng": "-117.2089"}, {"name": "Manteca", "state": "CA", "lat": "37.7934", "lng": "-121.2266"}, {"name": "Kerman", "state": "CA", "lat": "36.7249", "lng": "-120.0625"}, {"name": "Nipomo", "state": "CA", "lat": "35.0323", "lng": "-120.4990"}, {"name": "San Dimas", "state": "CA", "lat": "34.1082", "lng": "-117.8090"}, {"name": "Loyola", "state": "CA", "lat": "37.3502", "lng": "-122.0980"}, {"name": "Buttonwillow", "state": "CA", "lat": "35.4092", "lng": "-119.4406"}, {"name": "Keswick", "state": "CA", "lat": "40.6135", "lng": "-122.4606"}, {"name": "Marina del Rey", "state": "CA", "lat": "33.9765", "lng": "-118.4486"}, {"name": "Vincent", "state": "CA", "lat": "34.0982", "lng": "-117.9238"}, {"name": "Greenhorn", "state": "CA", "lat": "39.9030", "lng": "-120.7590"}, {"name": "Santa Rosa Valley", "state": "CA", "lat": "34.2453", "lng": "-118.9023"}, {"name": "Westhaven-Moonstone", "state": "CA", "lat": "41.0447", "lng": "-124.1023"}, {"name": "Creston", "state": "CA", "lat": "35.5173", "lng": "-120.5210"}, {"name": "French Camp", "state": "CA", "lat": "37.8802", "lng": "-121.2803"}, {"name": "Forest Meadows", "state": "CA", "lat": "38.1664", "lng": "-120.4052"}, {"name": "Davis", "state": "CA", "lat": "38.5552", "lng": "-121.7365"}, {"name": "Hollister", "state": "CA", "lat": "36.8563", "lng": "-121.3981"}, {"name": "El Rio", "state": "CA", "lat": "34.2453", "lng": "-119.1568"}, {"name": "Morro Bay", "state": "CA", "lat": "35.3681", "lng": "-120.8482"}, {"name": "Monte Rio", "state": "CA", "lat": "38.4683", "lng": "-123.0147"}, {"name": "Cameron Park", "state": "CA", "lat": "38.6737", "lng": "-120.9872"}, {"name": "Lakeport", "state": "CA", "lat": "39.0392", "lng": "-122.9218"}, {"name": "Upper Lake", "state": "CA", "lat": "39.1653", "lng": "-122.9052"}, {"name": "Georgetown", "state": "CA", "lat": "38.9111", "lng": "-120.8356"}, {"name": "Malibu", "state": "CA", "lat": "34.0368", "lng": "-118.7845"}, {"name": "Hartland", "state": "CA", "lat": "36.6518", "lng": "-118.9553"}, {"name": "Redondo Beach", "state": "CA", "lat": "33.8574", "lng": "-118.3766"}, {"name": "Lake Almanor West", "state": "CA", "lat": "40.2335", "lng": "-121.2020"}, {"name": "Lamont", "state": "CA", "lat": "35.2651", "lng": "-118.9159"}, {"name": "Bieber", "state": "CA", "lat": "41.1251", "lng": "-121.1336"}, {"name": "Moss Landing", "state": "CA", "lat": "36.8019", "lng": "-121.7872"}, {"name": "Anaheim", "state": "CA", "lat": "33.8390", "lng": "-117.8573"}, {"name": "Mojave", "state": "CA", "lat": "35.0139", "lng": "-118.1895"}, {"name": "Camanche Village", "state": "CA", "lat": "38.2662", "lng": "-120.9866"}, {"name": "Julian", "state": "CA", "lat": "33.0735", "lng": "-116.5889"}, {"name": "Bell Canyon", "state": "CA", "lat": "34.2081", "lng": "-118.6876"}, {"name": "Biggs", "state": "CA", "lat": "39.4132", "lng": "-121.7100"}, {"name": "Florin", "state": "CA", "lat": "38.4832", "lng": "-121.4042"}, {"name": "Talmage", "state": "CA", "lat": "39.1314", "lng": "-123.1648"}, {"name": "Linda", "state": "CA", "lat": "39.1242", "lng": "-121.5421"}, {"name": "Butte Valley", "state": "CA", "lat": "39.6571", "lng": "-121.6363"}, {"name": "West Carson", "state": "CA", "lat": "33.8229", "lng": "-118.2931"}, {"name": "Fall River Mills", "state": "CA", "lat": "41.0069", "lng": "-121.4401"}, {"name": "Claremont", "state": "CA", "lat": "34.1259", "lng": "-117.7153"}, {"name": "Pleasant Hill", "state": "CA", "lat": "37.9540", "lng": "-122.0759"}, {"name": "Santa Ynez", "state": "CA", "lat": "34.6151", "lng": "-120.0944"}, {"name": "Santa Clarita", "state": "CA", "lat": "34.4155", "lng": "-118.4992"}, {"name": "Derby Acres", "state": "CA", "lat": "35.2440", "lng": "-119.6039"}, {"name": "Hanford", "state": "CA", "lat": "36.3264", "lng": "-119.6544"}, {"name": "Clearlake", "state": "CA", "lat": "38.9590", "lng": "-122.6331"}, {"name": "Morada", "state": "CA", "lat": "38.0386", "lng": "-121.2456"}, {"name": "Brea", "state": "CA", "lat": "33.9254", "lng": "-117.8654"}, {"name": "Lake Arrowhead", "state": "CA", "lat": "34.2531", "lng": "-117.1945"}, {"name": "Drytown", "state": "CA", "lat": "38.4382", "lng": "-120.8565"}, {"name": "Los Angeles", "state": "CA", "lat": "34.1139", "lng": "-118.4068"}, {"name": "Smartsville", "state": "CA", "lat": "39.2053", "lng": "-121.2928"}, {"name": "Calipatria", "state": "CA", "lat": "33.1493", "lng": "-115.5056"}, {"name": "Esparto", "state": "CA", "lat": "38.6934", "lng": "-122.0241"}, {"name": "Manchester", "state": "CA", "lat": "38.9743", "lng": "-123.6910"}, {"name": "Monmouth", "state": "CA", "lat": "36.5656", "lng": "-119.7405"}, {"name": "Rio Dell", "state": "CA", "lat": "40.5024", "lng": "-124.1105"}, {"name": "Princeton", "state": "CA", "lat": "39.4029", "lng": "-122.0212"}, {"name": "Mountain View Acres", "state": "CA", "lat": "34.4976", "lng": "-117.3472"}, {"name": "Lake of the Pines", "state": "CA", "lat": "39.0378", "lng": "-121.0642"}, {"name": "Yolo", "state": "CA", "lat": "38.7405", "lng": "-121.8093"}, {"name": "Penn Valley", "state": "CA", "lat": "39.1954", "lng": "-121.1942"}, {"name": "McKittrick", "state": "CA", "lat": "35.2981", "lng": "-119.6249"}, {"name": "Soulsbyville", "state": "CA", "lat": "37.9917", "lng": "-120.2617"}, {"name": "Thousand Oaks", "state": "CA", "lat": "34.1914", "lng": "-118.8755"}, {"name": "Fairmead", "state": "CA", "lat": "37.0775", "lng": "-120.1937"}, {"name": "Grover Beach", "state": "CA", "lat": "35.1204", "lng": "-120.6199"}, {"name": "Westmorland", "state": "CA", "lat": "33.0389", "lng": "-115.6223"}, {"name": "West Bishop", "state": "CA", "lat": "37.3571", "lng": "-118.4542"}, {"name": "Lebec", "state": "CA", "lat": "34.8450", "lng": "-118.8992"}, {"name": "Crows Landing", "state": "CA", "lat": "37.3947", "lng": "-121.0843"}, {"name": "Hardwick", "state": "CA", "lat": "36.4026", "lng": "-119.7207"}, {"name": "Pine Hills", "state": "CA", "lat": "40.7313", "lng": "-124.1551"}, {"name": "Gold River", "state": "CA", "lat": "38.6268", "lng": "-121.2487"}, {"name": "Mill Valley", "state": "CA", "lat": "37.9085", "lng": "-122.5420"}, {"name": "Topaz", "state": "CA", "lat": "38.6587", "lng": "-119.5274"}, {"name": "Glendale", "state": "CA", "lat": "34.1818", "lng": "-118.2468"}, {"name": "Pixley", "state": "CA", "lat": "35.9769", "lng": "-119.2889"}, {"name": "Santa Rosa", "state": "CA", "lat": "38.4458", "lng": "-122.7067"}, {"name": "Whitley Gardens", "state": "CA", "lat": "35.6571", "lng": "-120.5068"}, {"name": "Richgrove", "state": "CA", "lat": "35.7966", "lng": "-119.1069"}, {"name": "Los Banos", "state": "CA", "lat": "37.0631", "lng": "-120.8405"}, {"name": "Volta", "state": "CA", "lat": "37.0875", "lng": "-120.9235"}, {"name": "Fillmore", "state": "CA", "lat": "34.3990", "lng": "-118.9181"}, {"name": "Bret Harte", "state": "CA", "lat": "37.6021", "lng": "-121.0045"}, {"name": "Brentwood", "state": "CA", "lat": "37.9356", "lng": "-121.7190"}, {"name": "Shasta Lake", "state": "CA", "lat": "40.6790", "lng": "-122.3775"}, {"name": "Cutten", "state": "CA", "lat": "40.7657", "lng": "-124.1446"}, {"name": "Mead Valley", "state": "CA", "lat": "33.8333", "lng": "-117.2852"}, {"name": "Nicolaus", "state": "CA", "lat": "38.8981", "lng": "-121.5729"}, {"name": "Fort Irwin", "state": "CA", "lat": "35.2476", "lng": "-116.6834"}, {"name": "Mariposa", "state": "CA", "lat": "37.4873", "lng": "-119.9683"}, {"name": "Wallace", "state": "CA", "lat": "38.1978", "lng": "-120.9586"}, {"name": "Acampo", "state": "CA", "lat": "38.1735", "lng": "-121.2798"}, {"name": "Mentone", "state": "CA", "lat": "34.0609", "lng": "-117.1109"}, {"name": "Waukena", "state": "CA", "lat": "36.1361", "lng": "-119.5109"}, {"name": "Desert Center", "state": "CA", "lat": "33.7378", "lng": "-115.3666"}, {"name": "Port Costa", "state": "CA", "lat": "38.0446", "lng": "-122.1850"}, {"name": "Cromberg", "state": "CA", "lat": "39.8684", "lng": "-120.6905"}, {"name": "Highland", "state": "CA", "lat": "34.1113", "lng": "-117.1654"}, {"name": "Hidden Hills", "state": "CA", "lat": "34.1637", "lng": "-118.6612"}, {"name": "Los Osos", "state": "CA", "lat": "35.3068", "lng": "-120.8249"}, {"name": "Encinitas", "state": "CA", "lat": "33.0490", "lng": "-117.2613"}, {"name": "Los Olivos", "state": "CA", "lat": "34.6647", "lng": "-120.1180"}, {"name": "Johnsville", "state": "CA", "lat": "39.7663", "lng": "-120.7130"}, {"name": "Pi\u00c3\u00b1on Hills", "state": "CA", "lat": "34.4438", "lng": "-117.6214"}, {"name": "Sanger", "state": "CA", "lat": "36.6992", "lng": "-119.5576"}, {"name": "Oakland", "state": "CA", "lat": "37.7903", "lng": "-122.2165"}, {"name": "Shell Ridge", "state": "CA", "lat": "37.9060", "lng": "-122.0344"}, {"name": "Greenacres", "state": "CA", "lat": "35.3831", "lng": "-119.1184"}, {"name": "Lockeford", "state": "CA", "lat": "38.1508", "lng": "-121.1554"}, {"name": "La Porte", "state": "CA", "lat": "39.6725", "lng": "-120.9852"}, {"name": "View Park-Windsor Hills", "state": "CA", "lat": "33.9955", "lng": "-118.3484"}, {"name": "Indian Falls", "state": "CA", "lat": "40.0587", "lng": "-120.9803"}, {"name": "Tara Hills", "state": "CA", "lat": "37.9939", "lng": "-122.3188"}, {"name": "East San Gabriel", "state": "CA", "lat": "34.1198", "lng": "-118.0807"}, {"name": "Richfield", "state": "CA", "lat": "39.9738", "lng": "-122.1733"}, {"name": "Sea Ranch", "state": "CA", "lat": "38.7166", "lng": "-123.4528"}, {"name": "Lake Sherwood", "state": "CA", "lat": "34.1339", "lng": "-118.8804"}, {"name": "Cypress", "state": "CA", "lat": "33.8171", "lng": "-118.0386"}, {"name": "Belvedere", "state": "CA", "lat": "37.8735", "lng": "-122.4662"}, {"name": "Comptche", "state": "CA", "lat": "39.2651", "lng": "-123.5897"}, {"name": "Granite Bay", "state": "CA", "lat": "38.7601", "lng": "-121.1714"}, {"name": "Forest Ranch", "state": "CA", "lat": "39.8952", "lng": "-121.6705"}, {"name": "Poway", "state": "CA", "lat": "32.9872", "lng": "-117.0201"}, {"name": "Ballico", "state": "CA", "lat": "37.4519", "lng": "-120.7037"}, {"name": "Monrovia", "state": "CA", "lat": "34.1650", "lng": "-117.9921"}, {"name": "Orick", "state": "CA", "lat": "41.2909", "lng": "-124.0692"}, {"name": "Lake Isabella", "state": "CA", "lat": "35.6378", "lng": "-118.4819"}, {"name": "Bayview", "state": "CA", "lat": "40.7653", "lng": "-124.1786"}, {"name": "Nubieber", "state": "CA", "lat": "41.0966", "lng": "-121.1816"}, {"name": "Lakeside", "state": "CA", "lat": "32.8560", "lng": "-116.9040"}, {"name": "Diamond Bar", "state": "CA", "lat": "33.9991", "lng": "-117.8161"}, {"name": "Visalia", "state": "CA", "lat": "36.3276", "lng": "-119.3269"}, {"name": "Lindcove", "state": "CA", "lat": "36.3595", "lng": "-119.0721"}, {"name": "La Riviera", "state": "CA", "lat": "38.5683", "lng": "-121.3544"}, {"name": "Jenner", "state": "CA", "lat": "38.4511", "lng": "-123.1204"}, {"name": "Home Gardens", "state": "CA", "lat": "33.8784", "lng": "-117.5116"}, {"name": "Moraga", "state": "CA", "lat": "37.8438", "lng": "-122.1225"}, {"name": "Kelseyville", "state": "CA", "lat": "38.9704", "lng": "-122.8327"}, {"name": "Berry Creek", "state": "CA", "lat": "39.6314", "lng": "-121.4052"}, {"name": "Hawaiian Gardens", "state": "CA", "lat": "33.8303", "lng": "-118.0728"}, {"name": "Meadow Valley", "state": "CA", "lat": "39.9323", "lng": "-121.0832"}, {"name": "Yettem", "state": "CA", "lat": "36.4866", "lng": "-119.2551"}, {"name": "Columbia", "state": "CA", "lat": "38.0333", "lng": "-120.4097"}, {"name": "Lytle Creek", "state": "CA", "lat": "34.2499", "lng": "-117.5044"}, {"name": "Yosemite Valley", "state": "CA", "lat": "37.7407", "lng": "-119.5779"}, {"name": "Oak Park", "state": "CA", "lat": "34.1849", "lng": "-118.7669"}, {"name": "East Palo Alto", "state": "CA", "lat": "37.4671", "lng": "-122.1352"}, {"name": "Quincy", "state": "CA", "lat": "39.9310", "lng": "-120.9548"}, {"name": "Squaw Valley", "state": "CA", "lat": "36.6944", "lng": "-119.2000"}, {"name": "Timber Cove", "state": "CA", "lat": "38.5410", "lng": "-123.2590"}, {"name": "Crockett", "state": "CA", "lat": "38.0519", "lng": "-122.2201"}, {"name": "Cupertino", "state": "CA", "lat": "37.3168", "lng": "-122.0465"}, {"name": "Bloomfield", "state": "CA", "lat": "38.3183", "lng": "-122.8502"}, {"name": "Seal Beach", "state": "CA", "lat": "33.7542", "lng": "-118.0714"}, {"name": "Winchester", "state": "CA", "lat": "33.7146", "lng": "-117.0775"}, {"name": "Camino Tassajara", "state": "CA", "lat": "37.7909", "lng": "-121.8850"}, {"name": "Oakhurst", "state": "CA", "lat": "37.3342", "lng": "-119.6483"}, {"name": "Gridley", "state": "CA", "lat": "39.3622", "lng": "-121.6971"}, {"name": "McCloud", "state": "CA", "lat": "41.2541", "lng": "-122.1360"}, {"name": "Clyde", "state": "CA", "lat": "38.0252", "lng": "-122.0278"}, {"name": "East Tulare Villa", "state": "CA", "lat": "36.2035", "lng": "-119.2821"}, {"name": "Armona", "state": "CA", "lat": "36.3179", "lng": "-119.7054"}, {"name": "Glen Ellen", "state": "CA", "lat": "38.3564", "lng": "-122.5412"}, {"name": "Riverside", "state": "CA", "lat": "33.9381", "lng": "-117.3948"}, {"name": "Iron Horse", "state": "CA", "lat": "39.7805", "lng": "-120.4823"}, {"name": "Alondra Park", "state": "CA", "lat": "33.8885", "lng": "-118.3350"}, {"name": "Lake Wildwood", "state": "CA", "lat": "39.2350", "lng": "-121.2003"}, {"name": "Doyle", "state": "CA", "lat": "40.0275", "lng": "-120.1172"}, {"name": "East Porterville", "state": "CA", "lat": "36.0573", "lng": "-118.9713"}, {"name": "Montgomery Creek", "state": "CA", "lat": "40.8414", "lng": "-121.9215"}, {"name": "Lincoln", "state": "CA", "lat": "38.8759", "lng": "-121.2916"}, {"name": "Pacheco", "state": "CA", "lat": "37.9878", "lng": "-122.0700"}, {"name": "Joshua Tree", "state": "CA", "lat": "34.1236", "lng": "-116.3128"}, {"name": "Emeryville", "state": "CA", "lat": "37.8382", "lng": "-122.2932"}, {"name": "Redwood Valley", "state": "CA", "lat": "39.2690", "lng": "-123.2023"}, {"name": "El Nido", "state": "CA", "lat": "37.1324", "lng": "-120.4985"}, {"name": "Mohawk Vista", "state": "CA", "lat": "39.8048", "lng": "-120.5883"}, {"name": "Johannesburg", "state": "CA", "lat": "35.3718", "lng": "-117.6420"}, {"name": "C-Road", "state": "CA", "lat": "39.7628", "lng": "-120.5770"}, {"name": "Camptonville", "state": "CA", "lat": "39.4521", "lng": "-121.0488"}, {"name": "Yorba Linda", "state": "CA", "lat": "33.8890", "lng": "-117.7713"}, {"name": "Woodville", "state": "CA", "lat": "36.0898", "lng": "-119.2050"}, {"name": "San Buenaventura", "state": "CA", "lat": "34.2741", "lng": "-119.2314"}, {"name": "Midway City", "state": "CA", "lat": "33.7451", "lng": "-117.9849"}, {"name": "Oroville", "state": "CA", "lat": "39.4999", "lng": "-121.5634"}, {"name": "Empire", "state": "CA", "lat": "37.6432", "lng": "-120.9045"}, {"name": "Carlsbad", "state": "CA", "lat": "33.1247", "lng": "-117.2837"}, {"name": "Aguanga", "state": "CA", "lat": "33.4522", "lng": "-116.8555"}, {"name": "Cutler", "state": "CA", "lat": "36.5263", "lng": "-119.2883"}, {"name": "Cambrian Park", "state": "CA", "lat": "37.2563", "lng": "-121.9288"}, {"name": "San Lucas", "state": "CA", "lat": "36.1283", "lng": "-121.0218"}, {"name": "Whitehawk", "state": "CA", "lat": "39.7206", "lng": "-120.5536"}, {"name": "Snelling", "state": "CA", "lat": "37.5216", "lng": "-120.4385"}, {"name": "Bear Valley", "state": "CA", "lat": "37.5671", "lng": "-120.1230"}, {"name": "Ahwahnee", "state": "CA", "lat": "37.3652", "lng": "-119.7194"}, {"name": "Temple City", "state": "CA", "lat": "34.1022", "lng": "-118.0579"}, {"name": "Willow Creek", "state": "CA", "lat": "40.9385", "lng": "-123.6412"}, {"name": "Artois", "state": "CA", "lat": "39.6332", "lng": "-122.1898"}, {"name": "Blythe", "state": "CA", "lat": "33.6219", "lng": "-114.6195"}, {"name": "Coloma", "state": "CA", "lat": "38.8026", "lng": "-120.8946"}, {"name": "Freedom", "state": "CA", "lat": "36.9402", "lng": "-121.7954"}, {"name": "Maywood", "state": "CA", "lat": "33.9885", "lng": "-118.1877"}, {"name": "Green Acres", "state": "CA", "lat": "33.7350", "lng": "-117.0783"}, {"name": "Fairbanks Ranch", "state": "CA", "lat": "32.9919", "lng": "-117.1859"}, {"name": "Rodeo", "state": "CA", "lat": "38.0368", "lng": "-122.2526"}, {"name": "Avenal", "state": "CA", "lat": "36.0312", "lng": "-120.1160"}, {"name": "Pine Mountain Lake", "state": "CA", "lat": "37.8599", "lng": "-120.1843"}, {"name": "Alderpoint", "state": "CA", "lat": "40.1614", "lng": "-123.6157"}, {"name": "Lincoln Village", "state": "CA", "lat": "38.0054", "lng": "-121.3339"}, {"name": "Elverta", "state": "CA", "lat": "38.7185", "lng": "-121.4455"}, {"name": "San Jose", "state": "CA", "lat": "37.3021", "lng": "-121.8489"}, {"name": "South Taft", "state": "CA", "lat": "35.1293", "lng": "-119.4575"}, {"name": "Arden-Arcade", "state": "CA", "lat": "38.6034", "lng": "-121.3810"}, {"name": "Cartago", "state": "CA", "lat": "36.3123", "lng": "-118.0261"}, {"name": "Monte Sereno", "state": "CA", "lat": "37.2404", "lng": "-121.9881"}, {"name": "Lost Hills", "state": "CA", "lat": "35.6254", "lng": "-119.6789"}, {"name": "Imperial", "state": "CA", "lat": "32.8388", "lng": "-115.5723"}, {"name": "Adelanto", "state": "CA", "lat": "34.5815", "lng": "-117.4397"}, {"name": "Mount Hebron", "state": "CA", "lat": "41.7855", "lng": "-122.0083"}, {"name": "McSwain", "state": "CA", "lat": "37.3146", "lng": "-120.5867"}, {"name": "La Habra", "state": "CA", "lat": "33.9278", "lng": "-117.9513"}, {"name": "Shingle Springs", "state": "CA", "lat": "38.6665", "lng": "-120.9370"}, {"name": "Brawley", "state": "CA", "lat": "32.9783", "lng": "-115.5288"}, {"name": "Smith Corner", "state": "CA", "lat": "35.4788", "lng": "-119.2771"}, {"name": "Napa", "state": "CA", "lat": "38.2976", "lng": "-122.3011"}, {"name": "Springville", "state": "CA", "lat": "36.1168", "lng": "-118.8345"}, {"name": "Apple Valley", "state": "CA", "lat": "34.5328", "lng": "-117.2104"}, {"name": "Round Valley", "state": "CA", "lat": "37.4067", "lng": "-118.5819"}, {"name": "Trinity Village", "state": "CA", "lat": "40.8789", "lng": "-123.5132"}, {"name": "Rio Linda", "state": "CA", "lat": "38.6876", "lng": "-121.4418"}, {"name": "Tahoe Vista", "state": "CA", "lat": "39.2483", "lng": "-120.0535"}, {"name": "Bear Valley Springs", "state": "CA", "lat": "35.1775", "lng": "-118.6460"}, {"name": "Ducor", "state": "CA", "lat": "35.8943", "lng": "-119.0456"}, {"name": "Soquel", "state": "CA", "lat": "36.9978", "lng": "-121.9482"}, {"name": "Palm Desert", "state": "CA", "lat": "33.7378", "lng": "-116.3695"}, {"name": "Spring Garden", "state": "CA", "lat": "39.9012", "lng": "-120.7936"}, {"name": "Red Corral", "state": "CA", "lat": "38.4116", "lng": "-120.6056"}, {"name": "Clearlake Oaks", "state": "CA", "lat": "39.0218", "lng": "-122.6593"}, {"name": "Twain Harte", "state": "CA", "lat": "38.0384", "lng": "-120.2340"}, {"name": "San Leandro", "state": "CA", "lat": "37.7071", "lng": "-122.1601"}, {"name": "Manton", "state": "CA", "lat": "40.4202", "lng": "-121.8540"}, {"name": "Swall Meadows", "state": "CA", "lat": "37.5060", "lng": "-118.6426"}, {"name": "Butte Meadows", "state": "CA", "lat": "40.0871", "lng": "-121.5370"}, {"name": "North Fair Oaks", "state": "CA", "lat": "37.4754", "lng": "-122.2035"}, {"name": "Cedar Ridge", "state": "CA", "lat": "38.0661", "lng": "-120.2737"}, {"name": "Aptos Hills-Larkin Valley", "state": "CA", "lat": "36.9606", "lng": "-121.8341"}, {"name": "Rancho Palos Verdes", "state": "CA", "lat": "33.7554", "lng": "-118.3637"}, {"name": "Westminster", "state": "CA", "lat": "33.7523", "lng": "-117.9938"}, {"name": "Dogtown", "state": "CA", "lat": "38.2096", "lng": "-121.1551"}, {"name": "Pacifica", "state": "CA", "lat": "37.6112", "lng": "-122.4781"}, {"name": "Buellton", "state": "CA", "lat": "34.6152", "lng": "-120.1943"}, {"name": "New Pine Creek", "state": "CA", "lat": "41.9872", "lng": "-120.3009"}, {"name": "Canyon Lake", "state": "CA", "lat": "33.6884", "lng": "-117.2621"}, {"name": "Corcoran", "state": "CA", "lat": "36.0847", "lng": "-119.5612"}, {"name": "Kirkwood", "state": "CA", "lat": "38.6930", "lng": "-120.0640"}, {"name": "Cressey", "state": "CA", "lat": "37.4210", "lng": "-120.6556"}, {"name": "Fields Landing", "state": "CA", "lat": "40.7249", "lng": "-124.2176"}, {"name": "Ashland", "state": "CA", "lat": "37.6942", "lng": "-122.1159"}, {"name": "Baker", "state": "CA", "lat": "35.2769", "lng": "-116.0718"}, {"name": "Gardena", "state": "CA", "lat": "33.8944", "lng": "-118.3073"}, {"name": "Foster City", "state": "CA", "lat": "37.5553", "lng": "-122.2659"}, {"name": "Gonzales", "state": "CA", "lat": "36.5060", "lng": "-121.4430"}, {"name": "Pescadero", "state": "CA", "lat": "37.2507", "lng": "-122.3725"}]