[{"name": "Sanford", "state": "CO", "lat": "37.2574", "lng": "-105.9007"}, {"name": "Aurora", "state": "CO", "lat": "39.7084", "lng": "-104.7274"}, {"name": "Avondale", "state": "CO", "lat": "38.2351", "lng": "-104.3434"}, {"name": "Alpine", "state": "CO", "lat": "37.6877", "lng": "-106.5860"}, {"name": "Pitkin", "state": "CO", "lat": "38.6086", "lng": "-106.5164"}, {"name": "Smeltertown", "state": "CO", "lat": "38.5524", "lng": "-106.0085"}, {"name": "Bethune", "state": "CO", "lat": "39.3038", "lng": "-102.4234"}, {"name": "Golden", "state": "CO", "lat": "39.7406", "lng": "-105.2118"}, {"name": "Divide", "state": "CO", "lat": "38.9450", "lng": "-105.1619"}, {"name": "City of Creede", "state": "CO", "lat": "37.8488", "lng": "-106.9252"}, {"name": "Amherst", "state": "CO", "lat": "40.6831", "lng": "-102.1725"}, {"name": "Ward", "state": "CO", "lat": "40.0726", "lng": "-105.5136"}, {"name": "Norwood", "state": "CO", "lat": "38.1286", "lng": "-108.2918"}, {"name": "Grover", "state": "CO", "lat": "40.8691", "lng": "-104.2259"}, {"name": "La Junta Gardens", "state": "CO", "lat": "38.0014", "lng": "-103.5549"}, {"name": "Bennett", "state": "CO", "lat": "39.7366", "lng": "-104.4286"}, {"name": "Sugarloaf", "state": "CO", "lat": "40.0189", "lng": "-105.4078"}, {"name": "Walsh", "state": "CO", "lat": "37.3861", "lng": "-102.2801"}, {"name": "Elbert", "state": "CO", "lat": "39.2189", "lng": "-104.5403"}, {"name": "Louisville", "state": "CO", "lat": "39.9709", "lng": "-105.1441"}, {"name": "Elizabeth", "state": "CO", "lat": "39.3600", "lng": "-104.6072"}, {"name": "Valmont", "state": "CO", "lat": "40.0341", "lng": "-105.2058"}, {"name": "Hasty", "state": "CO", "lat": "38.1063", "lng": "-102.9560"}, {"name": "Holyoke", "state": "CO", "lat": "40.5826", "lng": "-102.2985"}, {"name": "Denver", "state": "CO", "lat": "39.7621", "lng": "-104.8759"}, {"name": "St. Ann Highlands", "state": "CO", "lat": "39.9873", "lng": "-105.4557"}, {"name": "Gleneagle", "state": "CO", "lat": "39.0453", "lng": "-104.8288"}, {"name": "Columbine", "state": "CO", "lat": "39.5879", "lng": "-105.0694"}, {"name": "Mead", "state": "CO", "lat": "40.2321", "lng": "-104.9928"}, {"name": "Keenesburg", "state": "CO", "lat": "40.1111", "lng": "-104.5041"}, {"name": "Cathedral", "state": "CO", "lat": "38.0836", "lng": "-107.0306"}, {"name": "Columbine Valley", "state": "CO", "lat": "39.5993", "lng": "-105.0350"}, {"name": "Oak Creek", "state": "CO", "lat": "40.2738", "lng": "-106.9574"}, {"name": "Ordway", "state": "CO", "lat": "38.2209", "lng": "-103.7567"}, {"name": "Segundo", "state": "CO", "lat": "37.1225", "lng": "-104.7396"}, {"name": "Grand Junction", "state": "CO", "lat": "39.0877", "lng": "-108.5673"}, {"name": "Thornton", "state": "CO", "lat": "39.9205", "lng": "-104.9443"}, {"name": "Brandon", "state": "CO", "lat": "38.4464", "lng": "-102.4412"}, {"name": "Coal Creek", "state": "CO", "lat": "38.3620", "lng": "-105.1417"}, {"name": "El Moro", "state": "CO", "lat": "37.2349", "lng": "-104.4492"}, {"name": "Crested Butte", "state": "CO", "lat": "38.8676", "lng": "-106.9772"}, {"name": "Commerce City", "state": "CO", "lat": "39.8643", "lng": "-104.8433"}, {"name": "La Junta", "state": "CO", "lat": "37.9796", "lng": "-103.5473"}, {"name": "Guffey", "state": "CO", "lat": "38.7591", "lng": "-105.5024"}, {"name": "Lewis", "state": "CO", "lat": "37.5017", "lng": "-108.6600"}, {"name": "Fleming", "state": "CO", "lat": "40.6818", "lng": "-102.8395"}, {"name": "Rico", "state": "CO", "lat": "37.6892", "lng": "-108.0318"}, {"name": "Idalia", "state": "CO", "lat": "39.7029", "lng": "-102.2938"}, {"name": "Kremmling", "state": "CO", "lat": "40.0565", "lng": "-106.3782"}, {"name": "Montezuma", "state": "CO", "lat": "39.5817", "lng": "-105.8681"}, {"name": "Towner", "state": "CO", "lat": "38.4705", "lng": "-102.0804"}, {"name": "Leyner", "state": "CO", "lat": "40.0511", "lng": "-105.1073"}, {"name": "Green Mountain Falls", "state": "CO", "lat": "38.9343", "lng": "-105.0237"}, {"name": "Kersey", "state": "CO", "lat": "40.3895", "lng": "-104.5771"}, {"name": "Red Feather Lakes", "state": "CO", "lat": "40.8071", "lng": "-105.5864"}, {"name": "Stratmoor", "state": "CO", "lat": "38.7731", "lng": "-104.7787"}, {"name": "Stonegate", "state": "CO", "lat": "39.5357", "lng": "-104.8032"}, {"name": "Lamar", "state": "CO", "lat": "38.0740", "lng": "-102.6155"}, {"name": "Saguache", "state": "CO", "lat": "38.0862", "lng": "-106.1407"}, {"name": "Vernon", "state": "CO", "lat": "39.9399", "lng": "-102.3074"}, {"name": "Seven Hills", "state": "CO", "lat": "40.0361", "lng": "-105.3323"}, {"name": "Vail", "state": "CO", "lat": "39.6386", "lng": "-106.3608"}, {"name": "Floyd Hill", "state": "CO", "lat": "39.7241", "lng": "-105.4306"}, {"name": "Crisman", "state": "CO", "lat": "40.0416", "lng": "-105.3674"}, {"name": "Hidden Lake", "state": "CO", "lat": "40.1055", "lng": "-105.4777"}, {"name": "Cokedale", "state": "CO", "lat": "37.1445", "lng": "-104.6217"}, {"name": "Sunshine", "state": "CO", "lat": "40.0636", "lng": "-105.3696"}, {"name": "Sheridan", "state": "CO", "lat": "39.6467", "lng": "-105.0180"}, {"name": "Cherry Creek", "state": "CO", "lat": "39.6094", "lng": "-104.8645"}, {"name": "Maybell", "state": "CO", "lat": "40.5191", "lng": "-108.0889"}, {"name": "Edgewater", "state": "CO", "lat": "39.7507", "lng": "-105.0626"}, {"name": "Air Force Academy", "state": "CO", "lat": "38.9942", "lng": "-104.8639"}, {"name": "Allenspark", "state": "CO", "lat": "40.2099", "lng": "-105.5112"}, {"name": "Kim", "state": "CO", "lat": "37.2471", "lng": "-103.3533"}, {"name": "Campo", "state": "CO", "lat": "37.1046", "lng": "-102.5787"}, {"name": "Stonewall Gap", "state": "CO", "lat": "37.1605", "lng": "-105.0342"}, {"name": "Alamosa East", "state": "CO", "lat": "37.4767", "lng": "-105.8396"}, {"name": "Roxborough Park", "state": "CO", "lat": "39.4492", "lng": "-105.0746"}, {"name": "Colorado City", "state": "CO", "lat": "37.9365", "lng": "-104.8459"}, {"name": "La Jara", "state": "CO", "lat": "37.2735", "lng": "-105.9597"}, {"name": "Larkspur", "state": "CO", "lat": "39.2318", "lng": "-104.8923"}, {"name": "Woodland Park", "state": "CO", "lat": "38.9987", "lng": "-105.0595"}, {"name": "Snowmass Village", "state": "CO", "lat": "39.2203", "lng": "-106.9393"}, {"name": "Aguilar", "state": "CO", "lat": "37.4036", "lng": "-104.6550"}, {"name": "Wray", "state": "CO", "lat": "40.0799", "lng": "-102.2278"}, {"name": "Todd Creek", "state": "CO", "lat": "39.9795", "lng": "-104.8726"}, {"name": "Ramah", "state": "CO", "lat": "39.1222", "lng": "-104.1673"}, {"name": "Clifton", "state": "CO", "lat": "39.0763", "lng": "-108.4606"}, {"name": "Dotsero", "state": "CO", "lat": "39.6463", "lng": "-107.0540"}, {"name": "Atwood", "state": "CO", "lat": "40.5505", "lng": "-103.2746"}, {"name": "Altona", "state": "CO", "lat": "40.1254", "lng": "-105.2923"}, {"name": "Castle Rock", "state": "CO", "lat": "39.3762", "lng": "-104.8535"}, {"name": "South Fork", "state": "CO", "lat": "37.6693", "lng": "-106.6426"}, {"name": "Towaoc", "state": "CO", "lat": "37.2126", "lng": "-108.7265"}, {"name": "Holly", "state": "CO", "lat": "38.0554", "lng": "-102.1247"}, {"name": "Evergreen", "state": "CO", "lat": "39.6349", "lng": "-105.3356"}, {"name": "Cherry Hills Village", "state": "CO", "lat": "39.6375", "lng": "-104.9481"}, {"name": "Shaw Heights", "state": "CO", "lat": "39.8566", "lng": "-105.0390"}, {"name": "Mountain Village", "state": "CO", "lat": "37.9323", "lng": "-107.8578"}, {"name": "Mountain Meadows", "state": "CO", "lat": "40.0270", "lng": "-105.3832"}, {"name": "Cattle Creek", "state": "CO", "lat": "39.4667", "lng": "-107.2599"}, {"name": "Walsenburg", "state": "CO", "lat": "37.6307", "lng": "-104.7818"}, {"name": "Ouray", "state": "CO", "lat": "38.0276", "lng": "-107.6734"}, {"name": "Burlington", "state": "CO", "lat": "39.3042", "lng": "-102.2714"}, {"name": "Cripple Creek", "state": "CO", "lat": "38.7461", "lng": "-105.1840"}, {"name": "Northglenn", "state": "CO", "lat": "39.9107", "lng": "-104.9783"}, {"name": "Ault", "state": "CO", "lat": "40.5893", "lng": "-104.7392"}, {"name": "Collbran", "state": "CO", "lat": "39.2401", "lng": "-107.9638"}, {"name": "Kit Carson", "state": "CO", "lat": "38.7629", "lng": "-102.7954"}, {"name": "Norrie", "state": "CO", "lat": "39.3280", "lng": "-106.6562"}, {"name": "Sawpit", "state": "CO", "lat": "37.9947", "lng": "-108.0022"}, {"name": "Colorado Springs", "state": "CO", "lat": "38.8674", "lng": "-104.7606"}, {"name": "Olathe", "state": "CO", "lat": "38.6084", "lng": "-107.9827"}, {"name": "Redvale", "state": "CO", "lat": "38.1761", "lng": "-108.4126"}, {"name": "Marble", "state": "CO", "lat": "39.0717", "lng": "-107.1906"}, {"name": "Blue River", "state": "CO", "lat": "39.4357", "lng": "-106.0353"}, {"name": "Milliken", "state": "CO", "lat": "40.3113", "lng": "-104.8562"}, {"name": "Fairmount", "state": "CO", "lat": "39.7931", "lng": "-105.1712"}, {"name": "Holly Hills", "state": "CO", "lat": "39.6679", "lng": "-104.9218"}, {"name": "Trinidad", "state": "CO", "lat": "37.1750", "lng": "-104.4908"}, {"name": "Raymer", "state": "CO", "lat": "40.6077", "lng": "-103.8444"}, {"name": "Johnstown", "state": "CO", "lat": "40.3499", "lng": "-104.9481"}, {"name": "Winter Park", "state": "CO", "lat": "39.8779", "lng": "-105.7827"}, {"name": "North Washington", "state": "CO", "lat": "39.8085", "lng": "-104.9792"}, {"name": "Moffat", "state": "CO", "lat": "38.0020", "lng": "-105.9055"}, {"name": "Palisade", "state": "CO", "lat": "39.1083", "lng": "-108.3573"}, {"name": "Fulford", "state": "CO", "lat": "39.5166", "lng": "-106.6576"}, {"name": "Julesburg", "state": "CO", "lat": "40.9851", "lng": "-102.2626"}, {"name": "Dakota Ridge", "state": "CO", "lat": "39.6194", "lng": "-105.1341"}, {"name": "Springfield", "state": "CO", "lat": "37.4049", "lng": "-102.6189"}, {"name": "Southern Ute", "state": "CO", "lat": "37.0749", "lng": "-107.5933"}, {"name": "Grand View Estates", "state": "CO", "lat": "39.5439", "lng": "-104.8189"}, {"name": "Sugar City", "state": "CO", "lat": "38.2328", "lng": "-103.6634"}, {"name": "Manitou Springs", "state": "CO", "lat": "38.8576", "lng": "-104.9127"}, {"name": "Hugo", "state": "CO", "lat": "39.1361", "lng": "-103.4735"}, {"name": "Downieville-Lawson-Dumont", "state": "CO", "lat": "39.7662", "lng": "-105.6126"}, {"name": "Merino", "state": "CO", "lat": "40.4847", "lng": "-103.3537"}, {"name": "No Name", "state": "CO", "lat": "39.5597", "lng": "-107.2930"}, {"name": "Meridian", "state": "CO", "lat": "39.5390", "lng": "-104.8476"}, {"name": "Aspen Park", "state": "CO", "lat": "39.5423", "lng": "-105.2968"}, {"name": "Akron", "state": "CO", "lat": "40.1644", "lng": "-103.2206"}, {"name": "Mulford", "state": "CO", "lat": "39.4064", "lng": "-107.1660"}, {"name": "Telluride", "state": "CO", "lat": "37.9365", "lng": "-107.8264"}, {"name": "Applewood", "state": "CO", "lat": "39.7524", "lng": "-105.1604"}, {"name": "Valdez", "state": "CO", "lat": "37.1239", "lng": "-104.6794"}, {"name": "Gunnison", "state": "CO", "lat": "38.5455", "lng": "-106.9226"}, {"name": "Eagle", "state": "CO", "lat": "39.6368", "lng": "-106.8123"}, {"name": "Johnson Village", "state": "CO", "lat": "38.8120", "lng": "-106.1071"}, {"name": "Swink", "state": "CO", "lat": "38.0142", "lng": "-103.6282"}, {"name": "Lyons", "state": "CO", "lat": "40.2231", "lng": "-105.2692"}, {"name": "Central City", "state": "CO", "lat": "39.7963", "lng": "-105.5151"}, {"name": "Seibert", "state": "CO", "lat": "39.2980", "lng": "-102.8695"}, {"name": "Hot Sulphur Springs", "state": "CO", "lat": "40.0748", "lng": "-106.1025"}, {"name": "Silverthorne", "state": "CO", "lat": "39.6564", "lng": "-106.0871"}, {"name": "Woody Creek", "state": "CO", "lat": "39.2709", "lng": "-106.8884"}, {"name": "Fruita", "state": "CO", "lat": "39.1540", "lng": "-108.7286"}, {"name": "Saddle Ridge", "state": "CO", "lat": "40.3134", "lng": "-103.8023"}, {"name": "Craig", "state": "CO", "lat": "40.5170", "lng": "-107.5558"}, {"name": "Aspen", "state": "CO", "lat": "39.1948", "lng": "-106.8370"}, {"name": "Ovid", "state": "CO", "lat": "40.9605", "lng": "-102.3884"}, {"name": "Cortez", "state": "CO", "lat": "37.3502", "lng": "-108.5770"}, {"name": "Salida", "state": "CO", "lat": "38.5300", "lng": "-105.9984"}, {"name": "Berthoud", "state": "CO", "lat": "40.3061", "lng": "-105.0404"}, {"name": "Minturn", "state": "CO", "lat": "39.5460", "lng": "-106.3873"}, {"name": "Otis", "state": "CO", "lat": "40.1501", "lng": "-102.9621"}, {"name": "Poncha Springs", "state": "CO", "lat": "38.5131", "lng": "-106.0962"}, {"name": "Blende", "state": "CO", "lat": "38.2469", "lng": "-104.5692"}, {"name": "Hooper", "state": "CO", "lat": "37.7460", "lng": "-105.8777"}, {"name": "La Salle", "state": "CO", "lat": "40.3484", "lng": "-104.7062"}, {"name": "Eldorado Springs", "state": "CO", "lat": "39.9367", "lng": "-105.2625"}, {"name": "Florissant", "state": "CO", "lat": "38.9445", "lng": "-105.2899"}, {"name": "Parshall", "state": "CO", "lat": "40.0555", "lng": "-106.1758"}, {"name": "Firestone", "state": "CO", "lat": "40.1563", "lng": "-104.9495"}, {"name": "Jackson Lake", "state": "CO", "lat": "40.3756", "lng": "-104.0711"}, {"name": "Gold Hill", "state": "CO", "lat": "40.0597", "lng": "-105.4189"}, {"name": "Yuma", "state": "CO", "lat": "40.1239", "lng": "-102.7164"}, {"name": "Del Norte", "state": "CO", "lat": "37.6784", "lng": "-106.3539"}, {"name": "Monte Vista", "state": "CO", "lat": "37.5788", "lng": "-106.1503"}, {"name": "Fairplay", "state": "CO", "lat": "39.2245", "lng": "-105.9959"}, {"name": "Buena Vista", "state": "CO", "lat": "38.8319", "lng": "-106.1389"}, {"name": "Weldona", "state": "CO", "lat": "40.3483", "lng": "-103.9693"}, {"name": "Walden", "state": "CO", "lat": "40.7315", "lng": "-106.2813"}, {"name": "Colona", "state": "CO", "lat": "38.3274", "lng": "-107.7795"}, {"name": "Howard", "state": "CO", "lat": "38.4098", "lng": "-105.8424"}, {"name": "Breckenridge", "state": "CO", "lat": "39.4994", "lng": "-106.0433"}, {"name": "Crawford", "state": "CO", "lat": "38.7053", "lng": "-107.6100"}, {"name": "Nucla", "state": "CO", "lat": "38.2664", "lng": "-108.5488"}, {"name": "Indian Hills", "state": "CO", "lat": "39.6294", "lng": "-105.2509"}, {"name": "Aristocrat Ranchettes", "state": "CO", "lat": "40.1096", "lng": "-104.7549"}, {"name": "Crowley", "state": "CO", "lat": "38.1935", "lng": "-103.8598"}, {"name": "Sterling", "state": "CO", "lat": "40.6207", "lng": "-103.1919"}, {"name": "Comanche Creek", "state": "CO", "lat": "39.6150", "lng": "-104.3268"}, {"name": "Timnath", "state": "CO", "lat": "40.5332", "lng": "-104.9605"}, {"name": "Vineland", "state": "CO", "lat": "38.2447", "lng": "-104.4599"}, {"name": "Wellington", "state": "CO", "lat": "40.7007", "lng": "-105.0057"}, {"name": "Salt Creek", "state": "CO", "lat": "38.2389", "lng": "-104.5881"}, {"name": "Mountain View", "state": "CO", "lat": "39.7748", "lng": "-105.0567"}, {"name": "Sherrelwood", "state": "CO", "lat": "39.8390", "lng": "-105.0014"}, {"name": "Naturita", "state": "CO", "lat": "38.2186", "lng": "-108.5683"}, {"name": "Orchard Mesa", "state": "CO", "lat": "39.0363", "lng": "-108.5172"}, {"name": "Englewood", "state": "CO", "lat": "39.6468", "lng": "-104.9942"}, {"name": "Castle Pines", "state": "CO", "lat": "39.4625", "lng": "-104.8706"}, {"name": "Wiggins", "state": "CO", "lat": "40.2289", "lng": "-104.0720"}, {"name": "Eads", "state": "CO", "lat": "38.4813", "lng": "-102.7798"}, {"name": "Orchard City", "state": "CO", "lat": "38.8140", "lng": "-107.9708"}, {"name": "Ridgway", "state": "CO", "lat": "38.1573", "lng": "-107.7545"}, {"name": "Brighton", "state": "CO", "lat": "39.9716", "lng": "-104.7964"}, {"name": "Aetna Estates", "state": "CO", "lat": "39.7381", "lng": "-104.6732"}, {"name": "Midland", "state": "CO", "lat": "38.8469", "lng": "-105.1577"}, {"name": "San Acacio", "state": "CO", "lat": "37.2086", "lng": "-105.5667"}, {"name": "Ponderosa Park", "state": "CO", "lat": "39.3986", "lng": "-104.6355"}, {"name": "Haxtun", "state": "CO", "lat": "40.6415", "lng": "-102.6295"}, {"name": "Hartman", "state": "CO", "lat": "38.1211", "lng": "-102.2216"}, {"name": "Morrison", "state": "CO", "lat": "39.6431", "lng": "-105.1936"}, {"name": "Ophir", "state": "CO", "lat": "37.8568", "lng": "-107.8289"}, {"name": "Bark Ranch", "state": "CO", "lat": "40.1156", "lng": "-105.4416"}, {"name": "Manzanola", "state": "CO", "lat": "38.1088", "lng": "-103.8669"}, {"name": "Laird", "state": "CO", "lat": "40.0819", "lng": "-102.1020"}, {"name": "Hotchkiss", "state": "CO", "lat": "38.7991", "lng": "-107.7137"}, {"name": "Tall Timber", "state": "CO", "lat": "40.0151", "lng": "-105.3498"}, {"name": "Blue Sky", "state": "CO", "lat": "40.3001", "lng": "-103.8056"}, {"name": "Crestone", "state": "CO", "lat": "37.9945", "lng": "-105.6963"}, {"name": "Westcliffe", "state": "CO", "lat": "38.1340", "lng": "-105.4654"}, {"name": "Boone", "state": "CO", "lat": "38.2493", "lng": "-104.2579"}, {"name": "Durango", "state": "CO", "lat": "37.2744", "lng": "-107.8703"}, {"name": "Woodmoor", "state": "CO", "lat": "39.1063", "lng": "-104.8456"}, {"name": "Lakewood", "state": "CO", "lat": "39.6977", "lng": "-105.1168"}, {"name": "Silver Plume", "state": "CO", "lat": "39.6955", "lng": "-105.7266"}, {"name": "Pueblo", "state": "CO", "lat": "38.2713", "lng": "-104.6105"}, {"name": "Alma", "state": "CO", "lat": "39.2862", "lng": "-106.0680"}, {"name": "Gerrard", "state": "CO", "lat": "37.6783", "lng": "-106.5752"}, {"name": "Dinosaur", "state": "CO", "lat": "40.2405", "lng": "-109.0086"}, {"name": "Kiowa", "state": "CO", "lat": "39.3436", "lng": "-104.4580"}, {"name": "Nunn", "state": "CO", "lat": "40.7132", "lng": "-104.7884"}, {"name": "San Luis", "state": "CO", "lat": "37.2023", "lng": "-105.4224"}, {"name": "Rock Creek Park", "state": "CO", "lat": "38.7011", "lng": "-104.8346"}, {"name": "Padroni", "state": "CO", "lat": "40.7818", "lng": "-103.1733"}, {"name": "Kittredge", "state": "CO", "lat": "39.6593", "lng": "-105.3045"}, {"name": "Loma", "state": "CO", "lat": "39.2075", "lng": "-108.8050"}, {"name": "De Beque", "state": "CO", "lat": "39.2879", "lng": "-108.1952"}, {"name": "Sedalia", "state": "CO", "lat": "39.4396", "lng": "-104.9698"}, {"name": "Hoehne", "state": "CO", "lat": "37.2816", "lng": "-104.3890"}, {"name": "Iliff", "state": "CO", "lat": "40.7584", "lng": "-103.0660"}, {"name": "Limon", "state": "CO", "lat": "39.2652", "lng": "-103.6852"}, {"name": "Florence", "state": "CO", "lat": "38.3835", "lng": "-105.1114"}, {"name": "Silver Cliff", "state": "CO", "lat": "38.1204", "lng": "-105.4104"}, {"name": "Ellicott", "state": "CO", "lat": "38.8256", "lng": "-104.3829"}, {"name": "Black Hawk", "state": "CO", "lat": "39.8044", "lng": "-105.4946"}, {"name": "Highlands Ranch", "state": "CO", "lat": "39.5419", "lng": "-104.9708"}, {"name": "Inverness", "state": "CO", "lat": "39.5788", "lng": "-104.8624"}, {"name": "Byers", "state": "CO", "lat": "39.7101", "lng": "-104.2190"}, {"name": "Dacono", "state": "CO", "lat": "40.0620", "lng": "-104.9484"}, {"name": "Meeker", "state": "CO", "lat": "40.0498", "lng": "-107.8953"}, {"name": "Greenwood Village", "state": "CO", "lat": "39.6152", "lng": "-104.9131"}, {"name": "Greeley", "state": "CO", "lat": "40.4151", "lng": "-104.7705"}, {"name": "Deer Trail", "state": "CO", "lat": "39.6157", "lng": "-104.0435"}, {"name": "New Castle", "state": "CO", "lat": "39.5785", "lng": "-107.5262"}, {"name": "Rye", "state": "CO", "lat": "37.9214", "lng": "-104.9322"}, {"name": "Coaldale", "state": "CO", "lat": "38.3563", "lng": "-105.8155"}, {"name": "Dove Valley", "state": "CO", "lat": "39.5741", "lng": "-104.8289"}, {"name": "Wiley", "state": "CO", "lat": "38.1554", "lng": "-102.7193"}, {"name": "Eckley", "state": "CO", "lat": "40.1126", "lng": "-102.4885"}, {"name": "Orchard", "state": "CO", "lat": "40.3319", "lng": "-104.1178"}, {"name": "Glenwood Springs", "state": "CO", "lat": "39.5455", "lng": "-107.3347"}, {"name": "Fraser", "state": "CO", "lat": "39.9303", "lng": "-105.8031"}, {"name": "Alamosa", "state": "CO", "lat": "37.4755", "lng": "-105.8770"}, {"name": "North La Junta", "state": "CO", "lat": "37.9985", "lng": "-103.5228"}, {"name": "Starkville", "state": "CO", "lat": "37.1167", "lng": "-104.5232"}, {"name": "Genoa", "state": "CO", "lat": "39.2783", "lng": "-103.4989"}, {"name": "Pine Brook Hill", "state": "CO", "lat": "40.0470", "lng": "-105.3103"}, {"name": "Red Cliff", "state": "CO", "lat": "39.5094", "lng": "-106.3706"}, {"name": "Portland", "state": "CO", "lat": "38.0892", "lng": "-107.6952"}, {"name": "Hayden", "state": "CO", "lat": "40.4852", "lng": "-107.2423"}, {"name": "Fountain", "state": "CO", "lat": "38.6888", "lng": "-104.6829"}, {"name": "Beulah Valley", "state": "CO", "lat": "38.0664", "lng": "-104.9785"}, {"name": "La Veta", "state": "CO", "lat": "37.5086", "lng": "-105.0086"}, {"name": "Rocky Ford", "state": "CO", "lat": "38.0499", "lng": "-103.7227"}, {"name": "Sheridan Lake", "state": "CO", "lat": "38.4667", "lng": "-102.2941"}, {"name": "Rifle", "state": "CO", "lat": "39.5362", "lng": "-107.7720"}, {"name": "Lochbuie", "state": "CO", "lat": "40.0119", "lng": "-104.7271"}, {"name": "Garfield", "state": "CO", "lat": "38.5493", "lng": "-106.2895"}, {"name": "Pritchett", "state": "CO", "lat": "37.3700", "lng": "-102.8587"}, {"name": "Blanca", "state": "CO", "lat": "37.4393", "lng": "-105.5134"}, {"name": "Sedgwick", "state": "CO", "lat": "40.9351", "lng": "-102.5257"}, {"name": "Cotopaxi", "state": "CO", "lat": "38.3740", "lng": "-105.6911"}, {"name": "Frisco", "state": "CO", "lat": "39.5793", "lng": "-106.0918"}, {"name": "Piedra", "state": "CO", "lat": "37.4418", "lng": "-107.1684"}, {"name": "Olney Springs", "state": "CO", "lat": "38.1663", "lng": "-103.9445"}, {"name": "Boulder", "state": "CO", "lat": "40.0249", "lng": "-105.2523"}, {"name": "Silt", "state": "CO", "lat": "39.5478", "lng": "-107.6536"}, {"name": "Fort Garland", "state": "CO", "lat": "37.4279", "lng": "-105.4350"}, {"name": "Castle Pines Village", "state": "CO", "lat": "39.4418", "lng": "-104.8970"}, {"name": "Phippsburg", "state": "CO", "lat": "40.2301", "lng": "-106.9509"}, {"name": "Branson", "state": "CO", "lat": "37.0156", "lng": "-103.8838"}, {"name": "Vona", "state": "CO", "lat": "39.3023", "lng": "-102.7435"}, {"name": "Berkley", "state": "CO", "lat": "39.8045", "lng": "-105.0281"}, {"name": "Flagler", "state": "CO", "lat": "39.2955", "lng": "-103.0767"}, {"name": "Bow Mar", "state": "CO", "lat": "39.6253", "lng": "-105.0511"}, {"name": "Foxfield", "state": "CO", "lat": "39.5881", "lng": "-104.7857"}, {"name": "Pierce", "state": "CO", "lat": "40.6335", "lng": "-104.7551"}, {"name": "Longmont", "state": "CO", "lat": "40.1690", "lng": "-105.0996"}, {"name": "Centennial", "state": "CO", "lat": "39.5926", "lng": "-104.8674"}, {"name": "Ignacio", "state": "CO", "lat": "37.1182", "lng": "-107.6375"}, {"name": "Carbondale", "state": "CO", "lat": "39.3947", "lng": "-107.2145"}, {"name": "Morgan Heights", "state": "CO", "lat": "40.2874", "lng": "-103.8275"}, {"name": "Redlands", "state": "CO", "lat": "39.0885", "lng": "-108.6581"}, {"name": "Manassa", "state": "CO", "lat": "37.1738", "lng": "-105.9372"}, {"name": "Strasburg", "state": "CO", "lat": "39.7181", "lng": "-104.3195"}, {"name": "Lincoln Park", "state": "CO", "lat": "38.4255", "lng": "-105.2131"}, {"name": "Leadville", "state": "CO", "lat": "39.2467", "lng": "-106.2935"}, {"name": "Arriba", "state": "CO", "lat": "39.2841", "lng": "-103.2739"}, {"name": "Louviers", "state": "CO", "lat": "39.4799", "lng": "-105.0033"}, {"name": "Cascade-Chipita Park", "state": "CO", "lat": "38.9433", "lng": "-105.0025"}, {"name": "Conejos", "state": "CO", "lat": "37.0873", "lng": "-106.0160"}, {"name": "Granby", "state": "CO", "lat": "40.0657", "lng": "-105.9195"}, {"name": "Battlement Mesa", "state": "CO", "lat": "39.4505", "lng": "-108.0068"}, {"name": "Ca\u00c3\u00b1on City", "state": "CO", "lat": "38.4429", "lng": "-105.2204"}, {"name": "Redstone", "state": "CO", "lat": "39.1839", "lng": "-107.2407"}, {"name": "Upper Bear Creek", "state": "CO", "lat": "39.6319", "lng": "-105.4154"}, {"name": "Black Forest", "state": "CO", "lat": "39.0608", "lng": "-104.6752"}, {"name": "Rangely", "state": "CO", "lat": "40.0863", "lng": "-108.7792"}, {"name": "Trail Side", "state": "CO", "lat": "40.2493", "lng": "-103.8432"}, {"name": "Lake City", "state": "CO", "lat": "38.0303", "lng": "-107.3103"}, {"name": "Bonanza Mountain Estates", "state": "CO", "lat": "39.9768", "lng": "-105.4798"}, {"name": "Platteville", "state": "CO", "lat": "40.2220", "lng": "-104.8340"}, {"name": "Delta", "state": "CO", "lat": "38.7560", "lng": "-108.0771"}, {"name": "Paoli", "state": "CO", "lat": "40.6129", "lng": "-102.4721"}, {"name": "Hillrose", "state": "CO", "lat": "40.3248", "lng": "-103.5222"}, {"name": "Steamboat Springs", "state": "CO", "lat": "40.4774", "lng": "-106.8233"}, {"name": "The Pinery", "state": "CO", "lat": "39.4461", "lng": "-104.7592"}, {"name": "Rollinsville", "state": "CO", "lat": "39.9232", "lng": "-105.5136"}, {"name": "Granada", "state": "CO", "lat": "38.0630", "lng": "-102.3117"}, {"name": "Edwards", "state": "CO", "lat": "39.6215", "lng": "-106.6183"}, {"name": "Kirk", "state": "CO", "lat": "39.6127", "lng": "-102.5920"}, {"name": "Idaho Springs", "state": "CO", "lat": "39.7445", "lng": "-105.5000"}, {"name": "St. Mary's", "state": "CO", "lat": "39.8163", "lng": "-105.6479"}, {"name": "Broomfield", "state": "CO", "lat": "39.9541", "lng": "-105.0527"}, {"name": "Perry Park", "state": "CO", "lat": "39.2595", "lng": "-104.9824"}, {"name": "Cheyenne Wells", "state": "CO", "lat": "38.8192", "lng": "-102.3521"}, {"name": "Niwot", "state": "CO", "lat": "40.0980", "lng": "-105.1552"}, {"name": "Grand Lake", "state": "CO", "lat": "40.2504", "lng": "-105.8237"}, {"name": "Lafayette", "state": "CO", "lat": "39.9949", "lng": "-105.0997"}, {"name": "Jansen", "state": "CO", "lat": "37.1581", "lng": "-104.5501"}, {"name": "Ken Caryl", "state": "CO", "lat": "39.5769", "lng": "-105.1138"}, {"name": "Security-Widefield", "state": "CO", "lat": "38.7489", "lng": "-104.7142"}, {"name": "Pagosa Springs", "state": "CO", "lat": "37.2675", "lng": "-107.0301"}, {"name": "Heeney", "state": "CO", "lat": "39.8711", "lng": "-106.3001"}, {"name": "Peyton", "state": "CO", "lat": "39.0330", "lng": "-104.4904"}, {"name": "Loghill Village", "state": "CO", "lat": "38.1962", "lng": "-107.7790"}, {"name": "Joes", "state": "CO", "lat": "39.6559", "lng": "-102.6786"}, {"name": "Eldora", "state": "CO", "lat": "39.9536", "lng": "-105.5780"}, {"name": "Crook", "state": "CO", "lat": "40.8589", "lng": "-102.8014"}, {"name": "Victor", "state": "CO", "lat": "38.7090", "lng": "-105.1419"}, {"name": "Lazy Acres", "state": "CO", "lat": "40.0837", "lng": "-105.3312"}, {"name": "Derby", "state": "CO", "lat": "39.8401", "lng": "-104.9171"}, {"name": "Las Animas", "state": "CO", "lat": "38.0695", "lng": "-103.2236"}, {"name": "Fruitvale", "state": "CO", "lat": "39.0933", "lng": "-108.4790"}, {"name": "Estes Park", "state": "CO", "lat": "40.3703", "lng": "-105.5222"}, {"name": "Maysville", "state": "CO", "lat": "38.5304", "lng": "-106.2157"}, {"name": "Federal Heights", "state": "CO", "lat": "39.8651", "lng": "-105.0154"}, {"name": "Hudson", "state": "CO", "lat": "40.0899", "lng": "-104.6216"}, {"name": "Basalt", "state": "CO", "lat": "39.3663", "lng": "-107.0413"}, {"name": "Parachute", "state": "CO", "lat": "39.4500", "lng": "-108.0549"}, {"name": "Paragon Estates", "state": "CO", "lat": "39.9802", "lng": "-105.1812"}, {"name": "Brookside", "state": "CO", "lat": "38.4135", "lng": "-105.1909"}, {"name": "Leadville North", "state": "CO", "lat": "39.2600", "lng": "-106.3112"}, {"name": "Williamsburg", "state": "CO", "lat": "38.3840", "lng": "-105.1712"}, {"name": "Lone Tree", "state": "CO", "lat": "39.5309", "lng": "-104.8710"}, {"name": "Gunbarrel", "state": "CO", "lat": "40.0634", "lng": "-105.1714"}, {"name": "Superior", "state": "CO", "lat": "39.9341", "lng": "-105.1588"}, {"name": "Calhan", "state": "CO", "lat": "39.0345", "lng": "-104.2991"}, {"name": "McCoy", "state": "CO", "lat": "39.9143", "lng": "-106.7258"}, {"name": "East Pleasant View", "state": "CO", "lat": "39.7278", "lng": "-105.1572"}, {"name": "Rockvale", "state": "CO", "lat": "38.3647", "lng": "-105.1648"}, {"name": "Log Lane Village", "state": "CO", "lat": "40.2701", "lng": "-103.8295"}, {"name": "Silverton", "state": "CO", "lat": "37.8111", "lng": "-107.6646"}, {"name": "Jamestown", "state": "CO", "lat": "40.1179", "lng": "-105.3916"}, {"name": "Yampa", "state": "CO", "lat": "40.1530", "lng": "-106.9085"}, {"name": "Loveland", "state": "CO", "lat": "40.4167", "lng": "-105.0622"}, {"name": "Evans", "state": "CO", "lat": "40.3660", "lng": "-104.7389"}, {"name": "Paonia", "state": "CO", "lat": "38.8698", "lng": "-107.5915"}, {"name": "Bayfield", "state": "CO", "lat": "37.2341", "lng": "-107.5952"}, {"name": "Georgetown", "state": "CO", "lat": "39.7182", "lng": "-105.6944"}, {"name": "Peoria", "state": "CO", "lat": "39.6649", "lng": "-104.1456"}, {"name": "Dove Creek", "state": "CO", "lat": "37.7669", "lng": "-108.9071"}, {"name": "Penrose", "state": "CO", "lat": "38.4213", "lng": "-105.0004"}, {"name": "Bonanza", "state": "CO", "lat": "38.2966", "lng": "-106.1419"}, {"name": "Mount Crested Butte", "state": "CO", "lat": "38.9085", "lng": "-106.9587"}, {"name": "Frederick", "state": "CO", "lat": "40.1095", "lng": "-104.9670"}, {"name": "Fowler", "state": "CO", "lat": "38.1296", "lng": "-104.0255"}, {"name": "Fort Carson", "state": "CO", "lat": "38.7403", "lng": "-104.7841"}, {"name": "Parker", "state": "CO", "lat": "39.5084", "lng": "-104.7755"}, {"name": "Gilcrest", "state": "CO", "lat": "40.2842", "lng": "-104.7820"}, {"name": "West Pleasant View", "state": "CO", "lat": "39.7320", "lng": "-105.1785"}, {"name": "Wolcott", "state": "CO", "lat": "39.7035", "lng": "-106.6800"}, {"name": "Two Buttes", "state": "CO", "lat": "37.5607", "lng": "-102.3966"}, {"name": "Fort Lupton", "state": "CO", "lat": "40.0841", "lng": "-104.8021"}, {"name": "Littleton", "state": "CO", "lat": "39.5915", "lng": "-105.0188"}, {"name": "Glendale", "state": "CO", "lat": "39.7036", "lng": "-104.9352"}, {"name": "Brick Center", "state": "CO", "lat": "39.6001", "lng": "-104.4579"}, {"name": "Dillon", "state": "CO", "lat": "39.6210", "lng": "-106.0386"}, {"name": "Tabernash", "state": "CO", "lat": "39.9789", "lng": "-105.8444"}, {"name": "Avon", "state": "CO", "lat": "39.6445", "lng": "-106.5133"}, {"name": "Palmer Lake", "state": "CO", "lat": "39.1156", "lng": "-104.9051"}, {"name": "Idledale", "state": "CO", "lat": "39.6689", "lng": "-105.2431"}, {"name": "Pueblo West", "state": "CO", "lat": "38.3551", "lng": "-104.7266"}, {"name": "Stratton", "state": "CO", "lat": "39.3029", "lng": "-102.6035"}, {"name": "Antonito", "state": "CO", "lat": "37.0766", "lng": "-106.0103"}, {"name": "Watkins", "state": "CO", "lat": "39.6971", "lng": "-104.5787"}, {"name": "Haswell", "state": "CO", "lat": "38.4525", "lng": "-103.1649"}, {"name": "Arvada", "state": "CO", "lat": "39.8321", "lng": "-105.1511"}, {"name": "Eaton", "state": "CO", "lat": "40.5257", "lng": "-104.7130"}, {"name": "Garden City", "state": "CO", "lat": "40.3948", "lng": "-104.6893"}, {"name": "Cimarron Hills", "state": "CO", "lat": "38.8597", "lng": "-104.6995"}, {"name": "Lakeside", "state": "CO", "lat": "39.7802", "lng": "-105.0579"}, {"name": "El Jebel", "state": "CO", "lat": "39.4051", "lng": "-107.0920"}, {"name": "Acres Green", "state": "CO", "lat": "39.5558", "lng": "-104.8957"}, {"name": "Windsor", "state": "CO", "lat": "40.4679", "lng": "-104.9211"}, {"name": "Romeo", "state": "CO", "lat": "37.1718", "lng": "-105.9854"}, {"name": "Vilas", "state": "CO", "lat": "37.3737", "lng": "-102.4474"}, {"name": "Center", "state": "CO", "lat": "37.7513", "lng": "-106.1103"}, {"name": "Genesee", "state": "CO", "lat": "39.6873", "lng": "-105.2719"}, {"name": "Chacra", "state": "CO", "lat": "39.5770", "lng": "-107.4509"}, {"name": "Fort Morgan", "state": "CO", "lat": "40.2539", "lng": "-103.7919"}, {"name": "Empire", "state": "CO", "lat": "39.7595", "lng": "-105.6821"}, {"name": "Severance", "state": "CO", "lat": "40.5269", "lng": "-104.8642"}, {"name": "Mancos", "state": "CO", "lat": "37.3466", "lng": "-108.2939"}, {"name": "Keystone", "state": "CO", "lat": "39.5901", "lng": "-105.9384"}, {"name": "Twin Lakes", "state": "CO", "lat": "39.8229", "lng": "-105.0036"}, {"name": "Gypsum", "state": "CO", "lat": "39.6286", "lng": "-106.9334"}, {"name": "Catherine", "state": "CO", "lat": "39.4017", "lng": "-107.1330"}, {"name": "Brush", "state": "CO", "lat": "40.2581", "lng": "-103.6321"}, {"name": "Franktown", "state": "CO", "lat": "39.3906", "lng": "-104.7486"}, {"name": "Westcreek", "state": "CO", "lat": "39.1498", "lng": "-105.1626"}, {"name": "Snyder", "state": "CO", "lat": "40.3312", "lng": "-103.5915"}, {"name": "Dolores", "state": "CO", "lat": "37.4740", "lng": "-108.4998"}, {"name": "Capulin", "state": "CO", "lat": "37.2819", "lng": "-106.1051"}, {"name": "Nederland", "state": "CO", "lat": "39.9633", "lng": "-105.5071"}, {"name": "Welby", "state": "CO", "lat": "39.8403", "lng": "-104.9655"}, {"name": "Arboles", "state": "CO", "lat": "37.0201", "lng": "-107.4222"}, {"name": "Lynn", "state": "CO", "lat": "37.4219", "lng": "-104.6431"}, {"name": "Fort Collins", "state": "CO", "lat": "40.5475", "lng": "-105.0651"}, {"name": "Laporte", "state": "CO", "lat": "40.6385", "lng": "-105.1444"}, {"name": "Peetz", "state": "CO", "lat": "40.9619", "lng": "-103.1143"}, {"name": "Simla", "state": "CO", "lat": "39.1408", "lng": "-104.0824"}, {"name": "Monument", "state": "CO", "lat": "39.0736", "lng": "-104.8468"}, {"name": "Copper Mountain", "state": "CO", "lat": "39.4769", "lng": "-106.2011"}, {"name": "Weston", "state": "CO", "lat": "37.1459", "lng": "-104.8684"}, {"name": "Cheraw", "state": "CO", "lat": "38.1078", "lng": "-103.5112"}, {"name": "Erie", "state": "CO", "lat": "40.0404", "lng": "-105.0397"}, {"name": "Goldfield", "state": "CO", "lat": "38.7177", "lng": "-105.1254"}, {"name": "Westminster", "state": "CO", "lat": "39.8837", "lng": "-105.0624"}, {"name": "Montrose", "state": "CO", "lat": "38.4690", "lng": "-107.8589"}, {"name": "Wheat Ridge", "state": "CO", "lat": "39.7727", "lng": "-105.1028"}, {"name": "Cedaredge", "state": "CO", "lat": "38.8942", "lng": "-107.9255"}]