[{"name": "North Grosvenor Dale", "state": "CT", "lat": "41.9862", "lng": "-71.9034"}, {"name": "Plantsville", "state": "CT", "lat": "41.5832", "lng": "-72.8915"}, {"name": "Simsbury Center", "state": "CT", "lat": "41.8808", "lng": "-72.8111"}, {"name": "Norwalk", "state": "CT", "lat": "41.1144", "lng": "-73.4215"}, {"name": "Coventry Lake", "state": "CT", "lat": "41.7736", "lng": "-72.3287"}, {"name": "Terramuggus", "state": "CT", "lat": "41.6342", "lng": "-72.4692"}, {"name": "Bridgeport", "state": "CT", "lat": "41.1918", "lng": "-73.1953"}, {"name": "Stamford", "state": "CT", "lat": "41.1035", "lng": "-73.5583"}, {"name": "Hazardville", "state": "CT", "lat": "41.9899", "lng": "-72.5256"}, {"name": "New London", "state": "CT", "lat": "41.3502", "lng": "-72.1023"}, {"name": "Deep River Center", "state": "CT", "lat": "41.3823", "lng": "-72.4386"}, {"name": "Litchfield", "state": "CT", "lat": "41.7457", "lng": "-73.1893"}, {"name": "Oakville", "state": "CT", "lat": "41.5923", "lng": "-73.0858"}, {"name": "Derby", "state": "CT", "lat": "41.3265", "lng": "-73.0833"}, {"name": "Poquonock Bridge", "state": "CT", "lat": "41.3379", "lng": "-72.0175"}, {"name": "Essex Village", "state": "CT", "lat": "41.3552", "lng": "-72.3910"}, {"name": "Old Greenwich", "state": "CT", "lat": "41.0253", "lng": "-73.5692"}, {"name": "South Coventry", "state": "CT", "lat": "41.7695", "lng": "-72.3064"}, {"name": "Meriden", "state": "CT", "lat": "41.5367", "lng": "-72.7944"}, {"name": "Wilton Center", "state": "CT", "lat": "41.1880", "lng": "-73.4298"}, {"name": "Weatogue", "state": "CT", "lat": "41.8459", "lng": "-72.8294"}, {"name": "Shelton", "state": "CT", "lat": "41.3060", "lng": "-73.1383"}, {"name": "Wauregan", "state": "CT", "lat": "41.7501", "lng": "-71.9091"}, {"name": "Branford Center", "state": "CT", "lat": "41.2779", "lng": "-72.8148"}, {"name": "North Granby", "state": "CT", "lat": "42.0152", "lng": "-72.8440"}, {"name": "Canton Valley", "state": "CT", "lat": "41.8316", "lng": "-72.8978"}, {"name": "Higganum", "state": "CT", "lat": "41.4900", "lng": "-72.5562"}, {"name": "Bethlehem Village", "state": "CT", "lat": "41.6401", "lng": "-73.2031"}, {"name": "Baltic", "state": "CT", "lat": "41.6140", "lng": "-72.0866"}, {"name": "Lake Pocotopaug", "state": "CT", "lat": "41.5961", "lng": "-72.5124"}, {"name": "Jewett City", "state": "CT", "lat": "41.6070", "lng": "-71.9806"}, {"name": "Mansfield Center", "state": "CT", "lat": "41.7618", "lng": "-72.1944"}, {"name": "Cheshire Village", "state": "CT", "lat": "41.5026", "lng": "-72.8993"}, {"name": "Suffield Depot", "state": "CT", "lat": "41.9830", "lng": "-72.6463"}, {"name": "Rockville", "state": "CT", "lat": "41.8667", "lng": "-72.4528"}, {"name": "West Simsbury", "state": "CT", "lat": "41.8748", "lng": "-72.8448"}, {"name": "Long Hill", "state": "CT", "lat": "41.3536", "lng": "-72.0517"}, {"name": "Kensington", "state": "CT", "lat": "41.6298", "lng": "-72.7714"}, {"name": "Sherwood Manor", "state": "CT", "lat": "42.0125", "lng": "-72.5660"}, {"name": "Norwich", "state": "CT", "lat": "41.5495", "lng": "-72.0882"}, {"name": "Woodmont", "state": "CT", "lat": "41.2282", "lng": "-72.9930"}, {"name": "Torrington", "state": "CT", "lat": "41.8349", "lng": "-73.1281"}, {"name": "Groton", "state": "CT", "lat": "41.3390", "lng": "-72.0727"}, {"name": "Salmon Brook", "state": "CT", "lat": "41.9567", "lng": "-72.7931"}, {"name": "Mashantucket", "state": "CT", "lat": "41.4644", "lng": "-71.9745"}, {"name": "Pemberwick", "state": "CT", "lat": "41.0224", "lng": "-73.6564"}, {"name": "Georgetown", "state": "CT", "lat": "41.2494", "lng": "-73.4343"}, {"name": "Ansonia", "state": "CT", "lat": "41.3443", "lng": "-73.0689"}, {"name": "Woodbury Center", "state": "CT", "lat": "41.5445", "lng": "-73.2047"}, {"name": "Thompsonville", "state": "CT", "lat": "41.9916", "lng": "-72.5965"}, {"name": "Middletown", "state": "CT", "lat": "41.5476", "lng": "-72.6549"}, {"name": "Broad Brook", "state": "CT", "lat": "41.9097", "lng": "-72.5426"}, {"name": "Naugatuck", "state": "CT", "lat": "41.4890", "lng": "-73.0518"}, {"name": "Guilford Center", "state": "CT", "lat": "41.2817", "lng": "-72.6762"}, {"name": "Cannondale", "state": "CT", "lat": "41.2161", "lng": "-73.4248"}, {"name": "Willimantic", "state": "CT", "lat": "41.7153", "lng": "-72.2173"}, {"name": "Byram", "state": "CT", "lat": "41.0011", "lng": "-73.6528"}, {"name": "Hartford", "state": "CT", "lat": "41.7661", "lng": "-72.6834"}, {"name": "Chester Center", "state": "CT", "lat": "41.4014", "lng": "-72.4523"}, {"name": "Southwood Acres", "state": "CT", "lat": "41.9610", "lng": "-72.5719"}, {"name": "Pawcatuck", "state": "CT", "lat": "41.3774", "lng": "-71.8492"}, {"name": "South Woodstock", "state": "CT", "lat": "41.9275", "lng": "-71.9627"}, {"name": "Plainfield Village", "state": "CT", "lat": "41.6766", "lng": "-71.9250"}, {"name": "Blue Hills", "state": "CT", "lat": "41.8134", "lng": "-72.6954"}, {"name": "Niantic", "state": "CT", "lat": "41.3265", "lng": "-72.1949"}, {"name": "Storrs", "state": "CT", "lat": "41.8045", "lng": "-72.2552"}, {"name": "Bristol", "state": "CT", "lat": "41.6812", "lng": "-72.9407"}, {"name": "Old Saybrook Center", "state": "CT", "lat": "41.2918", "lng": "-72.3682"}, {"name": "New Britain", "state": "CT", "lat": "41.6758", "lng": "-72.7862"}, {"name": "Moosup", "state": "CT", "lat": "41.7169", "lng": "-71.8750"}, {"name": "Conning Towers Nautilus Park", "state": "CT", "lat": "41.3855", "lng": "-72.0686"}, {"name": "Waterbury", "state": "CT", "lat": "41.5583", "lng": "-73.0361"}, {"name": "Madison Center", "state": "CT", "lat": "41.2794", "lng": "-72.6003"}, {"name": "East Brooklyn", "state": "CT", "lat": "41.7948", "lng": "-71.8992"}, {"name": "Mystic", "state": "CT", "lat": "41.3574", "lng": "-71.9548"}, {"name": "Crystal Lake", "state": "CT", "lat": "41.9343", "lng": "-72.3756"}, {"name": "Terryville", "state": "CT", "lat": "41.6784", "lng": "-73.0065"}, {"name": "Lakeville", "state": "CT", "lat": "41.9594", "lng": "-73.4467"}, {"name": "Stonington", "state": "CT", "lat": "41.3344", "lng": "-71.9033"}, {"name": "Moodus", "state": "CT", "lat": "41.5043", "lng": "-72.4491"}, {"name": "Glenville", "state": "CT", "lat": "41.0349", "lng": "-73.6656"}, {"name": "Southport", "state": "CT", "lat": "41.1349", "lng": "-73.2874"}, {"name": "Saybrook Manor", "state": "CT", "lat": "41.2825", "lng": "-72.4063"}, {"name": "Groton Long Point", "state": "CT", "lat": "41.3145", "lng": "-72.0087"}, {"name": "Westbrook Center", "state": "CT", "lat": "41.2811", "lng": "-72.4424"}, {"name": "Wallingford Center", "state": "CT", "lat": "41.4499", "lng": "-72.8189"}, {"name": "Cos Cob", "state": "CT", "lat": "41.0513", "lng": "-73.5931"}, {"name": "Gales Ferry", "state": "CT", "lat": "41.4212", "lng": "-72.0859"}, {"name": "Riverside", "state": "CT", "lat": "41.0319", "lng": "-73.5827"}, {"name": "Tariffville", "state": "CT", "lat": "41.9076", "lng": "-72.7682"}, {"name": "Glastonbury Center", "state": "CT", "lat": "41.7019", "lng": "-72.6002"}, {"name": "Old Mystic", "state": "CT", "lat": "41.3854", "lng": "-71.9850"}, {"name": "Bantam", "state": "CT", "lat": "41.7247", "lng": "-73.2422"}, {"name": "New Haven", "state": "CT", "lat": "41.3112", "lng": "-72.9246"}, {"name": "New Preston", "state": "CT", "lat": "41.6813", "lng": "-73.3523"}, {"name": "Noank", "state": "CT", "lat": "41.3339", "lng": "-71.9978"}, {"name": "Quinebaug", "state": "CT", "lat": "42.0107", "lng": "-71.9370"}, {"name": "Stafford Springs", "state": "CT", "lat": "41.9595", "lng": "-72.3105"}, {"name": "New Hartford Center", "state": "CT", "lat": "41.8802", "lng": "-72.9753"}, {"name": "Winsted", "state": "CT", "lat": "41.9268", "lng": "-73.0674"}, {"name": "West Haven", "state": "CT", "lat": "41.2739", "lng": "-72.9672"}, {"name": "Oxoboxo River", "state": "CT", "lat": "41.4441", "lng": "-72.1250"}, {"name": "Danbury", "state": "CT", "lat": "41.4016", "lng": "-73.4710"}, {"name": "Newtown", "state": "CT", "lat": "41.4119", "lng": "-73.3120"}, {"name": "Danielson", "state": "CT", "lat": "41.8086", "lng": "-71.8854"}, {"name": "Heritage Village", "state": "CT", "lat": "41.4845", "lng": "-73.2351"}, {"name": "Collinsville", "state": "CT", "lat": "41.8190", "lng": "-72.9220"}, {"name": "Falls Village", "state": "CT", "lat": "41.9576", "lng": "-73.3562"}, {"name": "Fenwick", "state": "CT", "lat": "41.2711", "lng": "-72.3546"}, {"name": "South Windham", "state": "CT", "lat": "41.6850", "lng": "-72.1845"}, {"name": "Milford city ", "state": "CT", "lat": "41.2255", "lng": "-73.0625"}, {"name": "Northwest Harwinton", "state": "CT", "lat": "41.7769", "lng": "-73.0794"}]