[{"name": "Fenwick Island", "state": "DE", "lat": "38.4603", "lng": "-75.0542"}, {"name": "Delmar", "state": "DE", "lat": "38.4651", "lng": "-75.5552"}, {"name": "Ardencroft", "state": "DE", "lat": "39.8056", "lng": "-75.4862"}, {"name": "Farmington", "state": "DE", "lat": "38.8699", "lng": "-75.5790"}, {"name": "Felton", "state": "DE", "lat": "39.0127", "lng": "-75.5764"}, {"name": "Hartly", "state": "DE", "lat": "39.1683", "lng": "-75.7125"}, {"name": "Pike Creek", "state": "DE", "lat": "39.7485", "lng": "-75.6953"}, {"name": "Millville", "state": "DE", "lat": "38.5353", "lng": "-75.1287"}, {"name": "Highland Acres", "state": "DE", "lat": "39.1162", "lng": "-75.5216"}, {"name": "Rising Sun-Lebanon", "state": "DE", "lat": "39.0999", "lng": "-75.5048"}, {"name": "Little Creek", "state": "DE", "lat": "39.1661", "lng": "-75.4481"}, {"name": "Magnolia", "state": "DE", "lat": "39.0714", "lng": "-75.4760"}, {"name": "Greenville", "state": "DE", "lat": "39.7783", "lng": "-75.6049"}, {"name": "Elsmere", "state": "DE", "lat": "39.7385", "lng": "-75.5946"}, {"name": "Harrington", "state": "DE", "lat": "38.9244", "lng": "-75.5707"}, {"name": "Seaford", "state": "DE", "lat": "38.6539", "lng": "-75.6117"}, {"name": "Dover Base Housing", "state": "DE", "lat": "39.1179", "lng": "-75.4839"}, {"name": "Dagsboro", "state": "DE", "lat": "38.5466", "lng": "-75.2467"}, {"name": "Milford", "state": "DE", "lat": "38.9091", "lng": "-75.4224"}, {"name": "Bridgeville", "state": "DE", "lat": "38.7247", "lng": "-75.6027"}, {"name": "Bellefonte", "state": "DE", "lat": "39.7669", "lng": "-75.4982"}, {"name": "Smyrna", "state": "DE", "lat": "39.2922", "lng": "-75.6076"}, {"name": "Wilmington Manor", "state": "DE", "lat": "39.6858", "lng": "-75.5849"}, {"name": "New Castle", "state": "DE", "lat": "39.6685", "lng": "-75.5692"}, {"name": "Bowers", "state": "DE", "lat": "39.0602", "lng": "-75.4021"}, {"name": "Bethel", "state": "DE", "lat": "38.5706", "lng": "-75.6194"}, {"name": "Selbyville", "state": "DE", "lat": "38.4627", "lng": "-75.2083"}, {"name": "Houston", "state": "DE", "lat": "38.9174", "lng": "-75.5039"}, {"name": "Woodside East", "state": "DE", "lat": "39.0676", "lng": "-75.5376"}, {"name": "Viola", "state": "DE", "lat": "39.0429", "lng": "-75.5714"}, {"name": "Dewey Beach", "state": "DE", "lat": "38.6958", "lng": "-75.0749"}, {"name": "Newport", "state": "DE", "lat": "39.7136", "lng": "-75.6052"}, {"name": "Bethany Beach", "state": "DE", "lat": "38.5391", "lng": "-75.0660"}, {"name": "Edgemoor", "state": "DE", "lat": "39.7551", "lng": "-75.5070"}, {"name": "Townsend", "state": "DE", "lat": "39.3968", "lng": "-75.6945"}, {"name": "Georgetown", "state": "DE", "lat": "38.6899", "lng": "-75.3872"}, {"name": "Kenton", "state": "DE", "lat": "39.2272", "lng": "-75.6646"}, {"name": "Greenwood", "state": "DE", "lat": "38.8069", "lng": "-75.5907"}, {"name": "North Star", "state": "DE", "lat": "39.7550", "lng": "-75.7331"}, {"name": "Slaughter Beach", "state": "DE", "lat": "38.9143", "lng": "-75.3085"}, {"name": "Middletown", "state": "DE", "lat": "39.4453", "lng": "-75.7166"}, {"name": "Blades", "state": "DE", "lat": "38.6353", "lng": "-75.6024"}, {"name": "Frederica", "state": "DE", "lat": "39.0080", "lng": "-75.4667"}, {"name": "Rehoboth Beach", "state": "DE", "lat": "38.7168", "lng": "-75.0843"}, {"name": "Milton", "state": "DE", "lat": "38.7751", "lng": "-75.3104"}, {"name": "Woodside", "state": "DE", "lat": "39.0712", "lng": "-75.5667"}, {"name": "Bear", "state": "DE", "lat": "39.6188", "lng": "-75.6804"}, {"name": "Wilmington", "state": "DE", "lat": "39.7415", "lng": "-75.5413"}, {"name": "Pike Creek Valley", "state": "DE", "lat": "39.7296", "lng": "-75.6993"}, {"name": "Rodney Village", "state": "DE", "lat": "39.1284", "lng": "-75.5395"}, {"name": "Henlopen Acres", "state": "DE", "lat": "38.7257", "lng": "-75.0849"}, {"name": "Frankford", "state": "DE", "lat": "38.5215", "lng": "-75.2342"}, {"name": "Millsboro", "state": "DE", "lat": "38.5865", "lng": "-75.3019"}, {"name": "Glasgow", "state": "DE", "lat": "39.6015", "lng": "-75.7474"}, {"name": "Clayton", "state": "DE", "lat": "39.2846", "lng": "-75.6364"}, {"name": "Cheswold", "state": "DE", "lat": "39.2189", "lng": "-75.5883"}, {"name": "Odessa", "state": "DE", "lat": "39.4562", "lng": "-75.6605"}, {"name": "Kent Acres", "state": "DE", "lat": "39.1325", "lng": "-75.5160"}, {"name": "St. Georges", "state": "DE", "lat": "39.5576", "lng": "-75.6533"}, {"name": "Ardentown", "state": "DE", "lat": "39.8081", "lng": "-75.4807"}, {"name": "Arden", "state": "DE", "lat": "39.8113", "lng": "-75.4886"}, {"name": "Ellendale", "state": "DE", "lat": "38.8103", "lng": "-75.4250"}, {"name": "Lewes", "state": "DE", "lat": "38.7781", "lng": "-75.1454"}, {"name": "Laurel", "state": "DE", "lat": "38.5696", "lng": "-75.5688"}, {"name": "Brookside", "state": "DE", "lat": "39.6666", "lng": "-75.7153"}, {"name": "Wyoming", "state": "DE", "lat": "39.1147", "lng": "-75.5631"}, {"name": "Claymont", "state": "DE", "lat": "39.8032", "lng": "-75.4606"}, {"name": "Newark", "state": "DE", "lat": "39.6776", "lng": "-75.7573"}, {"name": "Long Neck", "state": "DE", "lat": "38.6200", "lng": "-75.1511"}, {"name": "Camden", "state": "DE", "lat": "39.0992", "lng": "-75.5570"}, {"name": "Leipsic", "state": "DE", "lat": "39.2430", "lng": "-75.5155"}, {"name": "Delaware City", "state": "DE", "lat": "39.5743", "lng": "-75.5939"}, {"name": "Ocean View", "state": "DE", "lat": "38.5357", "lng": "-75.0991"}, {"name": "South Bethany", "state": "DE", "lat": "38.5161", "lng": "-75.0591"}, {"name": "Hockessin", "state": "DE", "lat": "39.7837", "lng": "-75.6815"}, {"name": "Riverview", "state": "DE", "lat": "39.0293", "lng": "-75.5202"}, {"name": "Dover", "state": "DE", "lat": "39.1610", "lng": "-75.5203"}]