[{"name": "North Key Largo", "state": "FL", "lat": "25.2574", "lng": "-80.3242"}, {"name": "Trenton", "state": "FL", "lat": "29.6092", "lng": "-82.8146"}, {"name": "Wilton Manors", "state": "FL", "lat": "26.1593", "lng": "-80.1395"}, {"name": "Chumuckla", "state": "FL", "lat": "30.7826", "lng": "-87.2309"}, {"name": "Sanford", "state": "FL", "lat": "28.7893", "lng": "-81.2760"}, {"name": "Micanopy", "state": "FL", "lat": "29.5060", "lng": "-82.2806"}, {"name": "Tamarac", "state": "FL", "lat": "26.2057", "lng": "-80.2549"}, {"name": "Asbury Lake", "state": "FL", "lat": "30.0472", "lng": "-81.7855"}, {"name": "Wausau", "state": "FL", "lat": "30.6332", "lng": "-85.5874"}, {"name": "Mary Esther", "state": "FL", "lat": "30.4127", "lng": "-86.6588"}, {"name": "Timber Pines", "state": "FL", "lat": "28.4690", "lng": "-82.5999"}, {"name": "Surfside", "state": "FL", "lat": "25.8787", "lng": "-80.1250"}, {"name": "Waldo", "state": "FL", "lat": "29.7925", "lng": "-82.1663"}, {"name": "Sawgrass", "state": "FL", "lat": "30.1900", "lng": "-81.3704"}, {"name": "Mims", "state": "FL", "lat": "28.6928", "lng": "-80.8468"}, {"name": "Royal Palm Estates", "state": "FL", "lat": "26.6815", "lng": "-80.1265"}, {"name": "Roeville", "state": "FL", "lat": "30.6838", "lng": "-86.9940"}, {"name": "Parkland", "state": "FL", "lat": "26.3218", "lng": "-80.2533"}, {"name": "Oak Ridge", "state": "FL", "lat": "28.4727", "lng": "-81.4169"}, {"name": "Fidelis", "state": "FL", "lat": "30.9343", "lng": "-87.0246"}, {"name": "Niceville", "state": "FL", "lat": "30.5290", "lng": "-86.4753"}, {"name": "Crystal Springs", "state": "FL", "lat": "28.1830", "lng": "-82.1539"}, {"name": "Laurel Hill", "state": "FL", "lat": "30.9640", "lng": "-86.4561"}, {"name": "Munson", "state": "FL", "lat": "30.8418", "lng": "-86.8870"}, {"name": "High Point", "state": "FL", "lat": "28.5474", "lng": "-82.5206"}, {"name": "Beacon Square", "state": "FL", "lat": "28.2118", "lng": "-82.7504"}, {"name": "Ruskin", "state": "FL", "lat": "27.7065", "lng": "-82.4209"}, {"name": "Olympia Heights", "state": "FL", "lat": "25.7241", "lng": "-80.3390"}, {"name": "Midway", "state": "FL", "lat": "30.4992", "lng": "-84.4582"}, {"name": "Brownsville", "state": "FL", "lat": "25.8216", "lng": "-80.2417"}, {"name": "Palm Beach Gardens", "state": "FL", "lat": "26.8486", "lng": "-80.1660"}, {"name": "Marianna", "state": "FL", "lat": "30.7943", "lng": "-85.2260"}, {"name": "Aucilla", "state": "FL", "lat": "30.4770", "lng": "-83.7604"}, {"name": "Heathrow", "state": "FL", "lat": "28.7754", "lng": "-81.3721"}, {"name": "South Highpoint", "state": "FL", "lat": "27.9087", "lng": "-82.7162"}, {"name": "Live Oak", "state": "FL", "lat": "30.2956", "lng": "-82.9847"}, {"name": "West Vero Corridor", "state": "FL", "lat": "27.6378", "lng": "-80.4855"}, {"name": "Fruitville", "state": "FL", "lat": "27.3328", "lng": "-82.4616"}, {"name": "Pine Castle", "state": "FL", "lat": "28.4651", "lng": "-81.3740"}, {"name": "Progress Village", "state": "FL", "lat": "27.8832", "lng": "-82.3593"}, {"name": "Panacea", "state": "FL", "lat": "30.0282", "lng": "-84.3936"}, {"name": "Wewahitchka", "state": "FL", "lat": "30.1148", "lng": "-85.1935"}, {"name": "Vamo", "state": "FL", "lat": "27.2254", "lng": "-82.4944"}, {"name": "Tampa", "state": "FL", "lat": "27.9942", "lng": "-82.4451"}, {"name": "Rio", "state": "FL", "lat": "27.2161", "lng": "-80.2400"}, {"name": "Laguna Beach", "state": "FL", "lat": "30.2549", "lng": "-85.9511"}, {"name": "DeBary", "state": "FL", "lat": "28.8815", "lng": "-81.3240"}, {"name": "Cooper City", "state": "FL", "lat": "26.0463", "lng": "-80.2862"}, {"name": "Inverness Highlands South", "state": "FL", "lat": "28.8006", "lng": "-82.3372"}, {"name": "Myrtle Grove", "state": "FL", "lat": "30.4158", "lng": "-87.3028"}, {"name": "Raleigh", "state": "FL", "lat": "29.4479", "lng": "-82.4680"}, {"name": "Lely Resort", "state": "FL", "lat": "26.0889", "lng": "-81.7031"}, {"name": "Kenneth City", "state": "FL", "lat": "27.8155", "lng": "-82.7162"}, {"name": "Campbellton", "state": "FL", "lat": "30.9505", "lng": "-85.4025"}, {"name": "Center Hill", "state": "FL", "lat": "28.6335", "lng": "-81.9986"}, {"name": "Nokomis", "state": "FL", "lat": "27.1227", "lng": "-82.4370"}, {"name": "West DeLand", "state": "FL", "lat": "29.0162", "lng": "-81.3343"}, {"name": "Margate", "state": "FL", "lat": "26.2466", "lng": "-80.2119"}, {"name": "Harlem", "state": "FL", "lat": "26.7325", "lng": "-80.9518"}, {"name": "Lockhart", "state": "FL", "lat": "28.6271", "lng": "-81.4354"}, {"name": "Venice Gardens", "state": "FL", "lat": "27.0694", "lng": "-82.4054"}, {"name": "Plantation", "state": "FL", "lat": "26.1260", "lng": "-80.2617"}, {"name": "Lake Worth", "state": "FL", "lat": "26.6195", "lng": "-80.0591"}, {"name": "Berrydale", "state": "FL", "lat": "30.8982", "lng": "-87.0350"}, {"name": "Hypoluxo", "state": "FL", "lat": "26.5634", "lng": "-80.0531"}, {"name": "Lecanto", "state": "FL", "lat": "28.8359", "lng": "-82.4880"}, {"name": "Hernando", "state": "FL", "lat": "28.9451", "lng": "-82.3781"}, {"name": "Glencoe", "state": "FL", "lat": "28.9999", "lng": "-80.9602"}, {"name": "Buenaventura Lakes", "state": "FL", "lat": "28.3349", "lng": "-81.3539"}, {"name": "Astor", "state": "FL", "lat": "29.1635", "lng": "-81.5349"}, {"name": "Bartow", "state": "FL", "lat": "27.8868", "lng": "-81.8213"}, {"name": "Suncoast Estates", "state": "FL", "lat": "26.7123", "lng": "-81.8684"}, {"name": "Kensington Park", "state": "FL", "lat": "27.3591", "lng": "-82.4932"}, {"name": "Coconut Creek", "state": "FL", "lat": "26.2802", "lng": "-80.1842"}, {"name": "Sunny Isles Beach", "state": "FL", "lat": "25.9385", "lng": "-80.1246"}, {"name": "Pensacola", "state": "FL", "lat": "30.4427", "lng": "-87.1886"}, {"name": "Horseshoe Beach", "state": "FL", "lat": "29.4498", "lng": "-83.2819"}, {"name": "Ponce de Leon", "state": "FL", "lat": "30.7234", "lng": "-85.9374"}, {"name": "St. James City", "state": "FL", "lat": "26.5507", "lng": "-82.0980"}, {"name": "Fort Pierce South", "state": "FL", "lat": "27.4096", "lng": "-80.3538"}, {"name": "Miami Gardens", "state": "FL", "lat": "25.9433", "lng": "-80.2426"}, {"name": "Largo", "state": "FL", "lat": "27.9088", "lng": "-82.7712"}, {"name": "Cabana Colony", "state": "FL", "lat": "26.8554", "lng": "-80.0864"}, {"name": "Country Club", "state": "FL", "lat": "25.9407", "lng": "-80.3102"}, {"name": "St. Augustine South", "state": "FL", "lat": "29.8449", "lng": "-81.3156"}, {"name": "Lake Panasoffkee", "state": "FL", "lat": "28.7878", "lng": "-82.1318"}, {"name": "Montverde", "state": "FL", "lat": "28.5971", "lng": "-81.6787"}, {"name": "Ridge Wood Heights", "state": "FL", "lat": "27.2874", "lng": "-82.5137"}, {"name": "Feather Sound", "state": "FL", "lat": "27.9061", "lng": "-82.6813"}, {"name": "Gulfport", "state": "FL", "lat": "27.7463", "lng": "-82.7100"}, {"name": "Hollywood", "state": "FL", "lat": "26.0294", "lng": "-80.1679"}, {"name": "South Palm Beach", "state": "FL", "lat": "26.5899", "lng": "-80.0390"}, {"name": "Geneva", "state": "FL", "lat": "28.7377", "lng": "-81.1143"}, {"name": "Gulf Breeze", "state": "FL", "lat": "30.3685", "lng": "-87.1769"}, {"name": "Kissimmee", "state": "FL", "lat": "28.3042", "lng": "-81.4164"}, {"name": "Elfers", "state": "FL", "lat": "28.2140", "lng": "-82.7230"}, {"name": "Princeton", "state": "FL", "lat": "25.5396", "lng": "-80.3971"}, {"name": "Lake Lindsey", "state": "FL", "lat": "28.6322", "lng": "-82.3616"}, {"name": "Medley", "state": "FL", "lat": "25.8646", "lng": "-80.3516"}, {"name": "Lake Sarasota", "state": "FL", "lat": "27.2916", "lng": "-82.4370"}, {"name": "Esto", "state": "FL", "lat": "30.9819", "lng": "-85.6429"}, {"name": "Manatee Road", "state": "FL", "lat": "29.5147", "lng": "-82.9186"}, {"name": "Indian Creek", "state": "FL", "lat": "25.8783", "lng": "-80.1370"}, {"name": "Brandon", "state": "FL", "lat": "27.9367", "lng": "-82.3000"}, {"name": "Pebble Creek", "state": "FL", "lat": "28.1583", "lng": "-82.3411"}, {"name": "North Miami Beach", "state": "FL", "lat": "25.9302", "lng": "-80.1660"}, {"name": "Lake Hart", "state": "FL", "lat": "28.3851", "lng": "-81.2322"}, {"name": "Virginia Gardens", "state": "FL", "lat": "25.8095", "lng": "-80.2974"}, {"name": "East Palatka", "state": "FL", "lat": "29.6502", "lng": "-81.5998"}, {"name": "Shalimar", "state": "FL", "lat": "30.4434", "lng": "-86.5831"}, {"name": "Sewall's Point", "state": "FL", "lat": "27.1970", "lng": "-80.1982"}, {"name": "Milton", "state": "FL", "lat": "30.6286", "lng": "-87.0522"}, {"name": "Medulla", "state": "FL", "lat": "27.9570", "lng": "-81.9866"}, {"name": "The Hammocks", "state": "FL", "lat": "25.6700", "lng": "-80.4483"}, {"name": "Merritt Island", "state": "FL", "lat": "28.3146", "lng": "-80.6713"}, {"name": "Silver Lake", "state": "FL", "lat": "28.8436", "lng": "-81.8009"}, {"name": "Goulding", "state": "FL", "lat": "30.4396", "lng": "-87.2300"}, {"name": "Mulat", "state": "FL", "lat": "30.5595", "lng": "-87.1297"}, {"name": "Steinhatchee", "state": "FL", "lat": "29.6795", "lng": "-83.3837"}, {"name": "Franklin Park", "state": "FL", "lat": "26.1340", "lng": "-80.1762"}, {"name": "Tildenville", "state": "FL", "lat": "28.5385", "lng": "-81.6026"}, {"name": "Ebro", "state": "FL", "lat": "30.4369", "lng": "-85.8791"}, {"name": "Jasmine Estates", "state": "FL", "lat": "28.2930", "lng": "-82.6907"}, {"name": "Orlovista", "state": "FL", "lat": "28.5441", "lng": "-81.4629"}, {"name": "Manasota Key", "state": "FL", "lat": "26.9226", "lng": "-82.3537"}, {"name": "Waukeenah", "state": "FL", "lat": "30.4020", "lng": "-83.9600"}, {"name": "Naples Park", "state": "FL", "lat": "26.2633", "lng": "-81.8094"}, {"name": "McIntosh", "state": "FL", "lat": "29.4494", "lng": "-82.2211"}, {"name": "Haverhill", "state": "FL", "lat": "26.6909", "lng": "-80.1217"}, {"name": "Vernon", "state": "FL", "lat": "30.6197", "lng": "-85.7062"}, {"name": "Doctor Phillips", "state": "FL", "lat": "28.4476", "lng": "-81.4922"}, {"name": "Lighthouse Point", "state": "FL", "lat": "26.2785", "lng": "-80.0891"}, {"name": "Bunnell", "state": "FL", "lat": "29.4198", "lng": "-81.3235"}, {"name": "Apollo Beach", "state": "FL", "lat": "27.7618", "lng": "-82.4002"}, {"name": "Fanning Springs", "state": "FL", "lat": "29.5873", "lng": "-82.9245"}, {"name": "Williston Highlands", "state": "FL", "lat": "29.3336", "lng": "-82.5357"}, {"name": "Lake Harbor", "state": "FL", "lat": "26.6885", "lng": "-80.8079"}, {"name": "St. George Island", "state": "FL", "lat": "29.6520", "lng": "-84.8881"}, {"name": "Celebration", "state": "FL", "lat": "28.3102", "lng": "-81.5510"}, {"name": "Homeland", "state": "FL", "lat": "27.8181", "lng": "-81.8269"}, {"name": "South Bay", "state": "FL", "lat": "26.6784", "lng": "-80.7269"}, {"name": "New Port Richey", "state": "FL", "lat": "28.2468", "lng": "-82.7169"}, {"name": "Black Hammock", "state": "FL", "lat": "28.7107", "lng": "-81.1801"}, {"name": "Seville", "state": "FL", "lat": "29.3364", "lng": "-81.5065"}, {"name": "Oakland Park", "state": "FL", "lat": "26.1780", "lng": "-80.1528"}, {"name": "Davenport", "state": "FL", "lat": "28.1588", "lng": "-81.6084"}, {"name": "Poinciana", "state": "FL", "lat": "28.1217", "lng": "-81.4820"}, {"name": "Edgewater", "state": "FL", "lat": "28.9620", "lng": "-80.9415"}, {"name": "Briny Breezes", "state": "FL", "lat": "26.5091", "lng": "-80.0543"}, {"name": "Windsor", "state": "FL", "lat": "27.7869", "lng": "-80.4141"}, {"name": "Matlacha", "state": "FL", "lat": "26.6304", "lng": "-82.0719"}, {"name": "Ocoee", "state": "FL", "lat": "28.5787", "lng": "-81.5337"}, {"name": "Melbourne Beach", "state": "FL", "lat": "28.0668", "lng": "-80.5610"}, {"name": "Brooksville", "state": "FL", "lat": "28.5405", "lng": "-82.3903"}, {"name": "Pine Island Center", "state": "FL", "lat": "26.6352", "lng": "-82.1253"}, {"name": "De Leon Springs", "state": "FL", "lat": "29.1172", "lng": "-81.3517"}, {"name": "Cape Canaveral", "state": "FL", "lat": "28.3933", "lng": "-80.6050"}, {"name": "South Apopka", "state": "FL", "lat": "28.6569", "lng": "-81.5056"}, {"name": "Flagler Beach", "state": "FL", "lat": "29.4714", "lng": "-81.1302"}, {"name": "Cross City", "state": "FL", "lat": "29.6386", "lng": "-83.1248"}, {"name": "Campbell", "state": "FL", "lat": "28.2603", "lng": "-81.4525"}, {"name": "Heritage Pines", "state": "FL", "lat": "28.4267", "lng": "-82.6254"}, {"name": "Tavernier", "state": "FL", "lat": "25.0188", "lng": "-80.5132"}, {"name": "Richmond Heights", "state": "FL", "lat": "25.6347", "lng": "-80.3720"}, {"name": "Gretna", "state": "FL", "lat": "30.5901", "lng": "-84.6860"}, {"name": "Wright", "state": "FL", "lat": "30.4444", "lng": "-86.6420"}, {"name": "Gladeview", "state": "FL", "lat": "25.8395", "lng": "-80.2368"}, {"name": "Charlotte Park", "state": "FL", "lat": "26.9031", "lng": "-82.0486"}, {"name": "Mayo", "state": "FL", "lat": "30.0511", "lng": "-83.1768"}, {"name": "Bal Harbour", "state": "FL", "lat": "25.8935", "lng": "-80.1258"}, {"name": "Lake Mystic", "state": "FL", "lat": "30.3906", "lng": "-84.9857"}, {"name": "West Pensacola", "state": "FL", "lat": "30.4263", "lng": "-87.2679"}, {"name": "Bonifay", "state": "FL", "lat": "30.7826", "lng": "-85.6845"}, {"name": "Bay Harbor Islands", "state": "FL", "lat": "25.8878", "lng": "-80.1335"}, {"name": "Orlando", "state": "FL", "lat": "28.4772", "lng": "-81.3369"}, {"name": "St. Petersburg", "state": "FL", "lat": "27.7930", "lng": "-82.6652"}, {"name": "Cheval", "state": "FL", "lat": "28.1459", "lng": "-82.5185"}, {"name": "Yeehaw Junction", "state": "FL", "lat": "27.6993", "lng": "-80.8871"}, {"name": "Altoona", "state": "FL", "lat": "28.9681", "lng": "-81.6482"}, {"name": "Captiva", "state": "FL", "lat": "26.5205", "lng": "-82.1910"}, {"name": "Taylor Creek", "state": "FL", "lat": "27.2172", "lng": "-80.7927"}, {"name": "St. Pete Beach", "state": "FL", "lat": "27.7235", "lng": "-82.7387"}, {"name": "Siesta Key", "state": "FL", "lat": "27.2779", "lng": "-82.5516"}, {"name": "Titusville", "state": "FL", "lat": "28.5727", "lng": "-80.8193"}, {"name": "Glenvar Heights", "state": "FL", "lat": "25.7090", "lng": "-80.3156"}, {"name": "Christmas", "state": "FL", "lat": "28.5606", "lng": "-81.0201"}, {"name": "Lake Helen", "state": "FL", "lat": "28.9828", "lng": "-81.2306"}, {"name": "Hallandale Beach", "state": "FL", "lat": "25.9854", "lng": "-80.1423"}, {"name": "Naranja", "state": "FL", "lat": "25.5164", "lng": "-80.4221"}, {"name": "Crestview", "state": "FL", "lat": "30.7481", "lng": "-86.5784"}, {"name": "Ives Estates", "state": "FL", "lat": "25.9632", "lng": "-80.1830"}, {"name": "June Park", "state": "FL", "lat": "28.0718", "lng": "-80.6874"}, {"name": "Point Baker", "state": "FL", "lat": "30.6851", "lng": "-87.0522"}, {"name": "Port Salerno", "state": "FL", "lat": "27.1461", "lng": "-80.1895"}, {"name": "Palatka", "state": "FL", "lat": "29.6493", "lng": "-81.6704"}, {"name": "Ensley", "state": "FL", "lat": "30.5261", "lng": "-87.2735"}, {"name": "Palm Beach", "state": "FL", "lat": "26.6932", "lng": "-80.0406"}, {"name": "Crystal River", "state": "FL", "lat": "28.8964", "lng": "-82.5991"}, {"name": "Daytona Beach", "state": "FL", "lat": "29.1994", "lng": "-81.0982"}, {"name": "Palm Springs", "state": "FL", "lat": "26.6349", "lng": "-80.0968"}, {"name": "Ponce Inlet", "state": "FL", "lat": "29.0928", "lng": "-80.9474"}, {"name": "Buckingham", "state": "FL", "lat": "26.6615", "lng": "-81.7399"}, {"name": "Holmes Beach", "state": "FL", "lat": "27.5107", "lng": "-82.7152"}, {"name": "Palmetto", "state": "FL", "lat": "27.5251", "lng": "-82.5751"}, {"name": "Fort Myers Shores", "state": "FL", "lat": "26.7135", "lng": "-81.7383"}, {"name": "Jupiter", "state": "FL", "lat": "26.9199", "lng": "-80.1128"}, {"name": "Fish Hawk", "state": "FL", "lat": "27.8511", "lng": "-82.2164"}, {"name": "Highland Park", "state": "FL", "lat": "27.8614", "lng": "-81.5618"}, {"name": "Miami Shores", "state": "FL", "lat": "25.8670", "lng": "-80.1779"}, {"name": "Riverview", "state": "FL", "lat": "27.8227", "lng": "-82.3023"}, {"name": "Orchid", "state": "FL", "lat": "27.7733", "lng": "-80.4182"}, {"name": "San Antonio", "state": "FL", "lat": "28.3394", "lng": "-82.2787"}, {"name": "Auburndale", "state": "FL", "lat": "28.0962", "lng": "-81.8011"}, {"name": "Solana", "state": "FL", "lat": "26.9388", "lng": "-82.0278"}, {"name": "Viera East", "state": "FL", "lat": "28.2610", "lng": "-80.7150"}, {"name": "Lake Hamilton", "state": "FL", "lat": "28.0478", "lng": "-81.6270"}, {"name": "Highland City", "state": "FL", "lat": "27.9633", "lng": "-81.8781"}, {"name": "Fort Myers", "state": "FL", "lat": "26.6195", "lng": "-81.8303"}, {"name": "Venice", "state": "FL", "lat": "27.1164", "lng": "-82.4135"}, {"name": "Island Walk", "state": "FL", "lat": "26.2510", "lng": "-81.7110"}, {"name": "Oakleaf Plantation", "state": "FL", "lat": "30.1689", "lng": "-81.8337"}, {"name": "Union Park", "state": "FL", "lat": "28.5645", "lng": "-81.2354"}, {"name": "Tavares", "state": "FL", "lat": "28.7926", "lng": "-81.7366"}, {"name": "Zephyrhills", "state": "FL", "lat": "28.2405", "lng": "-82.1796"}, {"name": "Plant City", "state": "FL", "lat": "28.0140", "lng": "-82.1201"}, {"name": "Harbour Heights", "state": "FL", "lat": "26.9928", "lng": "-82.0072"}, {"name": "Lantana", "state": "FL", "lat": "26.5834", "lng": "-80.0564"}, {"name": "Fort Myers Beach", "state": "FL", "lat": "26.4323", "lng": "-81.9167"}, {"name": "South Sarasota", "state": "FL", "lat": "27.2856", "lng": "-82.5333"}, {"name": "Caryville", "state": "FL", "lat": "30.7753", "lng": "-85.8120"}, {"name": "East Williston", "state": "FL", "lat": "29.3883", "lng": "-82.4165"}, {"name": "Daytona Beach Shores", "state": "FL", "lat": "29.1725", "lng": "-80.9810"}, {"name": "Tequesta", "state": "FL", "lat": "26.9618", "lng": "-80.1011"}, {"name": "Yankeetown", "state": "FL", "lat": "29.0334", "lng": "-82.7326"}, {"name": "Acacia Villas", "state": "FL", "lat": "26.6458", "lng": "-80.1104"}, {"name": "Paradise Heights", "state": "FL", "lat": "28.6237", "lng": "-81.5439"}, {"name": "Wacissa", "state": "FL", "lat": "30.3566", "lng": "-83.9937"}, {"name": "Grant-Valkaria", "state": "FL", "lat": "27.9322", "lng": "-80.5655"}, {"name": "Egypt Lake-Leto", "state": "FL", "lat": "28.0177", "lng": "-82.5062"}, {"name": "Southgate", "state": "FL", "lat": "27.3082", "lng": "-82.5096"}, {"name": "South Miami Heights", "state": "FL", "lat": "25.5886", "lng": "-80.3862"}, {"name": "Frostproof", "state": "FL", "lat": "27.7494", "lng": "-81.5252"}, {"name": "The Villages", "state": "FL", "lat": "28.9021", "lng": "-81.9888"}, {"name": "Arcadia", "state": "FL", "lat": "27.2214", "lng": "-81.8587"}, {"name": "Istachatta", "state": "FL", "lat": "28.6633", "lng": "-82.2726"}, {"name": "Ellenton", "state": "FL", "lat": "27.5266", "lng": "-82.5261"}, {"name": "Immokalee", "state": "FL", "lat": "26.4253", "lng": "-81.4251"}, {"name": "East Milton", "state": "FL", "lat": "30.6175", "lng": "-86.9636"}, {"name": "Eustis", "state": "FL", "lat": "28.8560", "lng": "-81.6781"}, {"name": "Paxton", "state": "FL", "lat": "30.9746", "lng": "-86.3099"}, {"name": "San Castle", "state": "FL", "lat": "26.5651", "lng": "-80.0611"}, {"name": "Branford", "state": "FL", "lat": "29.9620", "lng": "-82.9238"}, {"name": "Cypress Lake", "state": "FL", "lat": "26.5391", "lng": "-81.9000"}, {"name": "Sharpes", "state": "FL", "lat": "28.4368", "lng": "-80.7555"}, {"name": "Westwood Lakes", "state": "FL", "lat": "25.7237", "lng": "-80.3717"}, {"name": "Westview", "state": "FL", "lat": "25.8826", "lng": "-80.2415"}, {"name": "Wabasso", "state": "FL", "lat": "27.7478", "lng": "-80.4363"}, {"name": "Ocean Ridge", "state": "FL", "lat": "26.5287", "lng": "-80.0499"}, {"name": "Orange Park", "state": "FL", "lat": "30.1706", "lng": "-81.7041"}, {"name": "Reddick", "state": "FL", "lat": "29.3687", "lng": "-82.1976"}, {"name": "Osprey", "state": "FL", "lat": "27.1914", "lng": "-82.4800"}, {"name": "Winter Park", "state": "FL", "lat": "28.5987", "lng": "-81.3438"}, {"name": "Webster", "state": "FL", "lat": "28.6115", "lng": "-82.0509"}, {"name": "Altamonte Springs", "state": "FL", "lat": "28.6615", "lng": "-81.3953"}, {"name": "Madeira Beach", "state": "FL", "lat": "27.7985", "lng": "-82.7887"}, {"name": "East Lake-Orient Park", "state": "FL", "lat": "27.9971", "lng": "-82.3653"}, {"name": "Callaway", "state": "FL", "lat": "30.1346", "lng": "-85.5572"}, {"name": "Crawfordville", "state": "FL", "lat": "30.1996", "lng": "-84.3634"}, {"name": "Belleview", "state": "FL", "lat": "29.0611", "lng": "-82.0565"}, {"name": "Fruitland Park", "state": "FL", "lat": "28.8601", "lng": "-81.9191"}, {"name": "Coleman", "state": "FL", "lat": "28.8013", "lng": "-82.0699"}, {"name": "Springfield", "state": "FL", "lat": "30.1713", "lng": "-85.6089"}, {"name": "St. Augustine Beach", "state": "FL", "lat": "29.8414", "lng": "-81.2713"}, {"name": "Tierra Verde", "state": "FL", "lat": "27.6684", "lng": "-82.7300"}, {"name": "Dade City North", "state": "FL", "lat": "28.3837", "lng": "-82.1943"}, {"name": "Lely", "state": "FL", "lat": "26.1032", "lng": "-81.7297"}, {"name": "Fernandina Beach", "state": "FL", "lat": "30.6580", "lng": "-81.4504"}, {"name": "Azalea Park", "state": "FL", "lat": "28.5474", "lng": "-81.2956"}, {"name": "Mango", "state": "FL", "lat": "27.9915", "lng": "-82.3070"}, {"name": "Fort Walton Beach", "state": "FL", "lat": "30.4249", "lng": "-86.6193"}, {"name": "Belleair Shore", "state": "FL", "lat": "27.9173", "lng": "-82.8455"}, {"name": "Spring Hill", "state": "FL", "lat": "28.4797", "lng": "-82.5300"}, {"name": "Bear Creek", "state": "FL", "lat": "27.7542", "lng": "-82.7285"}, {"name": "Big Pine Key", "state": "FL", "lat": "24.6893", "lng": "-81.3676"}, {"name": "Estero", "state": "FL", "lat": "26.4277", "lng": "-81.7951"}, {"name": "Cobbtown", "state": "FL", "lat": "30.8823", "lng": "-87.1212"}, {"name": "Wallace", "state": "FL", "lat": "30.6746", "lng": "-87.1996"}, {"name": "Gulf Gate Estates", "state": "FL", "lat": "27.2587", "lng": "-82.5065"}, {"name": "Mount Plymouth", "state": "FL", "lat": "28.8024", "lng": "-81.5351"}, {"name": "Trilby", "state": "FL", "lat": "28.4564", "lng": "-82.1940"}, {"name": "South Venice", "state": "FL", "lat": "27.0435", "lng": "-82.4152"}, {"name": "Cypress Quarters", "state": "FL", "lat": "27.2479", "lng": "-80.8115"}, {"name": "Forest City", "state": "FL", "lat": "28.6619", "lng": "-81.4443"}, {"name": "Eastpoint", "state": "FL", "lat": "29.7548", "lng": "-84.8693"}, {"name": "Palm Beach Shores", "state": "FL", "lat": "26.7774", "lng": "-80.0368"}, {"name": "Pine Hills", "state": "FL", "lat": "28.5818", "lng": "-81.4693"}, {"name": "Marineland", "state": "FL", "lat": "29.6656", "lng": "-81.2138"}, {"name": "Lehigh Acres", "state": "FL", "lat": "26.6120", "lng": "-81.6388"}, {"name": "Safety Harbor", "state": "FL", "lat": "28.0080", "lng": "-82.6965"}, {"name": "Oviedo", "state": "FL", "lat": "28.6580", "lng": "-81.1872"}, {"name": "Ridgecrest", "state": "FL", "lat": "27.8952", "lng": "-82.8064"}, {"name": "Belle Glade", "state": "FL", "lat": "26.6919", "lng": "-80.6672"}, {"name": "Sunrise", "state": "FL", "lat": "26.1547", "lng": "-80.2997"}, {"name": "Gonzalez", "state": "FL", "lat": "30.5822", "lng": "-87.2906"}, {"name": "Royal Palm Beach", "state": "FL", "lat": "26.7038", "lng": "-80.2241"}, {"name": "Pea Ridge", "state": "FL", "lat": "30.6029", "lng": "-87.1022"}, {"name": "Wauchula", "state": "FL", "lat": "27.5469", "lng": "-81.8103"}, {"name": "Dunedin", "state": "FL", "lat": "28.0329", "lng": "-82.7863"}, {"name": "Hialeah Gardens", "state": "FL", "lat": "25.8878", "lng": "-80.3569"}, {"name": "Wahneta", "state": "FL", "lat": "27.9574", "lng": "-81.7288"}, {"name": "Malabar", "state": "FL", "lat": "27.9885", "lng": "-80.5781"}, {"name": "Ona", "state": "FL", "lat": "27.4830", "lng": "-81.9098"}, {"name": "Westlake", "state": "FL", "lat": "26.7549", "lng": "-80.2984"}, {"name": "Pinellas Park", "state": "FL", "lat": "27.8589", "lng": "-82.7076"}, {"name": "Lady Lake", "state": "FL", "lat": "28.9240", "lng": "-81.9300"}, {"name": "Fisher Island", "state": "FL", "lat": "25.7607", "lng": "-80.1416"}, {"name": "Palmetto Bay", "state": "FL", "lat": "25.6220", "lng": "-80.3222"}, {"name": "Florida Ridge", "state": "FL", "lat": "27.5805", "lng": "-80.3848"}, {"name": "Eatonville", "state": "FL", "lat": "28.6169", "lng": "-81.3911"}, {"name": "Hilliard", "state": "FL", "lat": "30.6865", "lng": "-81.9212"}, {"name": "Fort Pierce", "state": "FL", "lat": "27.4256", "lng": "-80.3430"}, {"name": "Belleair Beach", "state": "FL", "lat": "27.9242", "lng": "-82.8358"}, {"name": "Port Orange", "state": "FL", "lat": "29.1084", "lng": "-81.0137"}, {"name": "Limestone Creek", "state": "FL", "lat": "26.9433", "lng": "-80.1408"}, {"name": "Newberry", "state": "FL", "lat": "29.6351", "lng": "-82.6047"}, {"name": "Greenwood", "state": "FL", "lat": "30.8727", "lng": "-85.1612"}, {"name": "White Springs", "state": "FL", "lat": "30.3317", "lng": "-82.7562"}, {"name": "Indialantic", "state": "FL", "lat": "28.0870", "lng": "-80.5700"}, {"name": "Orange City", "state": "FL", "lat": "28.9349", "lng": "-81.2882"}, {"name": "Marathon", "state": "FL", "lat": "24.7262", "lng": "-81.0376"}, {"name": "Clearwater", "state": "FL", "lat": "27.9788", "lng": "-82.7624"}, {"name": "Crescent Beach", "state": "FL", "lat": "29.7357", "lng": "-81.2414"}, {"name": "Wedgefield", "state": "FL", "lat": "28.4847", "lng": "-81.0808"}, {"name": "Port St. Joe", "state": "FL", "lat": "29.8267", "lng": "-85.3069"}, {"name": "Valrico", "state": "FL", "lat": "27.9193", "lng": "-82.2293"}, {"name": "Villas", "state": "FL", "lat": "26.5505", "lng": "-81.8678"}, {"name": "Lynn Haven", "state": "FL", "lat": "30.2362", "lng": "-85.6387"}, {"name": "Richmond West", "state": "FL", "lat": "25.6105", "lng": "-80.4297"}, {"name": "Neptune Beach", "state": "FL", "lat": "30.3165", "lng": "-81.4118"}, {"name": "Sunset", "state": "FL", "lat": "25.7061", "lng": "-80.3530"}, {"name": "Cortez", "state": "FL", "lat": "27.4668", "lng": "-82.6688"}, {"name": "Madison", "state": "FL", "lat": "30.4716", "lng": "-83.4130"}, {"name": "Panama City Beach", "state": "FL", "lat": "30.2369", "lng": "-85.8774"}, {"name": "Chuluota", "state": "FL", "lat": "28.6380", "lng": "-81.1158"}, {"name": "Aventura", "state": "FL", "lat": "25.9565", "lng": "-80.1372"}, {"name": "Williston", "state": "FL", "lat": "29.3734", "lng": "-82.4578"}, {"name": "Fuller Heights", "state": "FL", "lat": "27.9226", "lng": "-81.9978"}, {"name": "North Bay Village", "state": "FL", "lat": "25.8487", "lng": "-80.1535"}, {"name": "DeFuniak Springs", "state": "FL", "lat": "30.7122", "lng": "-86.1208"}, {"name": "Greenbriar", "state": "FL", "lat": "28.0112", "lng": "-82.7523"}, {"name": "Rockledge", "state": "FL", "lat": "28.3201", "lng": "-80.7320"}, {"name": "Key Biscayne", "state": "FL", "lat": "25.6908", "lng": "-80.1653"}, {"name": "Homestead", "state": "FL", "lat": "25.4665", "lng": "-80.4472"}, {"name": "Fountainebleau", "state": "FL", "lat": "25.7723", "lng": "-80.3458"}, {"name": "Roosevelt Gardens", "state": "FL", "lat": "26.1407", "lng": "-80.1809"}, {"name": "Dickerson City", "state": "FL", "lat": "30.4826", "lng": "-87.0651"}, {"name": "Bithlo", "state": "FL", "lat": "28.5644", "lng": "-81.1074"}, {"name": "Lake Belvedere Estates", "state": "FL", "lat": "26.6888", "lng": "-80.1371"}, {"name": "Raiford", "state": "FL", "lat": "30.0638", "lng": "-82.2390"}, {"name": "Southeast Arcadia", "state": "FL", "lat": "27.1862", "lng": "-81.8521"}, {"name": "Pretty Bayou", "state": "FL", "lat": "30.1976", "lng": "-85.6975"}, {"name": "Juno Beach", "state": "FL", "lat": "26.8754", "lng": "-80.0589"}, {"name": "Ocala", "state": "FL", "lat": "29.1780", "lng": "-82.1511"}, {"name": "North Port", "state": "FL", "lat": "27.0577", "lng": "-82.1975"}, {"name": "Bay Lake", "state": "FL", "lat": "28.3869", "lng": "-81.5756"}, {"name": "East Lake", "state": "FL", "lat": "28.1205", "lng": "-82.6868"}, {"name": "Indian Shores", "state": "FL", "lat": "27.8536", "lng": "-82.8438"}, {"name": "Stock Island", "state": "FL", "lat": "24.5658", "lng": "-81.7351"}, {"name": "Hutchinson Island South", "state": "FL", "lat": "27.3243", "lng": "-80.2425"}, {"name": "Cedar Grove", "state": "FL", "lat": "30.1812", "lng": "-85.6268"}, {"name": "Miramar Beach", "state": "FL", "lat": "30.3854", "lng": "-86.3443"}, {"name": "Nassau Village-Ratliff", "state": "FL", "lat": "30.5109", "lng": "-81.8088"}, {"name": "East Bronson", "state": "FL", "lat": "29.4593", "lng": "-82.5905"}, {"name": "Longboat Key", "state": "FL", "lat": "27.3926", "lng": "-82.6341"}, {"name": "Sun City Center", "state": "FL", "lat": "27.7149", "lng": "-82.3569"}, {"name": "Weeki Wachee Gardens", "state": "FL", "lat": "28.5375", "lng": "-82.6208"}, {"name": "Golden Gate", "state": "FL", "lat": "26.1844", "lng": "-81.7031"}, {"name": "San Carlos Park", "state": "FL", "lat": "26.4765", "lng": "-81.8193"}, {"name": "Lake Mack-Forest Hills", "state": "FL", "lat": "29.0006", "lng": "-81.4240"}, {"name": "Riviera Beach", "state": "FL", "lat": "26.7812", "lng": "-80.0741"}, {"name": "Odessa", "state": "FL", "lat": "28.1820", "lng": "-82.5530"}, {"name": "Hillsboro Pines", "state": "FL", "lat": "26.3253", "lng": "-80.1947"}, {"name": "West Park", "state": "FL", "lat": "25.9840", "lng": "-80.1923"}, {"name": "Avon Park", "state": "FL", "lat": "27.5908", "lng": "-81.5081"}, {"name": "Zephyrhills West", "state": "FL", "lat": "28.2312", "lng": "-82.2052"}, {"name": "Alva", "state": "FL", "lat": "26.7188", "lng": "-81.6269"}, {"name": "Olga", "state": "FL", "lat": "26.7113", "lng": "-81.6950"}, {"name": "Keystone Heights", "state": "FL", "lat": "29.7812", "lng": "-82.0340"}, {"name": "South Bradenton", "state": "FL", "lat": "27.4612", "lng": "-82.5821"}, {"name": "Sweetwater", "state": "FL", "lat": "25.7786", "lng": "-80.3760"}, {"name": "Destin", "state": "FL", "lat": "30.3950", "lng": "-86.4701"}, {"name": "Brownsdale", "state": "FL", "lat": "30.8859", "lng": "-87.2218"}, {"name": "McGregor", "state": "FL", "lat": "26.5611", "lng": "-81.9134"}, {"name": "Silver Springs Shores", "state": "FL", "lat": "29.1031", "lng": "-82.0050"}, {"name": "Lutz", "state": "FL", "lat": "28.1396", "lng": "-82.4467"}, {"name": "Lake Magdalene", "state": "FL", "lat": "28.0875", "lng": "-82.4791"}, {"name": "Alturas", "state": "FL", "lat": "27.8419", "lng": "-81.6952"}, {"name": "Belleair", "state": "FL", "lat": "27.9365", "lng": "-82.8114"}, {"name": "Bay Hill", "state": "FL", "lat": "28.4558", "lng": "-81.5122"}, {"name": "Big Coppitt Key", "state": "FL", "lat": "24.5915", "lng": "-81.6574"}, {"name": "Palm Bay", "state": "FL", "lat": "27.9550", "lng": "-80.6628"}, {"name": "Whitfield", "state": "FL", "lat": "27.4116", "lng": "-82.5659"}, {"name": "Dover", "state": "FL", "lat": "27.9927", "lng": "-82.2198"}, {"name": "Key Colony Beach", "state": "FL", "lat": "24.7233", "lng": "-81.0215"}, {"name": "Horizon West", "state": "FL", "lat": "28.4417", "lng": "-81.6145"}, {"name": "Hill 'n Dale", "state": "FL", "lat": "28.5190", "lng": "-82.2918"}, {"name": "Cottondale", "state": "FL", "lat": "30.7891", "lng": "-85.3643"}, {"name": "Baldwin", "state": "FL", "lat": "30.3051", "lng": "-81.9744"}, {"name": "Starke", "state": "FL", "lat": "29.9474", "lng": "-82.1129"}, {"name": "Viera West", "state": "FL", "lat": "28.2430", "lng": "-80.7368"}, {"name": "Three Oaks", "state": "FL", "lat": "26.4738", "lng": "-81.7960"}, {"name": "Lemon Grove", "state": "FL", "lat": "27.5765", "lng": "-81.6360"}, {"name": "Apopka", "state": "FL", "lat": "28.7013", "lng": "-81.5303"}, {"name": "Fleming Island", "state": "FL", "lat": "30.0988", "lng": "-81.7124"}, {"name": "Ferndale", "state": "FL", "lat": "28.6220", "lng": "-81.7014"}, {"name": "Englewood", "state": "FL", "lat": "26.9603", "lng": "-82.3535"}, {"name": "Grove City", "state": "FL", "lat": "26.9071", "lng": "-82.3258"}, {"name": "Boulevard Gardens", "state": "FL", "lat": "26.1252", "lng": "-80.1822"}, {"name": "Moore Haven", "state": "FL", "lat": "26.8338", "lng": "-81.0985"}, {"name": "West Lealman", "state": "FL", "lat": "27.8191", "lng": "-82.7385"}, {"name": "South Pasadena", "state": "FL", "lat": "27.7526", "lng": "-82.7394"}, {"name": "Fort Green Springs", "state": "FL", "lat": "27.5876", "lng": "-81.9402"}, {"name": "Pioneer", "state": "FL", "lat": "26.7258", "lng": "-81.2190"}, {"name": "Miami Lakes", "state": "FL", "lat": "25.9125", "lng": "-80.3214"}, {"name": "North Miami", "state": "FL", "lat": "25.9007", "lng": "-80.1686"}, {"name": "Cutler Bay", "state": "FL", "lat": "25.5765", "lng": "-80.3356"}, {"name": "Jennings", "state": "FL", "lat": "30.5968", "lng": "-83.1070"}, {"name": "Lake Buena Vista", "state": "FL", "lat": "28.3790", "lng": "-81.5262"}, {"name": "Winter Haven", "state": "FL", "lat": "28.0118", "lng": "-81.7017"}, {"name": "Vero Beach", "state": "FL", "lat": "27.6463", "lng": "-80.3930"}, {"name": "Haines City", "state": "FL", "lat": "28.1100", "lng": "-81.6157"}, {"name": "Punta Rassa", "state": "FL", "lat": "26.5036", "lng": "-81.9998"}, {"name": "Jasper", "state": "FL", "lat": "30.5064", "lng": "-82.9541"}, {"name": "Ormond-by-the-Sea", "state": "FL", "lat": "29.3437", "lng": "-81.0677"}, {"name": "Southwest Ranches", "state": "FL", "lat": "26.0477", "lng": "-80.3752"}, {"name": "Glen Ridge", "state": "FL", "lat": "26.6715", "lng": "-80.0753"}, {"name": "Otter Creek", "state": "FL", "lat": "29.3238", "lng": "-82.7734"}, {"name": "Eglin AFB", "state": "FL", "lat": "30.4592", "lng": "-86.5499"}, {"name": "Warrington", "state": "FL", "lat": "30.3821", "lng": "-87.2944"}, {"name": "Golden Beach", "state": "FL", "lat": "25.9660", "lng": "-80.1210"}, {"name": "Willow Oak", "state": "FL", "lat": "27.9216", "lng": "-82.0244"}, {"name": "Buckhead Ridge", "state": "FL", "lat": "27.1330", "lng": "-80.8868"}, {"name": "Beverly Hills", "state": "FL", "lat": "28.9175", "lng": "-82.4541"}, {"name": "Pine Ridge", "state": "FL", "lat": "28.9330", "lng": "-82.4761"}, {"name": "Lake Mary", "state": "FL", "lat": "28.7592", "lng": "-81.3360"}, {"name": "Watertown", "state": "FL", "lat": "30.1855", "lng": "-82.6026"}, {"name": "Allentown", "state": "FL", "lat": "30.7736", "lng": "-87.0808"}, {"name": "South Brooksville", "state": "FL", "lat": "28.5243", "lng": "-82.4158"}, {"name": "Middleburg", "state": "FL", "lat": "30.0502", "lng": "-81.9011"}, {"name": "St. Augustine", "state": "FL", "lat": "29.8977", "lng": "-81.3100"}, {"name": "Hawthorne", "state": "FL", "lat": "29.5922", "lng": "-82.0916"}, {"name": "Havana", "state": "FL", "lat": "30.6298", "lng": "-84.4133"}, {"name": "Maitland", "state": "FL", "lat": "28.6295", "lng": "-81.3718"}, {"name": "Marco Island", "state": "FL", "lat": "25.9330", "lng": "-81.6993"}, {"name": "Key West", "state": "FL", "lat": "24.5637", "lng": "-81.7768"}, {"name": "Biscayne Park", "state": "FL", "lat": "25.8817", "lng": "-80.1813"}, {"name": "Waverly", "state": "FL", "lat": "27.9841", "lng": "-81.6197"}, {"name": "Penney Farms", "state": "FL", "lat": "29.9807", "lng": "-81.8108"}, {"name": "Chattahoochee", "state": "FL", "lat": "30.6977", "lng": "-84.8341"}, {"name": "Indian Harbour Beach", "state": "FL", "lat": "28.1529", "lng": "-80.5976"}, {"name": "Atlantic Beach", "state": "FL", "lat": "30.3372", "lng": "-81.4128"}, {"name": "Inwood", "state": "FL", "lat": "28.0391", "lng": "-81.7677"}, {"name": "Rio Pinar", "state": "FL", "lat": "28.5271", "lng": "-81.2628"}, {"name": "Holden Heights", "state": "FL", "lat": "28.5013", "lng": "-81.3877"}, {"name": "Freeport", "state": "FL", "lat": "30.5040", "lng": "-86.1390"}, {"name": "Hialeah", "state": "FL", "lat": "25.8696", "lng": "-80.3046"}, {"name": "Zellwood", "state": "FL", "lat": "28.7301", "lng": "-81.5915"}, {"name": "Northdale", "state": "FL", "lat": "28.1058", "lng": "-82.5263"}, {"name": "Greenville", "state": "FL", "lat": "30.4667", "lng": "-83.6352"}, {"name": "Sarasota", "state": "FL", "lat": "27.3386", "lng": "-82.5430"}, {"name": "Andrews", "state": "FL", "lat": "29.5482", "lng": "-82.8880"}, {"name": "Gibsonton", "state": "FL", "lat": "27.8260", "lng": "-82.3761"}, {"name": "Miami Beach", "state": "FL", "lat": "25.8171", "lng": "-80.1396"}, {"name": "Bellair-Meadowbrook Terrace", "state": "FL", "lat": "30.1796", "lng": "-81.7375"}, {"name": "Westgate", "state": "FL", "lat": "26.6994", "lng": "-80.0989"}, {"name": "Land O' Lakes", "state": "FL", "lat": "28.2075", "lng": "-82.4476"}, {"name": "Bellview", "state": "FL", "lat": "30.4620", "lng": "-87.3120"}, {"name": "Seminole", "state": "FL", "lat": "27.8434", "lng": "-82.7839"}, {"name": "Zephyrhills North", "state": "FL", "lat": "28.2519", "lng": "-82.1653"}, {"name": "Inverness", "state": "FL", "lat": "28.8397", "lng": "-82.3437"}, {"name": "Nobleton", "state": "FL", "lat": "28.6451", "lng": "-82.2620"}, {"name": "Melbourne Village", "state": "FL", "lat": "28.0880", "lng": "-80.6652"}, {"name": "Bardmoor", "state": "FL", "lat": "27.8575", "lng": "-82.7534"}, {"name": "Navarre Beach", "state": "FL", "lat": "30.3830", "lng": "-86.8879"}, {"name": "Tangelo Park", "state": "FL", "lat": "28.4560", "lng": "-81.4465"}, {"name": "Charleston Park", "state": "FL", "lat": "26.7057", "lng": "-81.5806"}, {"name": "Coral Terrace", "state": "FL", "lat": "25.7464", "lng": "-80.3049"}, {"name": "Valparaiso", "state": "FL", "lat": "30.4926", "lng": "-86.5079"}, {"name": "Kenwood Estates", "state": "FL", "lat": "26.6276", "lng": "-80.1151"}, {"name": "Key Largo", "state": "FL", "lat": "25.1224", "lng": "-80.4120"}, {"name": "Pahokee", "state": "FL", "lat": "26.8202", "lng": "-80.6622"}, {"name": "Jensen Beach", "state": "FL", "lat": "27.2438", "lng": "-80.2423"}, {"name": "Aripeka", "state": "FL", "lat": "28.4308", "lng": "-82.6669"}, {"name": "Eagle Lake", "state": "FL", "lat": "27.9760", "lng": "-81.7573"}, {"name": "Florida City", "state": "FL", "lat": "25.4418", "lng": "-80.4685"}, {"name": "Garcon Point", "state": "FL", "lat": "30.4759", "lng": "-87.0899"}, {"name": "Cape Coral", "state": "FL", "lat": "26.6445", "lng": "-81.9955"}, {"name": "Pinewood", "state": "FL", "lat": "25.8697", "lng": "-80.2174"}, {"name": "Citrus Springs", "state": "FL", "lat": "28.9931", "lng": "-82.4595"}, {"name": "Pinecrest", "state": "FL", "lat": "25.6650", "lng": "-80.3042"}, {"name": "Wildwood", "state": "FL", "lat": "28.8014", "lng": "-82.0058"}, {"name": "Tallahassee", "state": "FL", "lat": "30.4551", "lng": "-84.2527"}, {"name": "St. Augustine Shores", "state": "FL", "lat": "29.8039", "lng": "-81.3086"}, {"name": "Chipley", "state": "FL", "lat": "30.7752", "lng": "-85.5406"}, {"name": "St. Leo", "state": "FL", "lat": "28.3361", "lng": "-82.2590"}, {"name": "Alachua", "state": "FL", "lat": "29.7781", "lng": "-82.4828"}, {"name": "Ocean City", "state": "FL", "lat": "30.4398", "lng": "-86.6071"}, {"name": "Fern Park", "state": "FL", "lat": "28.6484", "lng": "-81.3457"}, {"name": "Seffner", "state": "FL", "lat": "27.9981", "lng": "-82.2735"}, {"name": "Citrus Hills", "state": "FL", "lat": "28.8870", "lng": "-82.4311"}, {"name": "Jupiter Inlet Colony", "state": "FL", "lat": "26.9480", "lng": "-80.0755"}, {"name": "South Beach", "state": "FL", "lat": "27.5883", "lng": "-80.3435"}, {"name": "Yulee", "state": "FL", "lat": "30.6350", "lng": "-81.5678"}, {"name": "Pittman", "state": "FL", "lat": "28.9967", "lng": "-81.6462"}, {"name": "University Park", "state": "FL", "lat": "25.7469", "lng": "-80.3684"}, {"name": "Alford", "state": "FL", "lat": "30.6967", "lng": "-85.3952"}, {"name": "Sarasota Springs", "state": "FL", "lat": "27.3092", "lng": "-82.4788"}, {"name": "Malone", "state": "FL", "lat": "30.9589", "lng": "-85.1622"}, {"name": "White City", "state": "FL", "lat": "27.3722", "lng": "-80.3403"}, {"name": "West Samoset", "state": "FL", "lat": "27.4703", "lng": "-82.5552"}, {"name": "Taft", "state": "FL", "lat": "28.4283", "lng": "-81.3677"}, {"name": "Deltona", "state": "FL", "lat": "28.9050", "lng": "-81.2136"}, {"name": "Gifford", "state": "FL", "lat": "27.6747", "lng": "-80.4102"}, {"name": "Bee Ridge", "state": "FL", "lat": "27.2855", "lng": "-82.4731"}, {"name": "Perry", "state": "FL", "lat": "30.1090", "lng": "-83.5821"}, {"name": "Quincy", "state": "FL", "lat": "30.5659", "lng": "-84.5857"}, {"name": "Casselberry", "state": "FL", "lat": "28.6625", "lng": "-81.3218"}, {"name": "Homosassa Springs", "state": "FL", "lat": "28.8118", "lng": "-82.5392"}, {"name": "Cocoa West", "state": "FL", "lat": "28.3595", "lng": "-80.7712"}, {"name": "Beverly Beach", "state": "FL", "lat": "29.5165", "lng": "-81.1475"}, {"name": "Weeki Wachee", "state": "FL", "lat": "28.5170", "lng": "-82.5774"}, {"name": "Thonotosassa", "state": "FL", "lat": "28.0464", "lng": "-82.2910"}, {"name": "Flagler Estates", "state": "FL", "lat": "29.6442", "lng": "-81.4570"}, {"name": "Delray Beach", "state": "FL", "lat": "26.4550", "lng": "-80.0905"}, {"name": "Limestone", "state": "FL", "lat": "27.3672", "lng": "-81.9048"}, {"name": "Palm Shores", "state": "FL", "lat": "28.1918", "lng": "-80.6593"}, {"name": "Noma", "state": "FL", "lat": "30.9802", "lng": "-85.6223"}, {"name": "Samoset", "state": "FL", "lat": "27.4752", "lng": "-82.5430"}, {"name": "Schall Circle", "state": "FL", "lat": "26.7152", "lng": "-80.1143"}, {"name": "Mexico Beach", "state": "FL", "lat": "29.9480", "lng": "-85.4157"}, {"name": "Everglades", "state": "FL", "lat": "25.8579", "lng": "-81.3862"}, {"name": "Sebastian", "state": "FL", "lat": "27.7883", "lng": "-80.4815"}, {"name": "Whiskey Creek", "state": "FL", "lat": "26.5733", "lng": "-81.8903"}, {"name": "Wellington", "state": "FL", "lat": "26.6464", "lng": "-80.2706"}, {"name": "Lauderhill", "state": "FL", "lat": "26.1605", "lng": "-80.2242"}, {"name": "Jupiter Island", "state": "FL", "lat": "27.0451", "lng": "-80.1101"}, {"name": "Tamiami", "state": "FL", "lat": "25.7556", "lng": "-80.4016"}, {"name": "Roseland", "state": "FL", "lat": "27.8361", "lng": "-80.4884"}, {"name": "Winter Garden", "state": "FL", "lat": "28.5421", "lng": "-81.5966"}, {"name": "Loughman", "state": "FL", "lat": "28.2380", "lng": "-81.5682"}, {"name": "Woodlawn Beach", "state": "FL", "lat": "30.3861", "lng": "-86.9931"}, {"name": "North Sarasota", "state": "FL", "lat": "27.3711", "lng": "-82.5177"}, {"name": "Grenelefe", "state": "FL", "lat": "28.0579", "lng": "-81.5538"}, {"name": "Bayshore Gardens", "state": "FL", "lat": "27.4345", "lng": "-82.5794"}, {"name": "North River Shores", "state": "FL", "lat": "27.2223", "lng": "-80.2738"}, {"name": "Lakeland Highlands", "state": "FL", "lat": "27.9572", "lng": "-81.9496"}, {"name": "Golf", "state": "FL", "lat": "26.5043", "lng": "-80.1090"}, {"name": "Hunters Creek", "state": "FL", "lat": "28.3611", "lng": "-81.4357"}, {"name": "Lacoochee", "state": "FL", "lat": "28.4655", "lng": "-82.1698"}, {"name": "Fussels Corner", "state": "FL", "lat": "28.0574", "lng": "-81.8610"}, {"name": "Lake Park", "state": "FL", "lat": "26.7998", "lng": "-80.0685"}, {"name": "Washington Park", "state": "FL", "lat": "26.1304", "lng": "-80.1801"}, {"name": "Cypress Gardens", "state": "FL", "lat": "28.0036", "lng": "-81.6858"}, {"name": "Lake Clarke Shores", "state": "FL", "lat": "26.6460", "lng": "-80.0752"}, {"name": "Key Vista", "state": "FL", "lat": "28.1946", "lng": "-82.7703"}, {"name": "Dade City", "state": "FL", "lat": "28.3568", "lng": "-82.1941"}, {"name": "DeLand Southwest", "state": "FL", "lat": "29.0076", "lng": "-81.3113"}, {"name": "Micco", "state": "FL", "lat": "27.8683", "lng": "-80.5100"}, {"name": "Howey-in-the-Hills", "state": "FL", "lat": "28.7098", "lng": "-81.7798"}, {"name": "Brooker", "state": "FL", "lat": "29.8877", "lng": "-82.3327"}, {"name": "Umatilla", "state": "FL", "lat": "28.9274", "lng": "-81.6651"}, {"name": "Wabasso Beach", "state": "FL", "lat": "27.7569", "lng": "-80.3992"}, {"name": "Windermere", "state": "FL", "lat": "28.5035", "lng": "-81.5410"}, {"name": "Westville", "state": "FL", "lat": "30.7697", "lng": "-85.8465"}, {"name": "Callahan", "state": "FL", "lat": "30.5619", "lng": "-81.8320"}, {"name": "Laurel", "state": "FL", "lat": "27.1446", "lng": "-82.4618"}, {"name": "Paisley", "state": "FL", "lat": "28.9850", "lng": "-81.5404"}, {"name": "Leisure City", "state": "FL", "lat": "25.4937", "lng": "-80.4369"}, {"name": "LaBelle", "state": "FL", "lat": "26.7219", "lng": "-81.4506"}, {"name": "Pembroke Pines", "state": "FL", "lat": "26.0128", "lng": "-80.3382"}, {"name": "North Palm Beach", "state": "FL", "lat": "26.8217", "lng": "-80.0577"}, {"name": "Bell", "state": "FL", "lat": "29.7569", "lng": "-82.8620"}, {"name": "Sorrento", "state": "FL", "lat": "28.8087", "lng": "-81.5631"}, {"name": "Pasadena Hills", "state": "FL", "lat": "28.2880", "lng": "-82.2379"}, {"name": "Punta Gorda", "state": "FL", "lat": "26.8934", "lng": "-82.0516"}, {"name": "North Fort Myers", "state": "FL", "lat": "26.7243", "lng": "-81.8491"}, {"name": "West Melbourne", "state": "FL", "lat": "28.0693", "lng": "-80.6734"}, {"name": "Sneads", "state": "FL", "lat": "30.7085", "lng": "-84.9249"}, {"name": "Springhill", "state": "FL", "lat": "30.7566", "lng": "-86.9329"}, {"name": "Pace", "state": "FL", "lat": "30.6187", "lng": "-87.1667"}, {"name": "Temple Terrace", "state": "FL", "lat": "28.0437", "lng": "-82.3774"}, {"name": "Century", "state": "FL", "lat": "30.9766", "lng": "-87.2629"}, {"name": "Lawtey", "state": "FL", "lat": "30.0484", "lng": "-82.0724"}, {"name": "Fellsmere", "state": "FL", "lat": "27.7241", "lng": "-80.5974"}, {"name": "Minneola", "state": "FL", "lat": "28.6067", "lng": "-81.7321"}, {"name": "Masaryktown", "state": "FL", "lat": "28.4417", "lng": "-82.4610"}, {"name": "Orangetree", "state": "FL", "lat": "26.2930", "lng": "-81.5786"}, {"name": "North Brooksville", "state": "FL", "lat": "28.5731", "lng": "-82.3745"}, {"name": "Hillcrest Heights", "state": "FL", "lat": "27.8083", "lng": "-81.5695"}, {"name": "Combee Settlement", "state": "FL", "lat": "28.0596", "lng": "-81.9053"}, {"name": "Juno Ridge", "state": "FL", "lat": "26.8491", "lng": "-80.0620"}, {"name": "Satellite Beach", "state": "FL", "lat": "28.1782", "lng": "-80.6019"}, {"name": "Okeechobee", "state": "FL", "lat": "27.2414", "lng": "-80.8298"}, {"name": "Monticello", "state": "FL", "lat": "30.5422", "lng": "-83.8722"}, {"name": "North Lauderdale", "state": "FL", "lat": "26.2113", "lng": "-80.2209"}, {"name": "Yalaha", "state": "FL", "lat": "28.7509", "lng": "-81.8194"}, {"name": "Clermont", "state": "FL", "lat": "28.5403", "lng": "-81.7296"}, {"name": "Floral City", "state": "FL", "lat": "28.7065", "lng": "-82.3090"}, {"name": "Hastings", "state": "FL", "lat": "29.7104", "lng": "-81.5102"}, {"name": "Sugarmill Woods", "state": "FL", "lat": "28.7321", "lng": "-82.4986"}, {"name": "Connerton", "state": "FL", "lat": "28.3022", "lng": "-82.4624"}, {"name": "Winter Springs", "state": "FL", "lat": "28.6889", "lng": "-81.2704"}, {"name": "St. Lucie Village", "state": "FL", "lat": "27.4966", "lng": "-80.3416"}, {"name": "Doral", "state": "FL", "lat": "25.8151", "lng": "-80.3565"}, {"name": "El Portal", "state": "FL", "lat": "25.8556", "lng": "-80.1954"}, {"name": "Fort Denaud", "state": "FL", "lat": "26.7404", "lng": "-81.5241"}, {"name": "Canal Point", "state": "FL", "lat": "26.8626", "lng": "-80.6222"}, {"name": "Carrabelle", "state": "FL", "lat": "29.8555", "lng": "-84.6685"}, {"name": "Palmona Park", "state": "FL", "lat": "26.6892", "lng": "-81.8946"}, {"name": "Garden Grove", "state": "FL", "lat": "28.4716", "lng": "-82.4348"}, {"name": "Astatula", "state": "FL", "lat": "28.7065", "lng": "-81.7346"}, {"name": "Wesley Chapel", "state": "FL", "lat": "28.2106", "lng": "-82.3238"}, {"name": "Golden Glades", "state": "FL", "lat": "25.9129", "lng": "-80.2013"}, {"name": "Jacksonville", "state": "FL", "lat": "30.3322", "lng": "-81.6749"}, {"name": "Morriston", "state": "FL", "lat": "29.2811", "lng": "-82.4400"}, {"name": "West Perrine", "state": "FL", "lat": "25.6061", "lng": "-80.3639"}, {"name": "Sebring", "state": "FL", "lat": "27.4770", "lng": "-81.4530"}, {"name": "La Crosse", "state": "FL", "lat": "29.8395", "lng": "-82.3783"}, {"name": "Port Richey", "state": "FL", "lat": "28.2758", "lng": "-82.7250"}, {"name": "Pine Island", "state": "FL", "lat": "28.5727", "lng": "-82.6545"}, {"name": "Molino", "state": "FL", "lat": "30.7123", "lng": "-87.3240"}, {"name": "Brent", "state": "FL", "lat": "30.4729", "lng": "-87.2496"}, {"name": "Inglis", "state": "FL", "lat": "29.0321", "lng": "-82.6602"}, {"name": "Indiantown", "state": "FL", "lat": "27.0375", "lng": "-80.4913"}, {"name": "Mount Carmel", "state": "FL", "lat": "30.9868", "lng": "-87.1210"}, {"name": "Broadview Park", "state": "FL", "lat": "26.0979", "lng": "-80.2088"}, {"name": "St. Marks", "state": "FL", "lat": "30.1656", "lng": "-84.2078"}, {"name": "Melbourne", "state": "FL", "lat": "28.1085", "lng": "-80.6627"}, {"name": "Stuart", "state": "FL", "lat": "27.1958", "lng": "-80.2438"}, {"name": "Crescent City", "state": "FL", "lat": "29.4375", "lng": "-81.5173"}, {"name": "Sopchoppy", "state": "FL", "lat": "30.0598", "lng": "-84.4854"}, {"name": "Dunnellon", "state": "FL", "lat": "29.0529", "lng": "-82.4410"}, {"name": "Lake City", "state": "FL", "lat": "30.1901", "lng": "-82.6471"}, {"name": "Port Charlotte", "state": "FL", "lat": "26.9918", "lng": "-82.1140"}, {"name": "Kathleen", "state": "FL", "lat": "28.1224", "lng": "-82.0387"}, {"name": "Spring Lake", "state": "FL", "lat": "28.4952", "lng": "-82.3017"}, {"name": "Wimauma", "state": "FL", "lat": "27.6964", "lng": "-82.3034"}, {"name": "Atlantis", "state": "FL", "lat": "26.5962", "lng": "-80.1030"}, {"name": "Mulberry", "state": "FL", "lat": "27.9058", "lng": "-81.9873"}, {"name": "High Springs", "state": "FL", "lat": "29.8080", "lng": "-82.5949"}, {"name": "Spring Ridge", "state": "FL", "lat": "29.8218", "lng": "-82.7245"}, {"name": "Seminole Manor", "state": "FL", "lat": "26.5840", "lng": "-80.1001"}, {"name": "Quail Ridge", "state": "FL", "lat": "28.3451", "lng": "-82.5535"}, {"name": "Longwood", "state": "FL", "lat": "28.7014", "lng": "-81.3487"}, {"name": "Southchase", "state": "FL", "lat": "28.3793", "lng": "-81.3903"}, {"name": "Pembroke Park", "state": "FL", "lat": "25.9852", "lng": "-80.1777"}, {"name": "Montura", "state": "FL", "lat": "26.6429", "lng": "-81.0938"}, {"name": "Graceville", "state": "FL", "lat": "30.9609", "lng": "-85.5123"}, {"name": "Patrick AFB", "state": "FL", "lat": "28.2346", "lng": "-80.6079"}, {"name": "Panama City", "state": "FL", "lat": "30.1995", "lng": "-85.6003"}, {"name": "Lauderdale Lakes", "state": "FL", "lat": "26.1682", "lng": "-80.2017"}, {"name": "Coral Springs", "state": "FL", "lat": "26.2702", "lng": "-80.2591"}, {"name": "Clarcona", "state": "FL", "lat": "28.6201", "lng": "-81.5002"}, {"name": "Gainesville", "state": "FL", "lat": "29.6804", "lng": "-82.3458"}, {"name": "Hosford", "state": "FL", "lat": "30.3944", "lng": "-84.8034"}, {"name": "The Acreage", "state": "FL", "lat": "26.7741", "lng": "-80.2779"}, {"name": "South Gate Ridge", "state": "FL", "lat": "27.2856", "lng": "-82.4970"}, {"name": "Interlachen", "state": "FL", "lat": "29.6203", "lng": "-81.8965"}, {"name": "Apalachicola", "state": "FL", "lat": "29.7282", "lng": "-84.9940"}, {"name": "Watergate", "state": "FL", "lat": "26.3359", "lng": "-80.2126"}, {"name": "Hampton", "state": "FL", "lat": "29.8643", "lng": "-82.1380"}, {"name": "Green Cove Springs", "state": "FL", "lat": "29.9904", "lng": "-81.6807"}, {"name": "Groveland", "state": "FL", "lat": "28.6021", "lng": "-81.8205"}, {"name": "Lake Butler", "state": "FL", "lat": "30.0180", "lng": "-82.3424"}, {"name": "Kendall West", "state": "FL", "lat": "25.7065", "lng": "-80.4388"}, {"name": "North DeLand", "state": "FL", "lat": "29.0484", "lng": "-81.2966"}, {"name": "Samsula-Spruce Creek", "state": "FL", "lat": "29.0484", "lng": "-81.0628"}, {"name": "Cinco Bayou", "state": "FL", "lat": "30.4223", "lng": "-86.6095"}, {"name": "North Weeki Wachee", "state": "FL", "lat": "28.5591", "lng": "-82.5537"}, {"name": "Avalon", "state": "FL", "lat": "30.5365", "lng": "-87.1009"}, {"name": "Glen St. Mary", "state": "FL", "lat": "30.2752", "lng": "-82.1603"}, {"name": "Chiefland", "state": "FL", "lat": "29.4892", "lng": "-82.8663"}, {"name": "Inverness Highlands North", "state": "FL", "lat": "28.8642", "lng": "-82.3768"}, {"name": "West Bradenton", "state": "FL", "lat": "27.5016", "lng": "-82.6146"}, {"name": "Bloomingdale", "state": "FL", "lat": "27.8784", "lng": "-82.2624"}, {"name": "Moon Lake", "state": "FL", "lat": "28.2993", "lng": "-82.6049"}, {"name": "Indian River Estates", "state": "FL", "lat": "27.3564", "lng": "-80.2984"}, {"name": "Black Diamond", "state": "FL", "lat": "28.9066", "lng": "-82.4947"}, {"name": "Cloud Lake", "state": "FL", "lat": "26.6743", "lng": "-80.0731"}, {"name": "Ormond Beach", "state": "FL", "lat": "29.2960", "lng": "-81.1003"}, {"name": "Redington Beach", "state": "FL", "lat": "27.8128", "lng": "-82.8096"}, {"name": "Palm Coast", "state": "FL", "lat": "29.5392", "lng": "-81.2460"}, {"name": "Duck Key", "state": "FL", "lat": "24.7710", "lng": "-80.9132"}, {"name": "Homosassa", "state": "FL", "lat": "28.7849", "lng": "-82.6079"}, {"name": "Lee", "state": "FL", "lat": "30.4115", "lng": "-83.3003"}, {"name": "Iona", "state": "FL", "lat": "26.5160", "lng": "-81.9601"}, {"name": "Fairview Shores", "state": "FL", "lat": "28.6021", "lng": "-81.3946"}, {"name": "Fort Pierce North", "state": "FL", "lat": "27.4736", "lng": "-80.3594"}, {"name": "Sanibel", "state": "FL", "lat": "26.4534", "lng": "-82.1023"}, {"name": "DeLand", "state": "FL", "lat": "29.0224", "lng": "-81.2873"}, {"name": "Altha", "state": "FL", "lat": "30.5722", "lng": "-85.1264"}, {"name": "Pineland", "state": "FL", "lat": "26.6643", "lng": "-82.1477"}, {"name": "The Meadows", "state": "FL", "lat": "27.3653", "lng": "-82.4725"}, {"name": "Gateway", "state": "FL", "lat": "26.5804", "lng": "-81.7453"}, {"name": "Meadow Oaks", "state": "FL", "lat": "28.3465", "lng": "-82.6025"}, {"name": "Winter Beach", "state": "FL", "lat": "27.7120", "lng": "-80.4254"}, {"name": "Worthington Springs", "state": "FL", "lat": "29.9330", "lng": "-82.4148"}, {"name": "Hudson", "state": "FL", "lat": "28.3594", "lng": "-82.6888"}, {"name": "Fruit Cove", "state": "FL", "lat": "30.0972", "lng": "-81.6176"}, {"name": "Ocean Breeze Park", "state": "FL", "lat": "27.2359", "lng": "-80.2206"}, {"name": "Jacob City", "state": "FL", "lat": "30.8925", "lng": "-85.4108"}, {"name": "Lower Grand Lagoon", "state": "FL", "lat": "30.1444", "lng": "-85.7525"}, {"name": "Edgewood", "state": "FL", "lat": "28.4878", "lng": "-81.3772"}, {"name": "Bay Pines", "state": "FL", "lat": "27.8139", "lng": "-82.7747"}, {"name": "Tangerine", "state": "FL", "lat": "28.7589", "lng": "-81.6341"}, {"name": "Wekiwa Springs", "state": "FL", "lat": "28.6984", "lng": "-81.4251"}, {"name": "Ridge Manor", "state": "FL", "lat": "28.4988", "lng": "-82.1832"}, {"name": "Goulds", "state": "FL", "lat": "25.5614", "lng": "-80.3880"}, {"name": "Archer", "state": "FL", "lat": "29.5400", "lng": "-82.5186"}, {"name": "Jan Phyl Village", "state": "FL", "lat": "28.0201", "lng": "-81.7933"}, {"name": "Dixonville", "state": "FL", "lat": "30.9865", "lng": "-87.0416"}, {"name": "Alafaya", "state": "FL", "lat": "28.5278", "lng": "-81.1865"}, {"name": "Gulf Stream", "state": "FL", "lat": "26.4890", "lng": "-80.0575"}, {"name": "Lauderdale-by-the-Sea", "state": "FL", "lat": "26.1990", "lng": "-80.0972"}, {"name": "Lake Placid", "state": "FL", "lat": "27.2977", "lng": "-81.3715"}, {"name": "Oak Hill", "state": "FL", "lat": "28.8784", "lng": "-80.8351"}, {"name": "Coral Gables", "state": "FL", "lat": "25.7037", "lng": "-80.2715"}, {"name": "Bushnell", "state": "FL", "lat": "28.6856", "lng": "-82.1159"}, {"name": "Williamsburg", "state": "FL", "lat": "28.4015", "lng": "-81.4461"}, {"name": "Palm River-Clair Mel", "state": "FL", "lat": "27.9239", "lng": "-82.3791"}, {"name": "Boynton Beach", "state": "FL", "lat": "26.5281", "lng": "-80.0811"}, {"name": "Bagdad", "state": "FL", "lat": "30.5824", "lng": "-87.0447"}, {"name": "Gardner", "state": "FL", "lat": "27.3537", "lng": "-81.7895"}, {"name": "Town 'n' Country", "state": "FL", "lat": "28.0108", "lng": "-82.5760"}, {"name": "Vineyards", "state": "FL", "lat": "26.2279", "lng": "-81.7280"}, {"name": "Floridatown", "state": "FL", "lat": "30.5828", "lng": "-87.1615"}, {"name": "Greensboro", "state": "FL", "lat": "30.5705", "lng": "-84.7324"}, {"name": "Brookridge", "state": "FL", "lat": "28.5483", "lng": "-82.4897"}, {"name": "Mangonia Park", "state": "FL", "lat": "26.7586", "lng": "-80.0761"}, {"name": "Mascotte", "state": "FL", "lat": "28.6110", "lng": "-81.9106"}, {"name": "Lake Alfred", "state": "FL", "lat": "28.1041", "lng": "-81.7264"}, {"name": "Zephyrhills South", "state": "FL", "lat": "28.2153", "lng": "-82.1886"}, {"name": "Conway", "state": "FL", "lat": "28.4968", "lng": "-81.3316"}, {"name": "Lake Mary Jane", "state": "FL", "lat": "28.3853", "lng": "-81.1709"}, {"name": "Westchase", "state": "FL", "lat": "28.0597", "lng": "-82.6110"}, {"name": "Holiday", "state": "FL", "lat": "28.1864", "lng": "-82.7429"}, {"name": "University", "state": "FL", "lat": "28.0771", "lng": "-82.4335"}, {"name": "Sky Lake", "state": "FL", "lat": "28.4611", "lng": "-81.3912"}, {"name": "Day", "state": "FL", "lat": "30.1950", "lng": "-83.2909"}, {"name": "Cocoa", "state": "FL", "lat": "28.3820", "lng": "-80.7674"}, {"name": "Goldenrod", "state": "FL", "lat": "28.6114", "lng": "-81.2916"}, {"name": "Burnt Store Marina", "state": "FL", "lat": "26.7645", "lng": "-82.0507"}, {"name": "Carrollwood", "state": "FL", "lat": "28.0577", "lng": "-82.5149"}, {"name": "Cudjoe Key", "state": "FL", "lat": "24.6746", "lng": "-81.4986"}, {"name": "Vero Beach South", "state": "FL", "lat": "27.6164", "lng": "-80.4130"}, {"name": "Homestead Base", "state": "FL", "lat": "25.4936", "lng": "-80.3911"}, {"name": "Three Lakes", "state": "FL", "lat": "25.6415", "lng": "-80.4000"}, {"name": "Villano Beach", "state": "FL", "lat": "29.9360", "lng": "-81.3021"}, {"name": "Fort White", "state": "FL", "lat": "29.9224", "lng": "-82.7135"}, {"name": "Harold", "state": "FL", "lat": "30.6772", "lng": "-86.8310"}, {"name": "Charlotte Harbor", "state": "FL", "lat": "26.9629", "lng": "-82.0571"}, {"name": "Palm Valley", "state": "FL", "lat": "30.2011", "lng": "-81.3949"}, {"name": "Fort Meade", "state": "FL", "lat": "27.7645", "lng": "-81.8058"}, {"name": "New Port Richey East", "state": "FL", "lat": "28.2605", "lng": "-82.6930"}, {"name": "Bayonet Point", "state": "FL", "lat": "28.3255", "lng": "-82.6834"}, {"name": "Davie", "state": "FL", "lat": "26.0789", "lng": "-80.2870"}, {"name": "Pine Air", "state": "FL", "lat": "26.6588", "lng": "-80.1073"}, {"name": "Port St. Lucie", "state": "FL", "lat": "27.2796", "lng": "-80.3884"}, {"name": "Kendall", "state": "FL", "lat": "25.6697", "lng": "-80.3556"}, {"name": "Redington Shores", "state": "FL", "lat": "27.8293", "lng": "-82.8278"}, {"name": "Sumatra", "state": "FL", "lat": "30.0230", "lng": "-84.9825"}, {"name": "Hillsboro Beach", "state": "FL", "lat": "26.2837", "lng": "-80.0796"}, {"name": "Leesburg", "state": "FL", "lat": "28.7658", "lng": "-81.8995"}, {"name": "Lochmoor Waterway Estates", "state": "FL", "lat": "26.6437", "lng": "-81.9098"}, {"name": "Lamont", "state": "FL", "lat": "30.3796", "lng": "-83.8135"}, {"name": "Meadow Woods", "state": "FL", "lat": "28.3698", "lng": "-81.3467"}, {"name": "Polk City", "state": "FL", "lat": "28.1804", "lng": "-81.8295"}, {"name": "Shady Hills", "state": "FL", "lat": "28.4042", "lng": "-82.5467"}, {"name": "Five Points", "state": "FL", "lat": "30.2224", "lng": "-82.6464"}, {"name": "Crooked Lake Park", "state": "FL", "lat": "27.8295", "lng": "-81.5897"}, {"name": "Lake Wales", "state": "FL", "lat": "27.9195", "lng": "-81.5961"}, {"name": "Dania Beach", "state": "FL", "lat": "26.0593", "lng": "-80.1638"}, {"name": "Stacey Street", "state": "FL", "lat": "26.6978", "lng": "-80.1238"}, {"name": "Lisbon", "state": "FL", "lat": "28.8823", "lng": "-81.7812"}, {"name": "Layton", "state": "FL", "lat": "24.8247", "lng": "-80.8129"}, {"name": "Indian Rocks Beach", "state": "FL", "lat": "27.8961", "lng": "-82.8444"}, {"name": "Pine Manor", "state": "FL", "lat": "26.5727", "lng": "-81.8775"}, {"name": "West Little River", "state": "FL", "lat": "25.8570", "lng": "-80.2367"}, {"name": "Lake Kathryn", "state": "FL", "lat": "29.0072", "lng": "-81.4906"}, {"name": "Indian River Shores", "state": "FL", "lat": "27.7084", "lng": "-80.3851"}, {"name": "Babson Park", "state": "FL", "lat": "27.8342", "lng": "-81.5281"}, {"name": "Tiger Point", "state": "FL", "lat": "30.3775", "lng": "-87.0578"}, {"name": "Macclenny", "state": "FL", "lat": "30.2818", "lng": "-82.1250"}, {"name": "Bascom", "state": "FL", "lat": "30.9278", "lng": "-85.1181"}, {"name": "Loxahatchee Groves", "state": "FL", "lat": "26.7106", "lng": "-80.2764"}, {"name": "Parker", "state": "FL", "lat": "30.1289", "lng": "-85.6008"}, {"name": "Pelican Bay", "state": "FL", "lat": "26.2326", "lng": "-81.8108"}, {"name": "World Golf Village", "state": "FL", "lat": "29.9653", "lng": "-81.4898"}, {"name": "Lloyd", "state": "FL", "lat": "30.4822", "lng": "-84.0244"}, {"name": "Clewiston", "state": "FL", "lat": "26.7529", "lng": "-80.9399"}, {"name": "Jay", "state": "FL", "lat": "30.9504", "lng": "-87.1523"}, {"name": "Port LaBelle", "state": "FL", "lat": "26.7493", "lng": "-81.3876"}, {"name": "Sea Ranch Lakes", "state": "FL", "lat": "26.2007", "lng": "-80.0981"}, {"name": "Jacksonville Beach", "state": "FL", "lat": "30.2782", "lng": "-81.4045"}, {"name": "Westchester", "state": "FL", "lat": "25.7474", "lng": "-80.3358"}, {"name": "Chokoloskee", "state": "FL", "lat": "25.8146", "lng": "-81.3603"}, {"name": "Bradenton", "state": "FL", "lat": "27.4900", "lng": "-82.5740"}, {"name": "Palm Harbor", "state": "FL", "lat": "28.0847", "lng": "-82.7481"}, {"name": "Ojus", "state": "FL", "lat": "25.9563", "lng": "-80.1606"}, {"name": "Navarre", "state": "FL", "lat": "30.4174", "lng": "-86.8907"}, {"name": "Oldsmar", "state": "FL", "lat": "28.0507", "lng": "-82.6697"}, {"name": "Port St. John", "state": "FL", "lat": "28.4771", "lng": "-80.7874"}, {"name": "St. Cloud", "state": "FL", "lat": "28.2294", "lng": "-81.2829"}, {"name": "Tyndall AFB", "state": "FL", "lat": "30.0856", "lng": "-85.6075"}, {"name": "Belleair Bluffs", "state": "FL", "lat": "27.9197", "lng": "-82.8193"}, {"name": "Fort Lauderdale", "state": "FL", "lat": "26.1412", "lng": "-80.1464"}, {"name": "Oriole Beach", "state": "FL", "lat": "30.3687", "lng": "-87.0962"}, {"name": "Dundee", "state": "FL", "lat": "28.0115", "lng": "-81.5995"}, {"name": "Desoto Lakes", "state": "FL", "lat": "27.3730", "lng": "-82.4968"}, {"name": "Lazy Lake", "state": "FL", "lat": "26.1563", "lng": "-80.1452"}, {"name": "Wiscon", "state": "FL", "lat": "28.5409", "lng": "-82.4664"}, {"name": "Harbor Bluffs", "state": "FL", "lat": "27.9080", "lng": "-82.8270"}, {"name": "South Patrick Shores", "state": "FL", "lat": "28.2020", "lng": "-80.6137"}, {"name": "Bristol", "state": "FL", "lat": "30.4256", "lng": "-84.9773"}, {"name": "Bradley Junction", "state": "FL", "lat": "27.7942", "lng": "-81.9784"}, {"name": "Pine Level", "state": "FL", "lat": "30.8887", "lng": "-87.1687"}, {"name": "Bronson", "state": "FL", "lat": "29.4501", "lng": "-82.6391"}, {"name": "Hernando Beach", "state": "FL", "lat": "28.4753", "lng": "-82.6612"}, {"name": "Oakland", "state": "FL", "lat": "28.5536", "lng": "-81.6358"}, {"name": "Greenacres", "state": "FL", "lat": "26.6272", "lng": "-80.1372"}, {"name": "Bokeelia", "state": "FL", "lat": "26.6800", "lng": "-82.1409"}, {"name": "Naples", "state": "FL", "lat": "26.1505", "lng": "-81.7936"}, {"name": "Trinity", "state": "FL", "lat": "28.1809", "lng": "-82.6581"}, {"name": "Mount Dora", "state": "FL", "lat": "28.8143", "lng": "-81.6344"}, {"name": "Grand Ridge", "state": "FL", "lat": "30.7083", "lng": "-85.0207"}, {"name": "Opa-locka", "state": "FL", "lat": "25.8997", "lng": "-80.2551"}, {"name": "Plantation Island", "state": "FL", "lat": "25.8475", "lng": "-81.3754"}, {"name": "Fort Green", "state": "FL", "lat": "27.6255", "lng": "-81.9397"}, {"name": "Bowling Green", "state": "FL", "lat": "27.6380", "lng": "-81.8244"}, {"name": "Citrus Park", "state": "FL", "lat": "28.0730", "lng": "-82.5628"}, {"name": "Harlem Heights", "state": "FL", "lat": "26.5160", "lng": "-81.9293"}, {"name": "Miami Springs", "state": "FL", "lat": "25.8195", "lng": "-80.2894"}, {"name": "Lakeside", "state": "FL", "lat": "30.1356", "lng": "-81.7674"}, {"name": "Crystal Lake", "state": "FL", "lat": "28.0371", "lng": "-81.9063"}, {"name": "Gotha", "state": "FL", "lat": "28.5307", "lng": "-81.5191"}, {"name": "Tarpon Springs", "state": "FL", "lat": "28.1493", "lng": "-82.7623"}, {"name": "The Crossings", "state": "FL", "lat": "25.6708", "lng": "-80.4018"}, {"name": "Balm", "state": "FL", "lat": "27.7541", "lng": "-82.2882"}, {"name": "Okahumpka", "state": "FL", "lat": "28.7459", "lng": "-81.8962"}, {"name": "Kendale Lakes", "state": "FL", "lat": "25.7081", "lng": "-80.4078"}, {"name": "Palmetto Estates", "state": "FL", "lat": "25.6211", "lng": "-80.3616"}, {"name": "New Smyrna Beach", "state": "FL", "lat": "29.0249", "lng": "-80.9650"}, {"name": "Anna Maria", "state": "FL", "lat": "27.5296", "lng": "-82.7338"}, {"name": "Holly Hill", "state": "FL", "lat": "29.2443", "lng": "-81.0462"}, {"name": "Pine Lakes", "state": "FL", "lat": "28.9390", "lng": "-81.4308"}, {"name": "Treasure Island", "state": "FL", "lat": "27.7740", "lng": "-82.7663"}, {"name": "Miramar", "state": "FL", "lat": "25.9773", "lng": "-80.3351"}, {"name": "Tice", "state": "FL", "lat": "26.6758", "lng": "-81.8171"}, {"name": "River Park", "state": "FL", "lat": "27.3214", "lng": "-80.3307"}, {"name": "Miami", "state": "FL", "lat": "25.7839", "lng": "-80.2102"}, {"name": "Blountstown", "state": "FL", "lat": "30.4430", "lng": "-85.0455"}, {"name": "River Ridge", "state": "FL", "lat": "28.2669", "lng": "-82.6257"}, {"name": "Rotonda", "state": "FL", "lat": "26.8845", "lng": "-82.2791"}, {"name": "Woodville", "state": "FL", "lat": "30.3114", "lng": "-84.2595"}, {"name": "Lake Lorraine", "state": "FL", "lat": "30.4407", "lng": "-86.5657"}, {"name": "Ferry Pass", "state": "FL", "lat": "30.5203", "lng": "-87.1904"}, {"name": "Cleveland", "state": "FL", "lat": "26.9529", "lng": "-81.9925"}, {"name": "Holley", "state": "FL", "lat": "30.4540", "lng": "-86.9036"}, {"name": "West Miami", "state": "FL", "lat": "25.7578", "lng": "-80.2969"}, {"name": "West Palm Beach", "state": "FL", "lat": "26.7469", "lng": "-80.1316"}, {"name": "Keystone", "state": "FL", "lat": "28.1312", "lng": "-82.5999"}, {"name": "Gun Club Estates", "state": "FL", "lat": "26.6753", "lng": "-80.1080"}, {"name": "Cedar Key", "state": "FL", "lat": "29.1459", "lng": "-83.0387"}, {"name": "Welaka", "state": "FL", "lat": "29.4823", "lng": "-81.6658"}, {"name": "Highland Beach", "state": "FL", "lat": "26.4088", "lng": "-80.0661"}, {"name": "Warm Mineral Springs", "state": "FL", "lat": "27.0469", "lng": "-82.2702"}, {"name": "Goodland", "state": "FL", "lat": "25.9252", "lng": "-81.6480"}, {"name": "Boca Raton", "state": "FL", "lat": "26.3749", "lng": "-80.1077"}, {"name": "Bradenton Beach", "state": "FL", "lat": "27.4649", "lng": "-82.6957"}, {"name": "Country Walk", "state": "FL", "lat": "25.6331", "lng": "-80.4353"}, {"name": "Pompano Beach", "state": "FL", "lat": "26.2428", "lng": "-80.1312"}, {"name": "Hobe Sound", "state": "FL", "lat": "27.0729", "lng": "-80.1425"}, {"name": "Palm Springs North", "state": "FL", "lat": "25.9351", "lng": "-80.3339"}, {"name": "North Redington Beach", "state": "FL", "lat": "27.8213", "lng": "-82.8190"}, {"name": "Butler Beach", "state": "FL", "lat": "29.7980", "lng": "-81.2653"}, {"name": "Deerfield Beach", "state": "FL", "lat": "26.3049", "lng": "-80.1277"}, {"name": "Memphis", "state": "FL", "lat": "27.5435", "lng": "-82.5607"}, {"name": "South Daytona", "state": "FL", "lat": "29.1656", "lng": "-81.0056"}, {"name": "Naples Manor", "state": "FL", "lat": "26.0892", "lng": "-81.7254"}, {"name": "Cocoa Beach", "state": "FL", "lat": "28.3326", "lng": "-80.6274"}, {"name": "Lakewood Park", "state": "FL", "lat": "27.5390", "lng": "-80.3865"}, {"name": "Pomona Park", "state": "FL", "lat": "29.5015", "lng": "-81.5936"}, {"name": "Matlacha Isles-Matlacha Shores", "state": "FL", "lat": "26.6340", "lng": "-82.0589"}, {"name": "Bonita Springs", "state": "FL", "lat": "26.3559", "lng": "-81.7861"}, {"name": "Weston", "state": "FL", "lat": "26.1007", "lng": "-80.4054"}, {"name": "Lealman", "state": "FL", "lat": "27.8197", "lng": "-82.6847"}, {"name": "Page Park", "state": "FL", "lat": "26.5782", "lng": "-81.8615"}, {"name": "Upper Grand Lagoon", "state": "FL", "lat": "30.1690", "lng": "-85.7407"}, {"name": "Zolfo Springs", "state": "FL", "lat": "27.4926", "lng": "-81.7869"}, {"name": "Manalapan", "state": "FL", "lat": "26.5621", "lng": "-80.0439"}, {"name": "Palm City", "state": "FL", "lat": "27.1736", "lng": "-80.2861"}, {"name": "Nocatee", "state": "FL", "lat": "30.0918", "lng": "-81.4097"}, {"name": "Belle Isle", "state": "FL", "lat": "28.4724", "lng": "-81.3491"}, {"name": "Lakeland", "state": "FL", "lat": "28.0557", "lng": "-81.9545"}, {"name": "South Miami", "state": "FL", "lat": "25.7079", "lng": "-80.2952"}, {"name": "Verona Walk", "state": "FL", "lat": "26.0839", "lng": "-81.6794"}, {"name": "Bayport", "state": "FL", "lat": "28.5468", "lng": "-82.6456"}, {"name": "Pierson", "state": "FL", "lat": "29.2401", "lng": "-81.4560"}, {"name": "Jupiter Farms", "state": "FL", "lat": "26.9224", "lng": "-80.2187"}]