[{"name": "Trenton", "state": "GA", "lat": "34.8741", "lng": "-85.5096"}, {"name": "Arnoldsville", "state": "GA", "lat": "33.9103", "lng": "-83.2180"}, {"name": "Hoschton", "state": "GA", "lat": "34.0933", "lng": "-83.7617"}, {"name": "Thomasville", "state": "GA", "lat": "30.8394", "lng": "-83.9783"}, {"name": "McRae-Helena", "state": "GA", "lat": "32.0635", "lng": "-82.8968"}, {"name": "Royston", "state": "GA", "lat": "34.2859", "lng": "-83.1097"}, {"name": "Pooler", "state": "GA", "lat": "32.1043", "lng": "-81.2568"}, {"name": "Waynesboro", "state": "GA", "lat": "33.0909", "lng": "-82.0146"}, {"name": "Gillsville", "state": "GA", "lat": "34.3095", "lng": "-83.6381"}, {"name": "Rest Haven", "state": "GA", "lat": "34.1354", "lng": "-83.9763"}, {"name": "Winder", "state": "GA", "lat": "33.9917", "lng": "-83.7218"}, {"name": "Fort Oglethorpe", "state": "GA", "lat": "34.9318", "lng": "-85.2460"}, {"name": "Walthourville", "state": "GA", "lat": "31.7715", "lng": "-81.6216"}, {"name": "Yonah", "state": "GA", "lat": "34.6437", "lng": "-83.7411"}, {"name": "Avera", "state": "GA", "lat": "33.1934", "lng": "-82.5287"}, {"name": "Maxeys", "state": "GA", "lat": "33.7555", "lng": "-83.1737"}, {"name": "Irondale", "state": "GA", "lat": "33.4773", "lng": "-84.3600"}, {"name": "Midway", "state": "GA", "lat": "31.8003", "lng": "-81.4190"}, {"name": "Lithia Springs", "state": "GA", "lat": "33.7811", "lng": "-84.6486"}, {"name": "Claxton", "state": "GA", "lat": "32.1613", "lng": "-81.9093"}, {"name": "Chamblee", "state": "GA", "lat": "33.8842", "lng": "-84.3008"}, {"name": "Turin", "state": "GA", "lat": "33.3260", "lng": "-84.6371"}, {"name": "Broxton", "state": "GA", "lat": "31.6248", "lng": "-82.8877"}, {"name": "Berlin", "state": "GA", "lat": "31.0683", "lng": "-83.6236"}, {"name": "Tunnel Hill", "state": "GA", "lat": "34.8497", "lng": "-85.0395"}, {"name": "Norwood", "state": "GA", "lat": "33.4626", "lng": "-82.7055"}, {"name": "Climax", "state": "GA", "lat": "30.8756", "lng": "-84.4312"}, {"name": "Lincolnton", "state": "GA", "lat": "33.7931", "lng": "-82.4776"}, {"name": "Mountain City", "state": "GA", "lat": "34.9196", "lng": "-83.3854"}, {"name": "Louisville", "state": "GA", "lat": "32.9954", "lng": "-82.4000"}, {"name": "Gordon", "state": "GA", "lat": "32.8866", "lng": "-83.3349"}, {"name": "Adrian", "state": "GA", "lat": "32.5306", "lng": "-82.5920"}, {"name": "Peachtree Corners", "state": "GA", "lat": "33.9670", "lng": "-84.2319"}, {"name": "Menlo", "state": "GA", "lat": "34.4835", "lng": "-85.4776"}, {"name": "Harlem", "state": "GA", "lat": "33.4262", "lng": "-82.3127"}, {"name": "Suwanee", "state": "GA", "lat": "34.0507", "lng": "-84.0687"}, {"name": "Damascus", "state": "GA", "lat": "31.2988", "lng": "-84.7170"}, {"name": "Rockingham", "state": "GA", "lat": "31.5441", "lng": "-82.4145"}, {"name": "Tignall", "state": "GA", "lat": "33.8674", "lng": "-82.7420"}, {"name": "Santa Claus", "state": "GA", "lat": "32.1713", "lng": "-82.3298"}, {"name": "Willacoochee", "state": "GA", "lat": "31.3358", "lng": "-83.0446"}, {"name": "Varnell", "state": "GA", "lat": "34.9015", "lng": "-84.9646"}, {"name": "Bartow", "state": "GA", "lat": "32.8816", "lng": "-82.4712"}, {"name": "Concord", "state": "GA", "lat": "33.0918", "lng": "-84.4385"}, {"name": "Milan", "state": "GA", "lat": "32.0194", "lng": "-83.0631"}, {"name": "Porterdale", "state": "GA", "lat": "33.5739", "lng": "-83.8940"}, {"name": "Shady Dale", "state": "GA", "lat": "33.4007", "lng": "-83.5884"}, {"name": "Gumbranch", "state": "GA", "lat": "31.8367", "lng": "-81.6838"}, {"name": "Sharon", "state": "GA", "lat": "33.5601", "lng": "-82.7950"}, {"name": "Wadley", "state": "GA", "lat": "32.8663", "lng": "-82.4014"}, {"name": "Kings Bay Base", "state": "GA", "lat": "30.7985", "lng": "-81.5628"}, {"name": "Villa Rica", "state": "GA", "lat": "33.7305", "lng": "-84.9170"}, {"name": "Cedartown", "state": "GA", "lat": "34.0225", "lng": "-85.2480"}, {"name": "Hapeville", "state": "GA", "lat": "33.6609", "lng": "-84.4093"}, {"name": "Perkins", "state": "GA", "lat": "32.9149", "lng": "-81.9490"}, {"name": "Douglasville", "state": "GA", "lat": "33.7384", "lng": "-84.7068"}, {"name": "Meigs", "state": "GA", "lat": "31.0713", "lng": "-84.0922"}, {"name": "Geneva", "state": "GA", "lat": "32.5789", "lng": "-84.5516"}, {"name": "Helen", "state": "GA", "lat": "34.7044", "lng": "-83.7201"}, {"name": "Eastman", "state": "GA", "lat": "32.1973", "lng": "-83.1712"}, {"name": "Ellijay", "state": "GA", "lat": "34.6911", "lng": "-84.4840"}, {"name": "Sycamore", "state": "GA", "lat": "31.6710", "lng": "-83.6354"}, {"name": "Millen", "state": "GA", "lat": "32.8071", "lng": "-81.9423"}, {"name": "Boston", "state": "GA", "lat": "30.7920", "lng": "-83.7899"}, {"name": "Lula", "state": "GA", "lat": "34.3956", "lng": "-83.6655"}, {"name": "Doraville", "state": "GA", "lat": "33.9072", "lng": "-84.2711"}, {"name": "Rayle", "state": "GA", "lat": "33.7902", "lng": "-82.9031"}, {"name": "Lumber City", "state": "GA", "lat": "31.9330", "lng": "-82.6828"}, {"name": "East Ellijay", "state": "GA", "lat": "34.6759", "lng": "-84.4760"}, {"name": "Pineview", "state": "GA", "lat": "32.1084", "lng": "-83.5029"}, {"name": "Fort Valley", "state": "GA", "lat": "32.5522", "lng": "-83.8817"}, {"name": "Richmond Hill", "state": "GA", "lat": "31.9012", "lng": "-81.3126"}, {"name": "Norristown", "state": "GA", "lat": "32.5064", "lng": "-82.4981"}, {"name": "Port Wentworth", "state": "GA", "lat": "32.1942", "lng": "-81.1984"}, {"name": "Pearson", "state": "GA", "lat": "31.2970", "lng": "-82.8544"}, {"name": "Sandersville", "state": "GA", "lat": "32.9827", "lng": "-82.8089"}, {"name": "Montezuma", "state": "GA", "lat": "32.2997", "lng": "-84.0246"}, {"name": "Lexington", "state": "GA", "lat": "33.8701", "lng": "-83.1102"}, {"name": "Trion", "state": "GA", "lat": "34.5480", "lng": "-85.3108"}, {"name": "Hagan", "state": "GA", "lat": "32.1536", "lng": "-81.9305"}, {"name": "Demorest", "state": "GA", "lat": "34.5648", "lng": "-83.5424"}, {"name": "Dawsonville", "state": "GA", "lat": "34.4362", "lng": "-84.1252"}, {"name": "Ailey", "state": "GA", "lat": "32.1882", "lng": "-82.5699"}, {"name": "Newnan", "state": "GA", "lat": "33.3765", "lng": "-84.7760"}, {"name": "Buford", "state": "GA", "lat": "34.1187", "lng": "-83.9915"}, {"name": "East Newnan", "state": "GA", "lat": "33.3461", "lng": "-84.7763"}, {"name": "Ila", "state": "GA", "lat": "34.1727", "lng": "-83.2930"}, {"name": "Offerman", "state": "GA", "lat": "31.4088", "lng": "-82.1132"}, {"name": "Belvedere Park", "state": "GA", "lat": "33.7488", "lng": "-84.2598"}, {"name": "Americus", "state": "GA", "lat": "32.0736", "lng": "-84.2249"}, {"name": "Doerun", "state": "GA", "lat": "31.3218", "lng": "-83.9171"}, {"name": "Junction City", "state": "GA", "lat": "32.6032", "lng": "-84.4573"}, {"name": "Commerce", "state": "GA", "lat": "34.2127", "lng": "-83.4729"}, {"name": "Oglethorpe", "state": "GA", "lat": "32.2935", "lng": "-84.0623"}, {"name": "Tennille", "state": "GA", "lat": "32.9359", "lng": "-82.8134"}, {"name": "Edge Hill", "state": "GA", "lat": "33.1534", "lng": "-82.6250"}, {"name": "Cecil", "state": "GA", "lat": "31.0466", "lng": "-83.3906"}, {"name": "Bowman", "state": "GA", "lat": "34.2051", "lng": "-83.0309"}, {"name": "Portal", "state": "GA", "lat": "32.5383", "lng": "-81.9297"}, {"name": "Barwick", "state": "GA", "lat": "30.8933", "lng": "-83.7391"}, {"name": "Rome", "state": "GA", "lat": "34.2662", "lng": "-85.1862"}, {"name": "Riverdale", "state": "GA", "lat": "33.5639", "lng": "-84.4103"}, {"name": "Newton", "state": "GA", "lat": "31.3172", "lng": "-84.3376"}, {"name": "Cusseta", "state": "GA", "lat": "32.3470", "lng": "-84.7870"}, {"name": "Soperton", "state": "GA", "lat": "32.3782", "lng": "-82.5945"}, {"name": "Pinehurst", "state": "GA", "lat": "32.1956", "lng": "-83.7596"}, {"name": "Denton", "state": "GA", "lat": "31.7221", "lng": "-82.6967"}, {"name": "Woodstock", "state": "GA", "lat": "34.1026", "lng": "-84.5085"}, {"name": "Powder Springs", "state": "GA", "lat": "33.8660", "lng": "-84.6839"}, {"name": "Alamo", "state": "GA", "lat": "32.1469", "lng": "-82.7798"}, {"name": "Vinings", "state": "GA", "lat": "33.8608", "lng": "-84.4686"}, {"name": "Flowery Branch", "state": "GA", "lat": "34.1713", "lng": "-83.9142"}, {"name": "Sautee-Nacoochee", "state": "GA", "lat": "34.6895", "lng": "-83.6860"}, {"name": "Ocilla", "state": "GA", "lat": "31.5987", "lng": "-83.2499"}, {"name": "Rhine", "state": "GA", "lat": "31.9891", "lng": "-83.2000"}, {"name": "Columbus", "state": "GA", "lat": "32.5100", "lng": "-84.8771"}, {"name": "Tallapoosa", "state": "GA", "lat": "33.7335", "lng": "-85.2859"}, {"name": "Allenhurst", "state": "GA", "lat": "31.7839", "lng": "-81.6078"}, {"name": "Stone Mountain", "state": "GA", "lat": "33.8034", "lng": "-84.1724"}, {"name": "Adel", "state": "GA", "lat": "31.1271", "lng": "-83.4232"}, {"name": "Warm Springs", "state": "GA", "lat": "32.8870", "lng": "-84.6781"}, {"name": "Blackshear", "state": "GA", "lat": "31.2954", "lng": "-82.2453"}, {"name": "Camak", "state": "GA", "lat": "33.4526", "lng": "-82.6463"}, {"name": "Tate City", "state": "GA", "lat": "34.9789", "lng": "-83.5540"}, {"name": "Nunez", "state": "GA", "lat": "32.4920", "lng": "-82.3466"}, {"name": "Flovilla", "state": "GA", "lat": "33.2524", "lng": "-83.9030"}, {"name": "Palmetto", "state": "GA", "lat": "33.5310", "lng": "-84.6677"}, {"name": "Brunswick", "state": "GA", "lat": "31.1450", "lng": "-81.4740"}, {"name": "Adairsville", "state": "GA", "lat": "34.3702", "lng": "-84.9214"}, {"name": "Danielsville", "state": "GA", "lat": "34.1238", "lng": "-83.2201"}, {"name": "Talahi Island", "state": "GA", "lat": "32.0331", "lng": "-80.9760"}, {"name": "Nicholson", "state": "GA", "lat": "34.1172", "lng": "-83.4289"}, {"name": "Bogart", "state": "GA", "lat": "33.9474", "lng": "-83.5334"}, {"name": "Sunnyside", "state": "GA", "lat": "31.2406", "lng": "-82.3411"}, {"name": "Fitzgerald", "state": "GA", "lat": "31.7135", "lng": "-83.2515"}, {"name": "Johns Creek", "state": "GA", "lat": "34.0333", "lng": "-84.2026"}, {"name": "Omega", "state": "GA", "lat": "31.3389", "lng": "-83.5949"}, {"name": "Ball Ground", "state": "GA", "lat": "34.3426", "lng": "-84.3635"}, {"name": "Crooked Creek", "state": "GA", "lat": "33.2616", "lng": "-83.2679"}, {"name": "Druid Hills", "state": "GA", "lat": "33.7843", "lng": "-84.3273"}, {"name": "Dalton", "state": "GA", "lat": "34.7691", "lng": "-84.9712"}, {"name": "Henderson", "state": "GA", "lat": "32.0102", "lng": "-81.2656"}, {"name": "Lumpkin", "state": "GA", "lat": "32.0487", "lng": "-84.7980"}, {"name": "Whigham", "state": "GA", "lat": "30.8845", "lng": "-84.3247"}, {"name": "Manchester", "state": "GA", "lat": "32.8566", "lng": "-84.6329"}, {"name": "Centralhatchee", "state": "GA", "lat": "33.3689", "lng": "-85.1037"}, {"name": "Rentz", "state": "GA", "lat": "32.3835", "lng": "-82.9917"}, {"name": "Walnut Grove", "state": "GA", "lat": "33.7455", "lng": "-83.8502"}, {"name": "Isle of Hope", "state": "GA", "lat": "31.9848", "lng": "-81.0532"}, {"name": "Berkeley Lake", "state": "GA", "lat": "33.9805", "lng": "-84.1839"}, {"name": "Sky Valley", "state": "GA", "lat": "34.9840", "lng": "-83.3314"}, {"name": "Hannahs Mill", "state": "GA", "lat": "32.9369", "lng": "-84.3405"}, {"name": "Cochran", "state": "GA", "lat": "32.3875", "lng": "-83.3523"}, {"name": "Dublin", "state": "GA", "lat": "32.5359", "lng": "-82.9279"}, {"name": "Ellenton", "state": "GA", "lat": "31.1759", "lng": "-83.5876"}, {"name": "Stillmore", "state": "GA", "lat": "32.4410", "lng": "-82.2144"}, {"name": "Franklin", "state": "GA", "lat": "33.2792", "lng": "-85.0980"}, {"name": "Talking Rock", "state": "GA", "lat": "34.5279", "lng": "-84.4939"}, {"name": "Morven", "state": "GA", "lat": "30.9433", "lng": "-83.5003"}, {"name": "Boykin", "state": "GA", "lat": "31.1017", "lng": "-84.6848"}, {"name": "Fairmount", "state": "GA", "lat": "34.4379", "lng": "-84.6999"}, {"name": "Colbert", "state": "GA", "lat": "34.0370", "lng": "-83.2139"}, {"name": "Cordele", "state": "GA", "lat": "31.9563", "lng": "-83.7695"}, {"name": "Lenox", "state": "GA", "lat": "31.2672", "lng": "-83.4673"}, {"name": "Decatur", "state": "GA", "lat": "33.7711", "lng": "-84.2968"}, {"name": "Bellville", "state": "GA", "lat": "32.1526", "lng": "-81.9743"}, {"name": "Odum", "state": "GA", "lat": "31.6666", "lng": "-82.0269"}, {"name": "Mansfield", "state": "GA", "lat": "33.5180", "lng": "-83.7349"}, {"name": "Bostwick", "state": "GA", "lat": "33.7378", "lng": "-83.5149"}, {"name": "Abbeville", "state": "GA", "lat": "31.9925", "lng": "-83.3068"}, {"name": "Cohutta", "state": "GA", "lat": "34.9539", "lng": "-84.9593"}, {"name": "Austell", "state": "GA", "lat": "33.8202", "lng": "-84.6452"}, {"name": "Elberton", "state": "GA", "lat": "34.1064", "lng": "-82.8706"}, {"name": "Richland", "state": "GA", "lat": "32.0885", "lng": "-84.6625"}, {"name": "Tybee Island", "state": "GA", "lat": "32.0100", "lng": "-80.8527"}, {"name": "Crawfordville", "state": "GA", "lat": "33.5545", "lng": "-82.8965"}, {"name": "Morganton", "state": "GA", "lat": "34.8749", "lng": "-84.2442"}, {"name": "Thomaston", "state": "GA", "lat": "32.8908", "lng": "-84.3272"}, {"name": "Coleman", "state": "GA", "lat": "31.6717", "lng": "-84.8903"}, {"name": "Springfield", "state": "GA", "lat": "32.3641", "lng": "-81.3078"}, {"name": "Leesburg", "state": "GA", "lat": "31.7325", "lng": "-84.1687"}, {"name": "Hilltop", "state": "GA", "lat": "33.1063", "lng": "-84.4383"}, {"name": "Sumner", "state": "GA", "lat": "31.5103", "lng": "-83.7368"}, {"name": "Roopville", "state": "GA", "lat": "33.4567", "lng": "-85.1304"}, {"name": "Thomson", "state": "GA", "lat": "33.4666", "lng": "-82.4992"}, {"name": "Cobbtown", "state": "GA", "lat": "32.2806", "lng": "-82.1387"}, {"name": "Gresham Park", "state": "GA", "lat": "33.7053", "lng": "-84.3155"}, {"name": "Chattahoochee Hills", "state": "GA", "lat": "33.5695", "lng": "-84.7441"}, {"name": "Hardwick", "state": "GA", "lat": "33.0523", "lng": "-83.2440"}, {"name": "Tucker", "state": "GA", "lat": "33.8436", "lng": "-84.2021"}, {"name": "Hamilton", "state": "GA", "lat": "32.7647", "lng": "-84.8752"}, {"name": "Martinez", "state": "GA", "lat": "33.5209", "lng": "-82.0985"}, {"name": "Mableton", "state": "GA", "lat": "33.8132", "lng": "-84.5656"}, {"name": "Hinesville", "state": "GA", "lat": "31.8247", "lng": "-81.6135"}, {"name": "Guyton", "state": "GA", "lat": "32.3410", "lng": "-81.4225"}, {"name": "Folkston", "state": "GA", "lat": "30.8392", "lng": "-82.0073"}, {"name": "Union Point", "state": "GA", "lat": "33.6177", "lng": "-83.0756"}, {"name": "Twin City", "state": "GA", "lat": "32.5829", "lng": "-82.1575"}, {"name": "Jackson", "state": "GA", "lat": "33.2920", "lng": "-83.9678"}, {"name": "Fargo", "state": "GA", "lat": "30.6881", "lng": "-82.5721"}, {"name": "Stonecrest", "state": "GA", "lat": "33.6843", "lng": "-84.1373"}, {"name": "Ranger", "state": "GA", "lat": "34.5012", "lng": "-84.7112"}, {"name": "Hull", "state": "GA", "lat": "34.0155", "lng": "-83.2939"}, {"name": "Brooks", "state": "GA", "lat": "33.2925", "lng": "-84.4588"}, {"name": "Toomsboro", "state": "GA", "lat": "32.8225", "lng": "-83.0826"}, {"name": "Lone Oak", "state": "GA", "lat": "33.1724", "lng": "-84.8173"}, {"name": "Macon", "state": "GA", "lat": "32.8065", "lng": "-83.6974"}, {"name": "Lyons", "state": "GA", "lat": "32.2062", "lng": "-82.3215"}, {"name": "Roswell", "state": "GA", "lat": "34.0391", "lng": "-84.3513"}, {"name": "Nahunta", "state": "GA", "lat": "31.2065", "lng": "-81.9814"}, {"name": "Grantville", "state": "GA", "lat": "33.2371", "lng": "-84.8293"}, {"name": "Flemington", "state": "GA", "lat": "31.8508", "lng": "-81.5603"}, {"name": "Ray City", "state": "GA", "lat": "31.0729", "lng": "-83.1960"}, {"name": "Plains", "state": "GA", "lat": "32.0331", "lng": "-84.3946"}, {"name": "White", "state": "GA", "lat": "34.2824", "lng": "-84.7472"}, {"name": "St. Simons", "state": "GA", "lat": "31.1774", "lng": "-81.3857"}, {"name": "Enigma", "state": "GA", "lat": "31.4076", "lng": "-83.3291"}, {"name": "Bloomingdale", "state": "GA", "lat": "32.1250", "lng": "-81.3077"}, {"name": "Manassas", "state": "GA", "lat": "32.1603", "lng": "-82.0200"}, {"name": "Aragon", "state": "GA", "lat": "34.0459", "lng": "-85.0570"}, {"name": "Alston", "state": "GA", "lat": "32.0810", "lng": "-82.4789"}, {"name": "Canton", "state": "GA", "lat": "34.2466", "lng": "-84.4901"}, {"name": "Ideal", "state": "GA", "lat": "32.3726", "lng": "-84.1894"}, {"name": "Jefferson", "state": "GA", "lat": "34.1371", "lng": "-83.6022"}, {"name": "Hahira", "state": "GA", "lat": "30.9941", "lng": "-83.3787"}, {"name": "Hoboken", "state": "GA", "lat": "31.1813", "lng": "-82.1313"}, {"name": "Sasser", "state": "GA", "lat": "31.7199", "lng": "-84.3477"}, {"name": "Baconton", "state": "GA", "lat": "31.3804", "lng": "-84.1592"}, {"name": "Ringgold", "state": "GA", "lat": "34.9137", "lng": "-85.1217"}, {"name": "Madison", "state": "GA", "lat": "33.5790", "lng": "-83.4758"}, {"name": "Phillipsburg", "state": "GA", "lat": "31.4389", "lng": "-83.5203"}, {"name": "Unadilla", "state": "GA", "lat": "32.2583", "lng": "-83.7356"}, {"name": "Midville", "state": "GA", "lat": "32.8217", "lng": "-82.2346"}, {"name": "Fairview", "state": "GA", "lat": "34.9296", "lng": "-85.2940"}, {"name": "Country Club Estates", "state": "GA", "lat": "31.2113", "lng": "-81.4622"}, {"name": "Hogansville", "state": "GA", "lat": "33.1674", "lng": "-84.9027"}, {"name": "Dahlonega", "state": "GA", "lat": "34.5302", "lng": "-83.9796"}, {"name": "Resaca", "state": "GA", "lat": "34.5789", "lng": "-84.9439"}, {"name": "Dooling", "state": "GA", "lat": "32.2300", "lng": "-83.9289"}, {"name": "Dexter", "state": "GA", "lat": "32.4331", "lng": "-83.0595"}, {"name": "Knoxville", "state": "GA", "lat": "32.7232", "lng": "-83.9960"}, {"name": "Panthersville", "state": "GA", "lat": "33.7059", "lng": "-84.2764"}, {"name": "Between", "state": "GA", "lat": "33.8178", "lng": "-83.8042"}, {"name": "Forest Park", "state": "GA", "lat": "33.6209", "lng": "-84.3590"}, {"name": "Clayton", "state": "GA", "lat": "34.8775", "lng": "-83.4027"}, {"name": "Marietta", "state": "GA", "lat": "33.9532", "lng": "-84.5422"}, {"name": "Pelham", "state": "GA", "lat": "31.1267", "lng": "-84.1514"}, {"name": "Comer", "state": "GA", "lat": "34.0625", "lng": "-83.1263"}, {"name": "Eagle Grove", "state": "GA", "lat": "34.2919", "lng": "-83.0043"}, {"name": "LaGrange", "state": "GA", "lat": "33.0274", "lng": "-85.0384"}, {"name": "Oliver", "state": "GA", "lat": "32.5214", "lng": "-81.5331"}, {"name": "Cherry Log", "state": "GA", "lat": "34.7864", "lng": "-84.3839"}, {"name": "Conyers", "state": "GA", "lat": "33.6645", "lng": "-83.9967"}, {"name": "Putney", "state": "GA", "lat": "31.4756", "lng": "-84.1010"}, {"name": "Blairsville", "state": "GA", "lat": "34.8761", "lng": "-83.9548"}, {"name": "Tiger", "state": "GA", "lat": "34.8458", "lng": "-83.4330"}, {"name": "Ivey", "state": "GA", "lat": "32.9092", "lng": "-83.2983"}, {"name": "Buckhead", "state": "GA", "lat": "33.5685", "lng": "-83.3622"}, {"name": "Hiram", "state": "GA", "lat": "33.8771", "lng": "-84.7710"}, {"name": "Canon", "state": "GA", "lat": "34.3455", "lng": "-83.1107"}, {"name": "Centerville", "state": "GA", "lat": "32.6341", "lng": "-83.6854"}, {"name": "Oakwood", "state": "GA", "lat": "34.2233", "lng": "-83.8847"}, {"name": "Woodland", "state": "GA", "lat": "32.7877", "lng": "-84.5606"}, {"name": "Thunderbolt", "state": "GA", "lat": "32.0339", "lng": "-81.0480"}, {"name": "Candler-McAfee", "state": "GA", "lat": "33.7267", "lng": "-84.2723"}, {"name": "Indian Springs", "state": "GA", "lat": "34.9606", "lng": "-85.1592"}, {"name": "Woodbine", "state": "GA", "lat": "30.9595", "lng": "-81.7175"}, {"name": "Hiawassee", "state": "GA", "lat": "34.9494", "lng": "-83.7530"}, {"name": "Buena Vista", "state": "GA", "lat": "32.3188", "lng": "-84.5177"}, {"name": "Oxford", "state": "GA", "lat": "33.6277", "lng": "-83.8721"}, {"name": "Harrison", "state": "GA", "lat": "32.8263", "lng": "-82.7258"}, {"name": "Mineral Bluff", "state": "GA", "lat": "34.9140", "lng": "-84.2776"}, {"name": "Milledgeville", "state": "GA", "lat": "33.0874", "lng": "-83.2414"}, {"name": "Mount Zion", "state": "GA", "lat": "33.6409", "lng": "-85.1801"}, {"name": "Carrollton", "state": "GA", "lat": "33.5818", "lng": "-85.0837"}, {"name": "Whitemarsh Island", "state": "GA", "lat": "32.0304", "lng": "-81.0109"}, {"name": "Rebecca", "state": "GA", "lat": "31.8072", "lng": "-83.4875"}, {"name": "Alpharetta", "state": "GA", "lat": "34.0703", "lng": "-84.2738"}, {"name": "Jenkinsburg", "state": "GA", "lat": "33.3225", "lng": "-84.0388"}, {"name": "Yatesville", "state": "GA", "lat": "32.9133", "lng": "-84.1423"}, {"name": "Carl", "state": "GA", "lat": "34.0046", "lng": "-83.8128"}, {"name": "Skidaway Island", "state": "GA", "lat": "31.9372", "lng": "-81.0449"}, {"name": "Glenwood", "state": "GA", "lat": "32.1805", "lng": "-82.6709"}, {"name": "Mount Airy", "state": "GA", "lat": "34.5221", "lng": "-83.4976"}, {"name": "Avondale Estates", "state": "GA", "lat": "33.7699", "lng": "-84.2648"}, {"name": "Andersonville", "state": "GA", "lat": "32.1965", "lng": "-84.1454"}, {"name": "Dudley", "state": "GA", "lat": "32.5321", "lng": "-83.0805"}, {"name": "Dock Junction", "state": "GA", "lat": "31.2031", "lng": "-81.5156"}, {"name": "Chattanooga Valley", "state": "GA", "lat": "34.9241", "lng": "-85.3431"}, {"name": "Baxley", "state": "GA", "lat": "31.7642", "lng": "-82.3508"}, {"name": "Howard", "state": "GA", "lat": "32.5982", "lng": "-84.3786"}, {"name": "Lakeview", "state": "GA", "lat": "34.9777", "lng": "-85.2539"}, {"name": "Jasper", "state": "GA", "lat": "34.4709", "lng": "-84.4496"}, {"name": "Remerton", "state": "GA", "lat": "30.8441", "lng": "-83.3085"}, {"name": "Warwick", "state": "GA", "lat": "31.8298", "lng": "-83.9206"}, {"name": "Snellville", "state": "GA", "lat": "33.8561", "lng": "-84.0038"}, {"name": "Crawford", "state": "GA", "lat": "33.8830", "lng": "-83.1552"}, {"name": "Euharlee", "state": "GA", "lat": "34.1441", "lng": "-84.9327"}, {"name": "Arabi", "state": "GA", "lat": "31.8282", "lng": "-83.7302"}, {"name": "Salem", "state": "GA", "lat": "32.7588", "lng": "-84.1933"}, {"name": "Bishop", "state": "GA", "lat": "33.8171", "lng": "-83.4372"}, {"name": "Bremen", "state": "GA", "lat": "33.7086", "lng": "-85.1498"}, {"name": "Robins AFB", "state": "GA", "lat": "32.6092", "lng": "-83.5846"}, {"name": "Hazlehurst", "state": "GA", "lat": "31.8651", "lng": "-82.5994"}, {"name": "Bowersville", "state": "GA", "lat": "34.3730", "lng": "-83.0838"}, {"name": "Satilla", "state": "GA", "lat": "31.7921", "lng": "-82.5640"}, {"name": "Nelson", "state": "GA", "lat": "34.3790", "lng": "-84.3708"}, {"name": "Griffin", "state": "GA", "lat": "33.2418", "lng": "-84.2747"}, {"name": "Coolidge", "state": "GA", "lat": "31.0113", "lng": "-83.8660"}, {"name": "Wilmington Island", "state": "GA", "lat": "32.0036", "lng": "-80.9752"}, {"name": "Whitesburg", "state": "GA", "lat": "33.4928", "lng": "-84.9137"}, {"name": "Moreland", "state": "GA", "lat": "33.2861", "lng": "-84.7699"}, {"name": "McDonough", "state": "GA", "lat": "33.4399", "lng": "-84.1508"}, {"name": "Davisboro", "state": "GA", "lat": "32.9826", "lng": "-82.6031"}, {"name": "Alma", "state": "GA", "lat": "31.5432", "lng": "-82.4745"}, {"name": "Tifton", "state": "GA", "lat": "31.4625", "lng": "-83.5205"}, {"name": "Homerville", "state": "GA", "lat": "31.0385", "lng": "-82.7420"}, {"name": "Warrenton", "state": "GA", "lat": "33.4067", "lng": "-82.6653"}, {"name": "Cornelia", "state": "GA", "lat": "34.5169", "lng": "-83.5310"}, {"name": "Donalsonville", "state": "GA", "lat": "31.0404", "lng": "-84.8792"}, {"name": "Greenville", "state": "GA", "lat": "33.0322", "lng": "-84.7162"}, {"name": "Woodbury", "state": "GA", "lat": "32.9848", "lng": "-84.5821"}, {"name": "Summerville", "state": "GA", "lat": "34.4788", "lng": "-85.3491"}, {"name": "Tallulah Falls", "state": "GA", "lat": "34.7258", "lng": "-83.3816"}, {"name": "Clarkston", "state": "GA", "lat": "33.8117", "lng": "-84.2405"}, {"name": "Molena", "state": "GA", "lat": "33.0118", "lng": "-84.5002"}, {"name": "North High Shoals", "state": "GA", "lat": "33.8273", "lng": "-83.5015"}, {"name": "Reed Creek", "state": "GA", "lat": "34.4395", "lng": "-82.9103"}, {"name": "College Park", "state": "GA", "lat": "33.6364", "lng": "-84.4640"}, {"name": "Good Hope", "state": "GA", "lat": "33.7850", "lng": "-83.6094"}, {"name": "Gumlog", "state": "GA", "lat": "34.4953", "lng": "-83.0975"}, {"name": "Heron Bay", "state": "GA", "lat": "33.3393", "lng": "-84.1922"}, {"name": "Lawrenceville", "state": "GA", "lat": "33.9525", "lng": "-83.9928"}, {"name": "Cadwell", "state": "GA", "lat": "32.3396", "lng": "-83.0420"}, {"name": "Leary", "state": "GA", "lat": "31.4847", "lng": "-84.5133"}, {"name": "Morgan", "state": "GA", "lat": "31.5381", "lng": "-84.6033"}, {"name": "Sylvester", "state": "GA", "lat": "31.5300", "lng": "-83.8338"}, {"name": "Smithville", "state": "GA", "lat": "31.9013", "lng": "-84.2552"}, {"name": "Grovetown", "state": "GA", "lat": "33.4504", "lng": "-82.2073"}, {"name": "Luthersville", "state": "GA", "lat": "33.2096", "lng": "-84.7442"}, {"name": "Blue Ridge", "state": "GA", "lat": "34.8666", "lng": "-84.3218"}, {"name": "Mendes", "state": "GA", "lat": "31.9953", "lng": "-81.9709"}, {"name": "Valdosta", "state": "GA", "lat": "30.8502", "lng": "-83.2788"}, {"name": "Register", "state": "GA", "lat": "32.3657", "lng": "-81.8844"}, {"name": "Argyle", "state": "GA", "lat": "31.0732", "lng": "-82.6489"}, {"name": "Dunwoody", "state": "GA", "lat": "33.9418", "lng": "-84.3122"}, {"name": "Eton", "state": "GA", "lat": "34.8282", "lng": "-84.7657"}, {"name": "Bowdon", "state": "GA", "lat": "33.5378", "lng": "-85.2540"}, {"name": "Sunset Village", "state": "GA", "lat": "32.8947", "lng": "-84.4057"}, {"name": "Pine Lake", "state": "GA", "lat": "33.7904", "lng": "-84.2060"}, {"name": "Kennesaw", "state": "GA", "lat": "34.0262", "lng": "-84.6177"}, {"name": "Lincoln Park", "state": "GA", "lat": "32.8675", "lng": "-84.3349"}, {"name": "Iron City", "state": "GA", "lat": "31.0136", "lng": "-84.8134"}, {"name": "Moultrie", "state": "GA", "lat": "31.1591", "lng": "-83.7708"}, {"name": "East Point", "state": "GA", "lat": "33.6696", "lng": "-84.4700"}, {"name": "West Point", "state": "GA", "lat": "32.8937", "lng": "-85.1453"}, {"name": "Perry", "state": "GA", "lat": "32.4718", "lng": "-83.7280"}, {"name": "Haralson", "state": "GA", "lat": "33.2285", "lng": "-84.5690"}, {"name": "Douglas", "state": "GA", "lat": "31.5065", "lng": "-82.8543"}, {"name": "Redan", "state": "GA", "lat": "33.7393", "lng": "-84.1644"}, {"name": "Carnesville", "state": "GA", "lat": "34.3723", "lng": "-83.2336"}, {"name": "Barnesville", "state": "GA", "lat": "33.0508", "lng": "-84.1527"}, {"name": "Daisy", "state": "GA", "lat": "32.1510", "lng": "-81.8362"}, {"name": "Newington", "state": "GA", "lat": "32.5887", "lng": "-81.5062"}, {"name": "Moody AFB", "state": "GA", "lat": "30.9715", "lng": "-83.1954"}, {"name": "Arlington", "state": "GA", "lat": "31.4383", "lng": "-84.7253"}, {"name": "North Decatur", "state": "GA", "lat": "33.8073", "lng": "-84.2889"}, {"name": "Vidalia", "state": "GA", "lat": "32.2125", "lng": "-82.4019"}, {"name": "Rocky Ford", "state": "GA", "lat": "32.6637", "lng": "-81.8297"}, {"name": "Danville", "state": "GA", "lat": "32.6060", "lng": "-83.2460"}, {"name": "Woolsey", "state": "GA", "lat": "33.3626", "lng": "-84.4112"}, {"name": "Auburn", "state": "GA", "lat": "34.0157", "lng": "-83.8319"}, {"name": "Cuthbert", "state": "GA", "lat": "31.7713", "lng": "-84.7940"}, {"name": "Fairburn", "state": "GA", "lat": "33.5496", "lng": "-84.5914"}, {"name": "Garfield", "state": "GA", "lat": "32.6495", "lng": "-82.0963"}, {"name": "McCaysville", "state": "GA", "lat": "34.9811", "lng": "-84.3708"}, {"name": "Scotland", "state": "GA", "lat": "32.0472", "lng": "-82.8180"}, {"name": "Rockmart", "state": "GA", "lat": "34.0103", "lng": "-85.0441"}, {"name": "Patterson", "state": "GA", "lat": "31.3855", "lng": "-82.1373"}, {"name": "Jakin", "state": "GA", "lat": "31.0901", "lng": "-84.9822"}, {"name": "Franklin Springs", "state": "GA", "lat": "34.2840", "lng": "-83.1459"}, {"name": "Chester", "state": "GA", "lat": "32.3946", "lng": "-83.1551"}, {"name": "Norman Park", "state": "GA", "lat": "31.2692", "lng": "-83.6843"}, {"name": "Brookhaven", "state": "GA", "lat": "33.8744", "lng": "-84.3314"}, {"name": "McIntyre", "state": "GA", "lat": "32.8466", "lng": "-83.2011"}, {"name": "East Dublin", "state": "GA", "lat": "32.5468", "lng": "-82.8674"}, {"name": "Marshallville", "state": "GA", "lat": "32.4564", "lng": "-83.9407"}, {"name": "Winterville", "state": "GA", "lat": "33.9666", "lng": "-83.2815"}, {"name": "Experiment", "state": "GA", "lat": "33.2789", "lng": "-84.2760"}, {"name": "Lake Park", "state": "GA", "lat": "30.6852", "lng": "-83.1874"}, {"name": "Stapleton", "state": "GA", "lat": "33.2171", "lng": "-82.4672"}, {"name": "Ochlocknee", "state": "GA", "lat": "30.9752", "lng": "-84.0517"}, {"name": "Byron", "state": "GA", "lat": "32.6475", "lng": "-83.7540"}, {"name": "Vernonburg", "state": "GA", "lat": "31.9638", "lng": "-81.1257"}, {"name": "Leslie", "state": "GA", "lat": "31.9545", "lng": "-84.0864"}, {"name": "Bethlehem", "state": "GA", "lat": "33.9372", "lng": "-83.7097"}, {"name": "Baldwin", "state": "GA", "lat": "34.4864", "lng": "-83.5494"}, {"name": "Darien", "state": "GA", "lat": "31.3568", "lng": "-81.4315"}, {"name": "Dacula", "state": "GA", "lat": "33.9815", "lng": "-83.8951"}, {"name": "Bluffton", "state": "GA", "lat": "31.5198", "lng": "-84.8691"}, {"name": "Nashville", "state": "GA", "lat": "31.2051", "lng": "-83.2487"}, {"name": "Ephesus", "state": "GA", "lat": "33.4069", "lng": "-85.2568"}, {"name": "Chatsworth", "state": "GA", "lat": "34.7808", "lng": "-84.7835"}, {"name": "Zebulon", "state": "GA", "lat": "33.0944", "lng": "-84.3424"}, {"name": "Canoochee", "state": "GA", "lat": "32.6786", "lng": "-82.1786"}, {"name": "Sardis", "state": "GA", "lat": "32.9756", "lng": "-81.7621"}, {"name": "Forsyth", "state": "GA", "lat": "33.0347", "lng": "-83.9380"}, {"name": "Statesboro", "state": "GA", "lat": "32.4376", "lng": "-81.7750"}, {"name": "Newborn", "state": "GA", "lat": "33.5163", "lng": "-83.6959"}, {"name": "Milton", "state": "GA", "lat": "34.1353", "lng": "-84.3138"}, {"name": "Girard", "state": "GA", "lat": "33.0400", "lng": "-81.7122"}, {"name": "Lakeview Estates", "state": "GA", "lat": "33.7046", "lng": "-84.0367"}, {"name": "Higgston", "state": "GA", "lat": "32.2164", "lng": "-82.4670"}, {"name": "The Rock", "state": "GA", "lat": "32.9636", "lng": "-84.2378"}, {"name": "Alto", "state": "GA", "lat": "34.4649", "lng": "-83.5727"}, {"name": "Gay", "state": "GA", "lat": "33.0936", "lng": "-84.5755"}, {"name": "Epworth", "state": "GA", "lat": "34.9510", "lng": "-84.3808"}, {"name": "Raoul", "state": "GA", "lat": "34.4548", "lng": "-83.5995"}, {"name": "Lindale", "state": "GA", "lat": "34.1884", "lng": "-85.1808"}, {"name": "North Druid Hills", "state": "GA", "lat": "33.8186", "lng": "-84.3254"}, {"name": "Mitchell", "state": "GA", "lat": "33.2199", "lng": "-82.7031"}, {"name": "Deepstep", "state": "GA", "lat": "33.0177", "lng": "-82.9679"}, {"name": "Keysville", "state": "GA", "lat": "33.2375", "lng": "-82.2289"}, {"name": "Monroe", "state": "GA", "lat": "33.7990", "lng": "-83.7160"}, {"name": "Albany", "state": "GA", "lat": "31.5776", "lng": "-84.1762"}, {"name": "Hiltonia", "state": "GA", "lat": "32.8833", "lng": "-81.6613"}, {"name": "Cumming", "state": "GA", "lat": "34.2064", "lng": "-84.1337"}, {"name": "Monticello", "state": "GA", "lat": "33.3075", "lng": "-83.6863"}, {"name": "Chickamauga", "state": "GA", "lat": "34.8744", "lng": "-85.2890"}, {"name": "Quitman", "state": "GA", "lat": "30.7849", "lng": "-83.5603"}, {"name": "Clermont", "state": "GA", "lat": "34.4783", "lng": "-83.7721"}, {"name": "Milner", "state": "GA", "lat": "33.1177", "lng": "-84.1930"}, {"name": "Morrow", "state": "GA", "lat": "33.5816", "lng": "-84.3392"}, {"name": "Buchanan", "state": "GA", "lat": "33.8029", "lng": "-85.1804"}, {"name": "Sparta", "state": "GA", "lat": "33.2767", "lng": "-82.9704"}, {"name": "Homeland", "state": "GA", "lat": "30.8598", "lng": "-82.0215"}, {"name": "Swainsboro", "state": "GA", "lat": "32.5866", "lng": "-82.3345"}, {"name": "Jonesboro", "state": "GA", "lat": "33.5212", "lng": "-84.3541"}, {"name": "Alapaha", "state": "GA", "lat": "31.3832", "lng": "-83.2237"}, {"name": "Nicholls", "state": "GA", "lat": "31.5191", "lng": "-82.6386"}, {"name": "Jacksonville", "state": "GA", "lat": "31.8126", "lng": "-82.9790"}, {"name": "Ambrose", "state": "GA", "lat": "31.5944", "lng": "-83.0138"}, {"name": "Dewy Rose", "state": "GA", "lat": "34.1681", "lng": "-82.9395"}, {"name": "Duluth", "state": "GA", "lat": "34.0053", "lng": "-84.1491"}, {"name": "Lavonia", "state": "GA", "lat": "34.4345", "lng": "-83.1082"}, {"name": "Fort Gaines", "state": "GA", "lat": "31.6238", "lng": "-85.0528"}, {"name": "Matthews", "state": "GA", "lat": "33.2176", "lng": "-82.3079"}, {"name": "Temple", "state": "GA", "lat": "33.7342", "lng": "-85.0289"}, {"name": "Camilla", "state": "GA", "lat": "31.2337", "lng": "-84.2089"}, {"name": "Athens", "state": "GA", "lat": "33.9508", "lng": "-83.3689"}, {"name": "Sylvania", "state": "GA", "lat": "32.7465", "lng": "-81.6410"}, {"name": "Carlton", "state": "GA", "lat": "34.0427", "lng": "-83.0386"}, {"name": "Fort Stewart", "state": "GA", "lat": "31.8818", "lng": "-81.6105"}, {"name": "Deenwood", "state": "GA", "lat": "31.2476", "lng": "-82.3677"}, {"name": "Arcade", "state": "GA", "lat": "34.0693", "lng": "-83.5400"}, {"name": "Covington", "state": "GA", "lat": "33.6049", "lng": "-83.8465"}, {"name": "Chauncey", "state": "GA", "lat": "32.1059", "lng": "-83.0645"}, {"name": "Taylorsville", "state": "GA", "lat": "34.0860", "lng": "-84.9876"}, {"name": "Conley", "state": "GA", "lat": "33.6398", "lng": "-84.3376"}, {"name": "Du Pont", "state": "GA", "lat": "30.9891", "lng": "-82.8691"}, {"name": "East Griffin", "state": "GA", "lat": "33.2439", "lng": "-84.2318"}, {"name": "Graham", "state": "GA", "lat": "31.8292", "lng": "-82.5030"}, {"name": "Empire", "state": "GA", "lat": "32.3395", "lng": "-83.2951"}, {"name": "Fair Oaks", "state": "GA", "lat": "33.9193", "lng": "-84.5444"}, {"name": "Hephzibah", "state": "GA", "lat": "33.2906", "lng": "-82.0994"}, {"name": "Gainesville", "state": "GA", "lat": "34.2902", "lng": "-83.8303"}, {"name": "Dasher", "state": "GA", "lat": "30.7462", "lng": "-83.2253"}, {"name": "Ludowici", "state": "GA", "lat": "31.7096", "lng": "-81.7457"}, {"name": "LaFayette", "state": "GA", "lat": "34.7089", "lng": "-85.2814"}, {"name": "Fayetteville", "state": "GA", "lat": "33.4500", "lng": "-84.4709"}, {"name": "Hampton", "state": "GA", "lat": "33.3835", "lng": "-84.2854"}, {"name": "Locust Grove", "state": "GA", "lat": "33.3436", "lng": "-84.1066"}, {"name": "Waycross", "state": "GA", "lat": "31.2108", "lng": "-82.3579"}, {"name": "Riddleville", "state": "GA", "lat": "32.9069", "lng": "-82.6661"}, {"name": "Pendergrass", "state": "GA", "lat": "34.1647", "lng": "-83.6827"}, {"name": "Watkinsville", "state": "GA", "lat": "33.8613", "lng": "-83.4073"}, {"name": "Lilly", "state": "GA", "lat": "32.1465", "lng": "-83.8775"}, {"name": "Attapulgus", "state": "GA", "lat": "30.7495", "lng": "-84.4839"}, {"name": "Avalon", "state": "GA", "lat": "34.5027", "lng": "-83.1967"}, {"name": "Reidsville", "state": "GA", "lat": "32.0871", "lng": "-82.1244"}, {"name": "Edison", "state": "GA", "lat": "31.5608", "lng": "-84.7374"}, {"name": "Brooklet", "state": "GA", "lat": "32.3898", "lng": "-81.6668"}, {"name": "Plainville", "state": "GA", "lat": "34.4053", "lng": "-85.0312"}, {"name": "Stockbridge", "state": "GA", "lat": "33.5253", "lng": "-84.2294"}, {"name": "Collins", "state": "GA", "lat": "32.1794", "lng": "-82.1103"}, {"name": "Toccoa", "state": "GA", "lat": "34.5807", "lng": "-83.3256"}, {"name": "Funston", "state": "GA", "lat": "31.1989", "lng": "-83.8771"}, {"name": "Brinson", "state": "GA", "lat": "30.9784", "lng": "-84.7379"}, {"name": "Lovejoy", "state": "GA", "lat": "33.4426", "lng": "-84.3176"}, {"name": "Siloam", "state": "GA", "lat": "33.5366", "lng": "-83.0812"}, {"name": "Loganville", "state": "GA", "lat": "33.8353", "lng": "-83.8957"}, {"name": "Braselton", "state": "GA", "lat": "34.1087", "lng": "-83.8124"}, {"name": "White Plains", "state": "GA", "lat": "33.4807", "lng": "-83.0372"}, {"name": "De Soto", "state": "GA", "lat": "31.9548", "lng": "-84.0636"}, {"name": "Maysville", "state": "GA", "lat": "34.2556", "lng": "-83.5528"}, {"name": "Lake City", "state": "GA", "lat": "33.6064", "lng": "-84.3411"}, {"name": "Screven", "state": "GA", "lat": "31.4840", "lng": "-82.0171"}, {"name": "Butler", "state": "GA", "lat": "32.5570", "lng": "-84.2377"}, {"name": "Appling", "state": "GA", "lat": "33.5588", "lng": "-82.3183"}, {"name": "Riceboro", "state": "GA", "lat": "31.7264", "lng": "-81.4438"}, {"name": "Smyrna", "state": "GA", "lat": "33.8633", "lng": "-84.5168"}, {"name": "Blythe", "state": "GA", "lat": "33.3011", "lng": "-82.2025"}, {"name": "Parrott", "state": "GA", "lat": "31.8943", "lng": "-84.5117"}, {"name": "Vienna", "state": "GA", "lat": "32.0925", "lng": "-83.7864"}, {"name": "Emerson", "state": "GA", "lat": "34.1303", "lng": "-84.7483"}, {"name": "Wrightsville", "state": "GA", "lat": "32.7265", "lng": "-82.7197"}, {"name": "Sugar Hill", "state": "GA", "lat": "34.1081", "lng": "-84.0560"}, {"name": "Reynolds", "state": "GA", "lat": "32.5609", "lng": "-84.0943"}, {"name": "Cartersville", "state": "GA", "lat": "34.1632", "lng": "-84.8007"}, {"name": "Braswell", "state": "GA", "lat": "33.9836", "lng": "-84.9591"}, {"name": "Mount Vernon", "state": "GA", "lat": "32.1836", "lng": "-82.5953"}, {"name": "Wrens", "state": "GA", "lat": "33.2070", "lng": "-82.3878"}, {"name": "Rutledge", "state": "GA", "lat": "33.6263", "lng": "-83.6112"}, {"name": "Hartwell", "state": "GA", "lat": "34.3497", "lng": "-82.9290"}, {"name": "Grayson", "state": "GA", "lat": "33.8900", "lng": "-83.9574"}, {"name": "Lilburn", "state": "GA", "lat": "33.8887", "lng": "-84.1379"}, {"name": "Union City", "state": "GA", "lat": "33.5942", "lng": "-84.5628"}, {"name": "Tyrone", "state": "GA", "lat": "33.4752", "lng": "-84.5941"}, {"name": "Orchard Hill", "state": "GA", "lat": "33.1851", "lng": "-84.2123"}, {"name": "Young Harris", "state": "GA", "lat": "34.9349", "lng": "-83.8472"}, {"name": "Jeffersonville", "state": "GA", "lat": "32.6863", "lng": "-83.3433"}, {"name": "St. Marys", "state": "GA", "lat": "30.7567", "lng": "-81.5722"}, {"name": "Pine Mountain", "state": "GA", "lat": "32.8522", "lng": "-84.8522"}, {"name": "Calvary", "state": "GA", "lat": "30.7225", "lng": "-84.3541"}, {"name": "Evans", "state": "GA", "lat": "33.5619", "lng": "-82.1351"}, {"name": "Jesup", "state": "GA", "lat": "31.5991", "lng": "-81.8898"}, {"name": "Blakely", "state": "GA", "lat": "31.3827", "lng": "-84.9228"}, {"name": "Hawkinsville", "state": "GA", "lat": "32.2964", "lng": "-83.4814"}, {"name": "Georgetown", "state": "GA", "lat": "31.9849", "lng": "-81.2260"}, {"name": "Dillard", "state": "GA", "lat": "34.9749", "lng": "-83.3820"}, {"name": "Meansville", "state": "GA", "lat": "33.0509", "lng": "-84.3083"}, {"name": "Peachtree City", "state": "GA", "lat": "33.3943", "lng": "-84.5711"}, {"name": "Ashburn", "state": "GA", "lat": "31.7096", "lng": "-83.6528"}, {"name": "Oconee", "state": "GA", "lat": "32.8534", "lng": "-82.9577"}, {"name": "Roberta", "state": "GA", "lat": "32.7196", "lng": "-84.0104"}, {"name": "Waleska", "state": "GA", "lat": "34.3171", "lng": "-84.5505"}, {"name": "Waverly Hall", "state": "GA", "lat": "32.6837", "lng": "-84.7378"}, {"name": "Seville", "state": "GA", "lat": "31.9607", "lng": "-83.6012"}, {"name": "Lithonia", "state": "GA", "lat": "33.7129", "lng": "-84.1061"}, {"name": "Metter", "state": "GA", "lat": "32.3958", "lng": "-82.0621"}, {"name": "Lyerly", "state": "GA", "lat": "34.4035", "lng": "-85.4041"}, {"name": "Warner Robins", "state": "GA", "lat": "32.5975", "lng": "-83.6526"}, {"name": "Dallas", "state": "GA", "lat": "33.9153", "lng": "-84.8416"}, {"name": "Cleveland", "state": "GA", "lat": "34.5971", "lng": "-83.7622"}, {"name": "Montgomery", "state": "GA", "lat": "31.9438", "lng": "-81.1081"}, {"name": "Pulaski", "state": "GA", "lat": "32.3904", "lng": "-81.9566"}, {"name": "Bonanza", "state": "GA", "lat": "33.4589", "lng": "-84.3379"}, {"name": "Talmo", "state": "GA", "lat": "34.1832", "lng": "-83.7210"}, {"name": "Pembroke", "state": "GA", "lat": "32.1455", "lng": "-81.6185"}, {"name": "Social Circle", "state": "GA", "lat": "33.6505", "lng": "-83.7116"}, {"name": "Dearing", "state": "GA", "lat": "33.4149", "lng": "-82.3852"}, {"name": "Norcross", "state": "GA", "lat": "33.9379", "lng": "-84.2065"}, {"name": "Glennville", "state": "GA", "lat": "31.9382", "lng": "-81.9305"}, {"name": "Kite", "state": "GA", "lat": "32.6922", "lng": "-82.5136"}, {"name": "Cave Spring", "state": "GA", "lat": "34.1081", "lng": "-85.3389"}, {"name": "Summertown", "state": "GA", "lat": "32.7458", "lng": "-82.2763"}, {"name": "Sparks", "state": "GA", "lat": "31.1693", "lng": "-83.4406"}, {"name": "Bronwood", "state": "GA", "lat": "31.8306", "lng": "-84.3643"}, {"name": "Acworth", "state": "GA", "lat": "34.0565", "lng": "-84.6709"}, {"name": "Rossville", "state": "GA", "lat": "34.9747", "lng": "-85.2898"}, {"name": "Pavo", "state": "GA", "lat": "30.9597", "lng": "-83.7380"}, {"name": "Statham", "state": "GA", "lat": "33.9646", "lng": "-83.6024"}, {"name": "Gray", "state": "GA", "lat": "33.0020", "lng": "-83.5374"}, {"name": "Kingsland", "state": "GA", "lat": "30.8193", "lng": "-81.7219"}, {"name": "Gibson", "state": "GA", "lat": "33.2334", "lng": "-82.5960"}, {"name": "Sale City", "state": "GA", "lat": "31.2625", "lng": "-84.0214"}, {"name": "Bainbridge", "state": "GA", "lat": "30.9046", "lng": "-84.5722"}, {"name": "Unionville", "state": "GA", "lat": "31.4363", "lng": "-83.5084"}, {"name": "Poulan", "state": "GA", "lat": "31.5145", "lng": "-83.7898"}, {"name": "Calhoun", "state": "GA", "lat": "34.4917", "lng": "-84.9391"}, {"name": "Mountain Park", "state": "GA", "lat": "34.0830", "lng": "-84.4133"}, {"name": "Byromville", "state": "GA", "lat": "32.2017", "lng": "-83.9072"}, {"name": "Cedar Springs", "state": "GA", "lat": "31.1874", "lng": "-85.0324"}, {"name": "Ty Ty", "state": "GA", "lat": "31.4720", "lng": "-83.6509"}, {"name": "Jersey", "state": "GA", "lat": "33.7177", "lng": "-83.8001"}, {"name": "Ellaville", "state": "GA", "lat": "32.2380", "lng": "-84.3089"}, {"name": "Aldora", "state": "GA", "lat": "33.0509", "lng": "-84.1759"}, {"name": "Rochelle", "state": "GA", "lat": "31.9488", "lng": "-83.4568"}, {"name": "Rincon", "state": "GA", "lat": "32.2945", "lng": "-81.2354"}, {"name": "Atlanta", "state": "GA", "lat": "33.7627", "lng": "-84.4225"}, {"name": "Homer", "state": "GA", "lat": "34.3350", "lng": "-83.4987"}, {"name": "Shellman", "state": "GA", "lat": "31.7571", "lng": "-84.6159"}, {"name": "Augusta", "state": "GA", "lat": "33.3645", "lng": "-82.0708"}, {"name": "Garden City", "state": "GA", "lat": "32.0867", "lng": "-81.1773"}, {"name": "Surrency", "state": "GA", "lat": "31.7216", "lng": "-82.1987"}, {"name": "Russell", "state": "GA", "lat": "33.9797", "lng": "-83.6922"}, {"name": "Talbotton", "state": "GA", "lat": "32.6773", "lng": "-84.5406"}, {"name": "Oak Park", "state": "GA", "lat": "32.3822", "lng": "-82.3153"}, {"name": "Allentown", "state": "GA", "lat": "32.5855", "lng": "-83.2273"}, {"name": "Dutch Island", "state": "GA", "lat": "32.0047", "lng": "-81.0317"}, {"name": "Savannah", "state": "GA", "lat": "32.0281", "lng": "-81.1785"}, {"name": "Sandy Springs", "state": "GA", "lat": "33.9366", "lng": "-84.3703"}, {"name": "Shiloh", "state": "GA", "lat": "32.8120", "lng": "-84.6989"}, {"name": "Lookout Mountain", "state": "GA", "lat": "34.9664", "lng": "-85.3622"}, {"name": "Colquitt", "state": "GA", "lat": "31.1741", "lng": "-84.7319"}, {"name": "Martin", "state": "GA", "lat": "34.4856", "lng": "-83.1983"}, {"name": "Woodville", "state": "GA", "lat": "33.6714", "lng": "-83.1063"}, {"name": "Clarkesville", "state": "GA", "lat": "34.6103", "lng": "-83.5284"}, {"name": "Sunny Side", "state": "GA", "lat": "33.3421", "lng": "-84.2911"}, {"name": "Eatonton", "state": "GA", "lat": "33.3258", "lng": "-83.3886"}, {"name": "Scottdale", "state": "GA", "lat": "33.7950", "lng": "-84.2634"}, {"name": "Senoia", "state": "GA", "lat": "33.3092", "lng": "-84.5550"}, {"name": "Irwinton", "state": "GA", "lat": "32.8108", "lng": "-83.1737"}, {"name": "Uvalda", "state": "GA", "lat": "32.0371", "lng": "-82.5080"}, {"name": "Greensboro", "state": "GA", "lat": "33.5678", "lng": "-83.1878"}, {"name": "Washington", "state": "GA", "lat": "33.7355", "lng": "-82.7427"}, {"name": "Culloden", "state": "GA", "lat": "32.8632", "lng": "-84.0939"}, {"name": "Waco", "state": "GA", "lat": "33.7026", "lng": "-85.1893"}, {"name": "Vidette", "state": "GA", "lat": "33.0376", "lng": "-82.2474"}, {"name": "Cairo", "state": "GA", "lat": "30.8790", "lng": "-84.2050"}, {"name": "Williamson", "state": "GA", "lat": "33.1777", "lng": "-84.3582"}, {"name": "Holly Springs", "state": "GA", "lat": "34.1686", "lng": "-84.4843"}, {"name": "Sharpsburg", "state": "GA", "lat": "33.3370", "lng": "-84.6504"}, {"name": "Pitts", "state": "GA", "lat": "31.9462", "lng": "-83.5417"}, {"name": "Kingston", "state": "GA", "lat": "34.2320", "lng": "-84.9445"}, {"name": "Dawson", "state": "GA", "lat": "31.7721", "lng": "-84.4437"}, {"name": "Shannon", "state": "GA", "lat": "34.3406", "lng": "-85.0854"}, {"name": "Tarrytown", "state": "GA", "lat": "32.3187", "lng": "-82.5595"}, {"name": "Montrose", "state": "GA", "lat": "32.5595", "lng": "-83.1535"}, {"name": "Lakeland", "state": "GA", "lat": "31.0410", "lng": "-83.0748"}]