[{"name": "Paauilo", "state": "HI", "lat": "20.0397", "lng": "-155.3696"}, {"name": "Discovery Harbour", "state": "HI", "lat": "19.0415", "lng": "-155.6254"}, {"name": "Haena", "state": "HI", "lat": "22.2186", "lng": "-159.5610"}, {"name": "Ualapue", "state": "HI", "lat": "21.0704", "lng": "-156.8355"}, {"name": "Waikane", "state": "HI", "lat": "21.4921", "lng": "-157.8721"}, {"name": "Kapalua", "state": "HI", "lat": "20.9959", "lng": "-156.6418"}, {"name": "Nanakuli", "state": "HI", "lat": "21.3892", "lng": "-158.1445"}, {"name": "Puhi", "state": "HI", "lat": "21.9622", "lng": "-159.3918"}, {"name": "West Loch Estate", "state": "HI", "lat": "21.3617", "lng": "-158.0246"}, {"name": "Ewa Gentry", "state": "HI", "lat": "21.3344", "lng": "-158.0262"}, {"name": "Keaau", "state": "HI", "lat": "19.6156", "lng": "-155.0372"}, {"name": "Puako", "state": "HI", "lat": "19.9389", "lng": "-155.8604"}, {"name": "Hauula", "state": "HI", "lat": "21.6111", "lng": "-157.9118"}, {"name": "Omao", "state": "HI", "lat": "21.9236", "lng": "-159.4814"}, {"name": "Makakilo", "state": "HI", "lat": "21.3591", "lng": "-158.0813"}, {"name": "Schofield Barracks", "state": "HI", "lat": "21.4936", "lng": "-158.0617"}, {"name": "Ewa Villages", "state": "HI", "lat": "21.3418", "lng": "-158.0390"}, {"name": "Kaaawa", "state": "HI", "lat": "21.5485", "lng": "-157.8534"}, {"name": "Heeia", "state": "HI", "lat": "21.4211", "lng": "-157.8203"}, {"name": "Waipahu", "state": "HI", "lat": "21.3858", "lng": "-158.0103"}, {"name": "Kahului", "state": "HI", "lat": "20.8715", "lng": "-156.4603"}, {"name": "Kahuku", "state": "HI", "lat": "21.6793", "lng": "-157.9473"}, {"name": "Pearl City", "state": "HI", "lat": "21.4031", "lng": "-157.9566"}, {"name": "Ahuimanu", "state": "HI", "lat": "21.4379", "lng": "-157.8404"}, {"name": "Kalaheo", "state": "HI", "lat": "21.9159", "lng": "-159.5236"}, {"name": "Maunaloa", "state": "HI", "lat": "21.1334", "lng": "-157.2123"}, {"name": "Captain Cook", "state": "HI", "lat": "19.4995", "lng": "-155.8937"}, {"name": "Kapaau", "state": "HI", "lat": "20.2267", "lng": "-155.8050"}, {"name": "Haiku-Pauwela", "state": "HI", "lat": "20.9156", "lng": "-156.3022"}, {"name": "Hawi", "state": "HI", "lat": "20.2392", "lng": "-155.8305"}, {"name": "Mililani Town", "state": "HI", "lat": "21.4465", "lng": "-158.0147"}, {"name": "Wainiha", "state": "HI", "lat": "22.1983", "lng": "-159.5456"}, {"name": "Papaikou", "state": "HI", "lat": "19.7917", "lng": "-155.0962"}, {"name": "Kawela Bay", "state": "HI", "lat": "21.6991", "lng": "-158.0026"}, {"name": "Honomu", "state": "HI", "lat": "19.8695", "lng": "-155.1124"}, {"name": "Kahaluu", "state": "HI", "lat": "21.4576", "lng": "-157.8453"}, {"name": "Halawa", "state": "HI", "lat": "21.3754", "lng": "-157.9185"}, {"name": "Pahala", "state": "HI", "lat": "19.1995", "lng": "-155.4793"}, {"name": "Lahaina", "state": "HI", "lat": "20.8848", "lng": "-156.6618"}, {"name": "Hanalei", "state": "HI", "lat": "22.2041", "lng": "-159.4977"}, {"name": "Honokaa", "state": "HI", "lat": "20.0746", "lng": "-155.4656"}, {"name": "Volcano", "state": "HI", "lat": "19.4800", "lng": "-155.2487"}, {"name": "Pupukea", "state": "HI", "lat": "21.6511", "lng": "-158.0436"}, {"name": "Laie", "state": "HI", "lat": "21.6443", "lng": "-157.9280"}, {"name": "Hilo", "state": "HI", "lat": "19.6886", "lng": "-155.0864"}, {"name": "Hawaiian Beaches", "state": "HI", "lat": "19.5423", "lng": "-154.9223"}, {"name": "Kaunakakai", "state": "HI", "lat": "21.0905", "lng": "-156.9981"}, {"name": "Waimea", "state": "HI", "lat": "20.0124", "lng": "-155.6378"}, {"name": "Punaluu", "state": "HI", "lat": "21.5811", "lng": "-157.8901"}, {"name": "Makaha Valley", "state": "HI", "lat": "21.4842", "lng": "-158.1854"}, {"name": "Kurtistown", "state": "HI", "lat": "19.5833", "lng": "-155.0721"}, {"name": "Wailua", "state": "HI", "lat": "22.0550", "lng": "-159.3406"}, {"name": "Kapaa", "state": "HI", "lat": "22.0910", "lng": "-159.3520"}, {"name": "Kaneohe Station", "state": "HI", "lat": "21.4451", "lng": "-157.7515"}, {"name": "Pakala Village", "state": "HI", "lat": "21.9445", "lng": "-159.6436"}, {"name": "Honolulu", "state": "HI", "lat": "21.3294", "lng": "-157.8460"}, {"name": "Wailea", "state": "HI", "lat": "20.6873", "lng": "-156.4291"}, {"name": "Haleiwa", "state": "HI", "lat": "21.5871", "lng": "-158.1074"}, {"name": "Fern Forest", "state": "HI", "lat": "19.4648", "lng": "-155.1324"}, {"name": "Kahaluu-Keauhou", "state": "HI", "lat": "19.5726", "lng": "-155.9580"}, {"name": "Waimalu", "state": "HI", "lat": "21.3913", "lng": "-157.9345"}, {"name": "Paia", "state": "HI", "lat": "20.9062", "lng": "-156.3678"}, {"name": "Princeville", "state": "HI", "lat": "22.2177", "lng": "-159.4809"}, {"name": "Waiohinu", "state": "HI", "lat": "19.0716", "lng": "-155.6143"}, {"name": "Kukuihaele", "state": "HI", "lat": "20.1195", "lng": "-155.5654"}, {"name": "Kapolei", "state": "HI", "lat": "21.3403", "lng": "-158.0665"}, {"name": "Eleele", "state": "HI", "lat": "21.9088", "lng": "-159.5801"}, {"name": "Paukaa", "state": "HI", "lat": "19.7625", "lng": "-155.0948"}, {"name": "Kalaeloa", "state": "HI", "lat": "21.3215", "lng": "-158.0812"}, {"name": "Whitmore Village", "state": "HI", "lat": "21.5120", "lng": "-158.0273"}, {"name": "Ewa Beach", "state": "HI", "lat": "21.3181", "lng": "-158.0073"}, {"name": "Pahoa", "state": "HI", "lat": "19.4961", "lng": "-154.9454"}, {"name": "Lihue", "state": "HI", "lat": "21.9728", "lng": "-159.3541"}, {"name": "Wheeler AFB", "state": "HI", "lat": "21.4735", "lng": "-158.0346"}, {"name": "Waianae", "state": "HI", "lat": "21.4569", "lng": "-158.1759"}, {"name": "Fern Acres", "state": "HI", "lat": "19.5082", "lng": "-155.0785"}, {"name": "Kaanapali", "state": "HI", "lat": "20.9276", "lng": "-156.6795"}, {"name": "Haliimaile", "state": "HI", "lat": "20.8671", "lng": "-156.3381"}, {"name": "Eden Roc", "state": "HI", "lat": "19.4917", "lng": "-155.0958"}, {"name": "Honalo", "state": "HI", "lat": "19.5787", "lng": "-155.9020"}, {"name": "Maalaea", "state": "HI", "lat": "20.8047", "lng": "-156.4898"}, {"name": "Launiupoko", "state": "HI", "lat": "20.8541", "lng": "-156.6424"}, {"name": "Waikele", "state": "HI", "lat": "21.4025", "lng": "-158.0058"}, {"name": "Aiea", "state": "HI", "lat": "21.3865", "lng": "-157.9232"}, {"name": "Keokea", "state": "HI", "lat": "20.7211", "lng": "-156.3625"}, {"name": "Nanawale Estates", "state": "HI", "lat": "19.5042", "lng": "-154.9117"}, {"name": "Koloa", "state": "HI", "lat": "21.9030", "lng": "-159.4610"}, {"name": "Ko Olina", "state": "HI", "lat": "21.3378", "lng": "-158.1188"}, {"name": "Hawaiian Ocean View", "state": "HI", "lat": "19.0959", "lng": "-155.7749"}, {"name": "Waikapu", "state": "HI", "lat": "20.8391", "lng": "-156.5221"}, {"name": "Waimanalo", "state": "HI", "lat": "21.3421", "lng": "-157.7303"}, {"name": "Honaunau-Napoopoo", "state": "HI", "lat": "19.4538", "lng": "-155.8588"}, {"name": "East Honolulu", "state": "HI", "lat": "21.2975", "lng": "-157.7211"}, {"name": "Hanapepe", "state": "HI", "lat": "21.9140", "lng": "-159.5874"}, {"name": "Hana", "state": "HI", "lat": "20.7720", "lng": "-156.0107"}, {"name": "Hawaiian Paradise Park", "state": "HI", "lat": "19.5828", "lng": "-154.9693"}, {"name": "Naalehu", "state": "HI", "lat": "19.0698", "lng": "-155.5751"}, {"name": "Waipio", "state": "HI", "lat": "21.4143", "lng": "-157.9966"}, {"name": "Kekaha", "state": "HI", "lat": "21.9684", "lng": "-159.7141"}, {"name": "Kualapuu", "state": "HI", "lat": "21.1563", "lng": "-157.0591"}, {"name": "Kihei", "state": "HI", "lat": "20.7653", "lng": "-156.4454"}, {"name": "Mountain View", "state": "HI", "lat": "19.5358", "lng": "-155.1596"}, {"name": "Kaumakani", "state": "HI", "lat": "21.9187", "lng": "-159.6241"}, {"name": "Olowalu", "state": "HI", "lat": "20.8222", "lng": "-156.6169"}, {"name": "Wailua Homesteads", "state": "HI", "lat": "22.0650", "lng": "-159.3771"}, {"name": "Makawao", "state": "HI", "lat": "20.8480", "lng": "-156.3190"}, {"name": "Pukalani", "state": "HI", "lat": "20.8329", "lng": "-156.3415"}, {"name": "Manele", "state": "HI", "lat": "20.7419", "lng": "-156.9012"}, {"name": "Orchidlands Estates", "state": "HI", "lat": "19.5570", "lng": "-155.0142"}, {"name": "Kula", "state": "HI", "lat": "20.7706", "lng": "-156.3284"}, {"name": "Royal Kunia", "state": "HI", "lat": "21.4053", "lng": "-158.0318"}, {"name": "Makaha", "state": "HI", "lat": "21.4735", "lng": "-158.2103"}, {"name": "Mililani Mauka", "state": "HI", "lat": "21.4756", "lng": "-157.9947"}, {"name": "Mokuleia", "state": "HI", "lat": "21.5775", "lng": "-158.1487"}, {"name": "Makena", "state": "HI", "lat": "20.6310", "lng": "-156.4252"}, {"name": "Waihee-Waiehu", "state": "HI", "lat": "20.9188", "lng": "-156.5063"}, {"name": "Ocean Pointe", "state": "HI", "lat": "21.3145", "lng": "-158.0289"}, {"name": "Waimanalo Beach", "state": "HI", "lat": "21.3288", "lng": "-157.6975"}, {"name": "Holualoa", "state": "HI", "lat": "19.6238", "lng": "-155.9269"}, {"name": "Olinda", "state": "HI", "lat": "20.8261", "lng": "-156.2917"}, {"name": "Kalaoa", "state": "HI", "lat": "19.7369", "lng": "-156.0122"}, {"name": "Kealakekua", "state": "HI", "lat": "19.5286", "lng": "-155.9033"}, {"name": "Kalihiwai", "state": "HI", "lat": "22.2165", "lng": "-159.4405"}, {"name": "Pepeekeo", "state": "HI", "lat": "19.8316", "lng": "-155.1061"}, {"name": "Kailua", "state": "HI", "lat": "21.3920", "lng": "-157.7396"}, {"name": "Kaneohe", "state": "HI", "lat": "21.4062", "lng": "-157.7904"}, {"name": "Napili-Honokowai", "state": "HI", "lat": "20.9767", "lng": "-156.6646"}, {"name": "Wainaku", "state": "HI", "lat": "19.7449", "lng": "-155.0985"}, {"name": "Hickam Housing", "state": "HI", "lat": "21.3311", "lng": "-157.9475"}, {"name": "Hawaiian Acres", "state": "HI", "lat": "19.5325", "lng": "-155.0497"}, {"name": "Laupahoehoe", "state": "HI", "lat": "19.9749", "lng": "-155.2380"}, {"name": "Wailuku", "state": "HI", "lat": "20.8834", "lng": "-156.5059"}, {"name": "Waialua", "state": "HI", "lat": "21.5660", "lng": "-158.1198"}, {"name": "Leilani Estates", "state": "HI", "lat": "19.4659", "lng": "-154.9157"}, {"name": "Halaula", "state": "HI", "lat": "20.2260", "lng": "-155.7816"}, {"name": "Poipu", "state": "HI", "lat": "21.8834", "lng": "-159.4600"}, {"name": "Lawai", "state": "HI", "lat": "21.9203", "lng": "-159.5006"}, {"name": "Maili", "state": "HI", "lat": "21.4134", "lng": "-158.1702"}, {"name": "Anahola", "state": "HI", "lat": "22.1455", "lng": "-159.3151"}, {"name": "Waipio Acres", "state": "HI", "lat": "21.4689", "lng": "-158.0173"}, {"name": "Iroquois Point", "state": "HI", "lat": "21.3232", "lng": "-157.9775"}, {"name": "Wahiawa", "state": "HI", "lat": "21.5004", "lng": "-158.0198"}, {"name": "Ainaloa", "state": "HI", "lat": "19.5214", "lng": "-154.9944"}, {"name": "Lanai City", "state": "HI", "lat": "20.8279", "lng": "-156.9147"}, {"name": "Maunawili", "state": "HI", "lat": "21.3667", "lng": "-157.7713"}, {"name": "Mahinahina", "state": "HI", "lat": "20.9539", "lng": "-156.6565"}, {"name": "Kilauea", "state": "HI", "lat": "22.2108", "lng": "-159.3964"}, {"name": "Hanamaulu", "state": "HI", "lat": "21.9954", "lng": "-159.3493"}, {"name": "Waikoloa Village", "state": "HI", "lat": "19.9285", "lng": "-155.8185"}]