[{"name": "Lidderdale", "state": "IA", "lat": "42.1225", "lng": "-94.7837"}, {"name": "Sioux Rapids", "state": "IA", "lat": "42.8916", "lng": "-95.1488"}, {"name": "Marble Rock", "state": "IA", "lat": "42.9648", "lng": "-92.8683"}, {"name": "Gillett Grove", "state": "IA", "lat": "43.0167", "lng": "-95.0367"}, {"name": "Crawfordsville", "state": "IA", "lat": "41.2139", "lng": "-91.5367"}, {"name": "Alburnett", "state": "IA", "lat": "42.1494", "lng": "-91.6209"}, {"name": "Callender", "state": "IA", "lat": "42.3616", "lng": "-94.2955"}, {"name": "Stanton", "state": "IA", "lat": "40.9810", "lng": "-95.1029"}, {"name": "Aurora", "state": "IA", "lat": "42.6201", "lng": "-91.7295"}, {"name": "Knierim", "state": "IA", "lat": "42.4561", "lng": "-94.4559"}, {"name": "Sexton", "state": "IA", "lat": "43.0749", "lng": "-94.0892"}, {"name": "East Peru", "state": "IA", "lat": "41.2270", "lng": "-93.9295"}, {"name": "Fairfax", "state": "IA", "lat": "41.9281", "lng": "-91.7791"}, {"name": "Jamaica", "state": "IA", "lat": "41.8452", "lng": "-94.3070"}, {"name": "Sanborn", "state": "IA", "lat": "43.1814", "lng": "-95.6553"}, {"name": "Washta", "state": "IA", "lat": "42.5756", "lng": "-95.7202"}, {"name": "Miller", "state": "IA", "lat": "43.1864", "lng": "-93.6076"}, {"name": "Rodman", "state": "IA", "lat": "43.0266", "lng": "-94.5272"}, {"name": "Eldon", "state": "IA", "lat": "40.9176", "lng": "-92.2177"}, {"name": "Mount Ayr", "state": "IA", "lat": "40.7141", "lng": "-94.2376"}, {"name": "Melvin", "state": "IA", "lat": "43.2863", "lng": "-95.6087"}, {"name": "Ireton", "state": "IA", "lat": "42.9749", "lng": "-96.3216"}, {"name": "Panama", "state": "IA", "lat": "41.7263", "lng": "-95.4754"}, {"name": "Hull", "state": "IA", "lat": "43.1895", "lng": "-96.1339"}, {"name": "New London", "state": "IA", "lat": "40.9232", "lng": "-91.4010"}, {"name": "St. Olaf", "state": "IA", "lat": "42.9269", "lng": "-91.3879"}, {"name": "Jackson Junction", "state": "IA", "lat": "43.1014", "lng": "-92.0463"}, {"name": "Luther", "state": "IA", "lat": "41.9669", "lng": "-93.8176"}, {"name": "Stacyville", "state": "IA", "lat": "43.4391", "lng": "-92.7840"}, {"name": "Pilot Mound", "state": "IA", "lat": "42.1593", "lng": "-94.0183"}, {"name": "Ainsworth", "state": "IA", "lat": "41.2901", "lng": "-91.5545"}, {"name": "Neola", "state": "IA", "lat": "41.4516", "lng": "-95.6175"}, {"name": "Pacific Junction", "state": "IA", "lat": "41.0180", "lng": "-95.7995"}, {"name": "Kalona", "state": "IA", "lat": "41.4874", "lng": "-91.7018"}, {"name": "Bussey", "state": "IA", "lat": "41.2057", "lng": "-92.8843"}, {"name": "Monona", "state": "IA", "lat": "43.0513", "lng": "-91.3912"}, {"name": "Templeton", "state": "IA", "lat": "41.9179", "lng": "-94.9413"}, {"name": "Whittemore", "state": "IA", "lat": "43.0634", "lng": "-94.4251"}, {"name": "Turin", "state": "IA", "lat": "42.0208", "lng": "-95.9660"}, {"name": "Mineola", "state": "IA", "lat": "41.1414", "lng": "-95.6953"}, {"name": "Griswold", "state": "IA", "lat": "41.2343", "lng": "-95.1392"}, {"name": "Waterloo", "state": "IA", "lat": "42.4920", "lng": "-92.3522"}, {"name": "Rockford", "state": "IA", "lat": "43.0524", "lng": "-92.9477"}, {"name": "Wahpeton", "state": "IA", "lat": "43.3742", "lng": "-95.1744"}, {"name": "Kamrar", "state": "IA", "lat": "42.3898", "lng": "-93.7280"}, {"name": "Sergeant Bluff", "state": "IA", "lat": "42.3975", "lng": "-96.3516"}, {"name": "St. Paul", "state": "IA", "lat": "40.7679", "lng": "-91.5165"}, {"name": "Grimes", "state": "IA", "lat": "41.6776", "lng": "-93.7946"}, {"name": "Bennett", "state": "IA", "lat": "41.7399", "lng": "-90.9738"}, {"name": "Cushing", "state": "IA", "lat": "42.4650", "lng": "-95.6757"}, {"name": "Bonaparte", "state": "IA", "lat": "40.7011", "lng": "-91.8005"}, {"name": "Granville", "state": "IA", "lat": "42.9855", "lng": "-95.8750"}, {"name": "Hillsboro", "state": "IA", "lat": "40.8374", "lng": "-91.7125"}, {"name": "Lambs Grove", "state": "IA", "lat": "41.7008", "lng": "-93.0794"}, {"name": "Keota", "state": "IA", "lat": "41.3651", "lng": "-91.9533"}, {"name": "Allison", "state": "IA", "lat": "42.7518", "lng": "-92.7957"}, {"name": "Menlo", "state": "IA", "lat": "41.5222", "lng": "-94.4043"}, {"name": "Murray", "state": "IA", "lat": "41.0413", "lng": "-93.9489"}, {"name": "Mallard", "state": "IA", "lat": "42.9394", "lng": "-94.6832"}, {"name": "Wilton", "state": "IA", "lat": "41.5898", "lng": "-91.0271"}, {"name": "Redfield", "state": "IA", "lat": "41.5905", "lng": "-94.1963"}, {"name": "Denver", "state": "IA", "lat": "42.6690", "lng": "-92.3342"}, {"name": "Ellston", "state": "IA", "lat": "40.8405", "lng": "-94.1088"}, {"name": "Chariton", "state": "IA", "lat": "41.0176", "lng": "-93.3095"}, {"name": "Hansell", "state": "IA", "lat": "42.7578", "lng": "-93.1041"}, {"name": "Luzerne", "state": "IA", "lat": "41.9054", "lng": "-92.1804"}, {"name": "Little Sioux", "state": "IA", "lat": "41.8082", "lng": "-96.0274"}, {"name": "Redding", "state": "IA", "lat": "40.6068", "lng": "-94.3863"}, {"name": "Luana", "state": "IA", "lat": "43.0594", "lng": "-91.4557"}, {"name": "Cedar Falls", "state": "IA", "lat": "42.5195", "lng": "-92.4534"}, {"name": "Peosta", "state": "IA", "lat": "42.4477", "lng": "-90.8448"}, {"name": "Le Roy", "state": "IA", "lat": "40.8784", "lng": "-93.5924"}, {"name": "South English", "state": "IA", "lat": "41.4521", "lng": "-92.0905"}, {"name": "DeWitt", "state": "IA", "lat": "41.8227", "lng": "-90.5448"}, {"name": "Rathbun", "state": "IA", "lat": "40.8017", "lng": "-92.8871"}, {"name": "Le Grand", "state": "IA", "lat": "42.0067", "lng": "-92.7749"}, {"name": "Donahue", "state": "IA", "lat": "41.6915", "lng": "-90.6746"}, {"name": "Wapello", "state": "IA", "lat": "41.1772", "lng": "-91.1881"}, {"name": "Inwood", "state": "IA", "lat": "43.3093", "lng": "-96.4351"}, {"name": "Coggon", "state": "IA", "lat": "42.2783", "lng": "-91.5304"}, {"name": "Independence", "state": "IA", "lat": "42.4621", "lng": "-91.9030"}, {"name": "Clarence", "state": "IA", "lat": "41.8857", "lng": "-91.0578"}, {"name": "West Liberty", "state": "IA", "lat": "41.5725", "lng": "-91.2621"}, {"name": "Westside", "state": "IA", "lat": "42.0757", "lng": "-95.1013"}, {"name": "Balltown", "state": "IA", "lat": "42.6372", "lng": "-90.8700"}, {"name": "Keomah Village", "state": "IA", "lat": "41.2855", "lng": "-92.5371"}, {"name": "Guttenberg", "state": "IA", "lat": "42.7886", "lng": "-91.1059"}, {"name": "Elma", "state": "IA", "lat": "43.2459", "lng": "-92.4393"}, {"name": "Mingo", "state": "IA", "lat": "41.7665", "lng": "-93.2827"}, {"name": "St. Anthony", "state": "IA", "lat": "42.1239", "lng": "-93.1978"}, {"name": "Conesville", "state": "IA", "lat": "41.3796", "lng": "-91.3486"}, {"name": "Maharishi Vedic City", "state": "IA", "lat": "41.0543", "lng": "-92.0138"}, {"name": "Mondamin", "state": "IA", "lat": "41.7101", "lng": "-96.0215"}, {"name": "Sutherland", "state": "IA", "lat": "42.9728", "lng": "-95.4951"}, {"name": "Olds", "state": "IA", "lat": "41.1342", "lng": "-91.5442"}, {"name": "Rossie", "state": "IA", "lat": "43.0137", "lng": "-95.1886"}, {"name": "Danville", "state": "IA", "lat": "40.8600", "lng": "-91.3146"}, {"name": "Gilbert", "state": "IA", "lat": "42.1073", "lng": "-93.6462"}, {"name": "Hayfield", "state": "IA", "lat": "43.1781", "lng": "-93.6926"}, {"name": "Geneva", "state": "IA", "lat": "42.6748", "lng": "-93.1298"}, {"name": "Donnellson", "state": "IA", "lat": "40.6445", "lng": "-91.5629"}, {"name": "Toronto", "state": "IA", "lat": "41.9029", "lng": "-90.8628"}, {"name": "Princeton", "state": "IA", "lat": "41.6744", "lng": "-90.3573"}, {"name": "Osterdock", "state": "IA", "lat": "42.7313", "lng": "-91.1579"}, {"name": "Lehigh", "state": "IA", "lat": "42.3575", "lng": "-94.0535"}, {"name": "Fort Dodge", "state": "IA", "lat": "42.5098", "lng": "-94.1751"}, {"name": "Grand Junction", "state": "IA", "lat": "42.0330", "lng": "-94.2370"}, {"name": "Missouri Valley", "state": "IA", "lat": "41.5574", "lng": "-95.9028"}, {"name": "Lockridge", "state": "IA", "lat": "40.9936", "lng": "-91.7492"}, {"name": "Livermore", "state": "IA", "lat": "42.8680", "lng": "-94.1840"}, {"name": "Harper", "state": "IA", "lat": "41.3637", "lng": "-92.0510"}, {"name": "Thornton", "state": "IA", "lat": "42.9442", "lng": "-93.3871"}, {"name": "Rockwell", "state": "IA", "lat": "42.9800", "lng": "-93.1871"}, {"name": "Brandon", "state": "IA", "lat": "42.3150", "lng": "-92.0033"}, {"name": "Schleswig", "state": "IA", "lat": "42.1607", "lng": "-95.4352"}, {"name": "Elkhart", "state": "IA", "lat": "41.7939", "lng": "-93.5240"}, {"name": "Coin", "state": "IA", "lat": "40.6561", "lng": "-95.2349"}, {"name": "Bradford", "state": "IA", "lat": "42.6370", "lng": "-93.2485"}, {"name": "St. Donatus", "state": "IA", "lat": "42.3624", "lng": "-90.5422"}, {"name": "Kensett", "state": "IA", "lat": "43.3534", "lng": "-93.2106"}, {"name": "Lewis", "state": "IA", "lat": "41.3065", "lng": "-95.0843"}, {"name": "Pleasanton", "state": "IA", "lat": "40.5825", "lng": "-93.7430"}, {"name": "Elk Run Heights", "state": "IA", "lat": "42.4662", "lng": "-92.2501"}, {"name": "Zearing", "state": "IA", "lat": "42.1589", "lng": "-93.2972"}, {"name": "Nevada", "state": "IA", "lat": "42.0186", "lng": "-93.4635"}, {"name": "Muscatine", "state": "IA", "lat": "41.4195", "lng": "-91.0680"}, {"name": "Orleans", "state": "IA", "lat": "43.4514", "lng": "-95.0989"}, {"name": "Waterville", "state": "IA", "lat": "43.2084", "lng": "-91.2960"}, {"name": "Fontanelle", "state": "IA", "lat": "41.2900", "lng": "-94.5601"}, {"name": "Ladora", "state": "IA", "lat": "41.7557", "lng": "-92.1859"}, {"name": "La Motte", "state": "IA", "lat": "42.2956", "lng": "-90.6233"}, {"name": "Arispe", "state": "IA", "lat": "40.9480", "lng": "-94.2192"}, {"name": "Woodward", "state": "IA", "lat": "41.8527", "lng": "-93.9208"}, {"name": "Vinton", "state": "IA", "lat": "42.1638", "lng": "-92.0260"}, {"name": "Montezuma", "state": "IA", "lat": "41.5833", "lng": "-92.5274"}, {"name": "Exline", "state": "IA", "lat": "40.6490", "lng": "-92.8432"}, {"name": "Long Grove", "state": "IA", "lat": "41.6923", "lng": "-90.5804"}, {"name": "Greene", "state": "IA", "lat": "42.8969", "lng": "-92.8043"}, {"name": "Elk Horn", "state": "IA", "lat": "41.5930", "lng": "-95.0615"}, {"name": "Okoboji", "state": "IA", "lat": "43.3908", "lng": "-95.1389"}, {"name": "Center Junction", "state": "IA", "lat": "42.1141", "lng": "-91.0903"}, {"name": "Ocheyedan", "state": "IA", "lat": "43.4181", "lng": "-95.5365"}, {"name": "Manson", "state": "IA", "lat": "42.5284", "lng": "-94.5401"}, {"name": "North English", "state": "IA", "lat": "41.5168", "lng": "-92.0777"}, {"name": "Winfield", "state": "IA", "lat": "41.1258", "lng": "-91.4381"}, {"name": "Haverhill", "state": "IA", "lat": "41.9443", "lng": "-92.9606"}, {"name": "Defiance", "state": "IA", "lat": "41.8254", "lng": "-95.3404"}, {"name": "Odebolt", "state": "IA", "lat": "42.3118", "lng": "-95.2542"}, {"name": "Carbon", "state": "IA", "lat": "41.0497", "lng": "-94.8240"}, {"name": "Stone City", "state": "IA", "lat": "42.1100", "lng": "-91.3544"}, {"name": "Lanesboro", "state": "IA", "lat": "42.1827", "lng": "-94.6921"}, {"name": "Rockwell City", "state": "IA", "lat": "42.3981", "lng": "-94.6289"}, {"name": "What Cheer", "state": "IA", "lat": "41.3998", "lng": "-92.3546"}, {"name": "Macedonia", "state": "IA", "lat": "41.1919", "lng": "-95.4268"}, {"name": "Moravia", "state": "IA", "lat": "40.8918", "lng": "-92.8191"}, {"name": "Calamus", "state": "IA", "lat": "41.8265", "lng": "-90.7600"}, {"name": "Climbing Hill", "state": "IA", "lat": "42.3394", "lng": "-96.0810"}, {"name": "Vail", "state": "IA", "lat": "42.0599", "lng": "-95.2003"}, {"name": "Aplington", "state": "IA", "lat": "42.5820", "lng": "-92.8838"}, {"name": "Zwingle", "state": "IA", "lat": "42.2972", "lng": "-90.6874"}, {"name": "Wheatland", "state": "IA", "lat": "41.8329", "lng": "-90.8379"}, {"name": "Aredale", "state": "IA", "lat": "42.8332", "lng": "-93.0054"}, {"name": "Union", "state": "IA", "lat": "42.2435", "lng": "-93.0625"}, {"name": "Keosauqua", "state": "IA", "lat": "40.7347", "lng": "-91.9605"}, {"name": "Hamilton", "state": "IA", "lat": "41.1702", "lng": "-92.9041"}, {"name": "Randalia", "state": "IA", "lat": "42.8636", "lng": "-91.8864"}, {"name": "Windsor Heights", "state": "IA", "lat": "41.6043", "lng": "-93.7127"}, {"name": "Ida Grove", "state": "IA", "lat": "42.3439", "lng": "-95.4732"}, {"name": "Anthon", "state": "IA", "lat": "42.3881", "lng": "-95.8657"}, {"name": "Des Moines", "state": "IA", "lat": "41.5725", "lng": "-93.6105"}, {"name": "Wellsburg", "state": "IA", "lat": "42.4338", "lng": "-92.9265"}, {"name": "Cylinder", "state": "IA", "lat": "43.0897", "lng": "-94.5513"}, {"name": "Plover", "state": "IA", "lat": "42.8767", "lng": "-94.6222"}, {"name": "Waukee", "state": "IA", "lat": "41.5984", "lng": "-93.8872"}, {"name": "Moorhead", "state": "IA", "lat": "41.9243", "lng": "-95.8508"}, {"name": "Lake View", "state": "IA", "lat": "42.3046", "lng": "-95.0406"}, {"name": "Eldridge", "state": "IA", "lat": "41.6394", "lng": "-90.5805"}, {"name": "Roland", "state": "IA", "lat": "42.1660", "lng": "-93.5030"}, {"name": "Elliott", "state": "IA", "lat": "41.1494", "lng": "-95.1629"}, {"name": "Tiffin", "state": "IA", "lat": "41.7067", "lng": "-91.6582"}, {"name": "Burr Oak", "state": "IA", "lat": "43.4580", "lng": "-91.8619"}, {"name": "Exira", "state": "IA", "lat": "41.5920", "lng": "-94.8811"}, {"name": "Estherville", "state": "IA", "lat": "43.3998", "lng": "-94.8343"}, {"name": "Calmar", "state": "IA", "lat": "43.1811", "lng": "-91.8678"}, {"name": "Lucas", "state": "IA", "lat": "41.0322", "lng": "-93.4611"}, {"name": "Rome", "state": "IA", "lat": "40.9822", "lng": "-91.6818"}, {"name": "Riverdale", "state": "IA", "lat": "41.5371", "lng": "-90.4637"}, {"name": "Spencer", "state": "IA", "lat": "43.1468", "lng": "-95.1534"}, {"name": "Newton", "state": "IA", "lat": "41.6964", "lng": "-93.0403"}, {"name": "Birmingham", "state": "IA", "lat": "40.8777", "lng": "-91.9472"}, {"name": "Sandyville", "state": "IA", "lat": "41.3709", "lng": "-93.3862"}, {"name": "Hills", "state": "IA", "lat": "41.5569", "lng": "-91.5360"}, {"name": "St. Benedict", "state": "IA", "lat": "43.0440", "lng": "-94.0609"}, {"name": "Royal", "state": "IA", "lat": "43.0645", "lng": "-95.2838"}, {"name": "Clarksville", "state": "IA", "lat": "42.7800", "lng": "-92.6681"}, {"name": "Hornick", "state": "IA", "lat": "42.2304", "lng": "-96.0971"}, {"name": "Ely", "state": "IA", "lat": "41.8753", "lng": "-91.5850"}, {"name": "Reasnor", "state": "IA", "lat": "41.5789", "lng": "-93.0229"}, {"name": "Webster City", "state": "IA", "lat": "42.4623", "lng": "-93.8167"}, {"name": "Bouton", "state": "IA", "lat": "41.8511", "lng": "-94.0108"}, {"name": "Goose Lake", "state": "IA", "lat": "41.9680", "lng": "-90.3817"}, {"name": "Strawberry Point", "state": "IA", "lat": "42.6803", "lng": "-91.5349"}, {"name": "Stanwood", "state": "IA", "lat": "41.8927", "lng": "-91.1488"}, {"name": "Allerton", "state": "IA", "lat": "40.7077", "lng": "-93.3689"}, {"name": "Webb", "state": "IA", "lat": "42.9497", "lng": "-95.0129"}, {"name": "Irvington", "state": "IA", "lat": "43.0136", "lng": "-94.1960"}, {"name": "Wyoming", "state": "IA", "lat": "42.0597", "lng": "-91.0051"}, {"name": "Salix", "state": "IA", "lat": "42.3158", "lng": "-96.3035"}, {"name": "Altoona", "state": "IA", "lat": "41.6480", "lng": "-93.4782"}, {"name": "Holy Cross", "state": "IA", "lat": "42.6011", "lng": "-90.9962"}, {"name": "New Haven", "state": "IA", "lat": "43.2839", "lng": "-92.6422"}, {"name": "Sheldahl", "state": "IA", "lat": "41.8643", "lng": "-93.6966"}, {"name": "Millerton", "state": "IA", "lat": "40.8494", "lng": "-93.3057"}, {"name": "Burt", "state": "IA", "lat": "43.1989", "lng": "-94.2211"}, {"name": "North Buena Vista", "state": "IA", "lat": "42.6776", "lng": "-90.9585"}, {"name": "Adel", "state": "IA", "lat": "41.6121", "lng": "-94.0129"}, {"name": "Maxwell", "state": "IA", "lat": "41.8914", "lng": "-93.3961"}, {"name": "Dows", "state": "IA", "lat": "42.6593", "lng": "-93.5012"}, {"name": "Swan", "state": "IA", "lat": "41.4675", "lng": "-93.3096"}, {"name": "Decorah", "state": "IA", "lat": "43.3016", "lng": "-91.7846"}, {"name": "Anderson", "state": "IA", "lat": "40.7982", "lng": "-95.6085"}, {"name": "Malcom", "state": "IA", "lat": "41.7076", "lng": "-92.5575"}, {"name": "Masonville", "state": "IA", "lat": "42.4798", "lng": "-91.5915"}, {"name": "Tama", "state": "IA", "lat": "41.9648", "lng": "-92.5746"}, {"name": "Aurelia", "state": "IA", "lat": "42.7131", "lng": "-95.4368"}, {"name": "Weldon", "state": "IA", "lat": "40.8973", "lng": "-93.7355"}, {"name": "Danbury", "state": "IA", "lat": "42.2364", "lng": "-95.7216"}, {"name": "Panora", "state": "IA", "lat": "41.6910", "lng": "-94.3637"}, {"name": "Maloy", "state": "IA", "lat": "40.6731", "lng": "-94.4121"}, {"name": "Granger", "state": "IA", "lat": "41.7615", "lng": "-93.8234"}, {"name": "Yorktown", "state": "IA", "lat": "40.7354", "lng": "-95.1544"}, {"name": "Plymouth", "state": "IA", "lat": "43.2464", "lng": "-93.1232"}, {"name": "Fairbank", "state": "IA", "lat": "42.6401", "lng": "-92.0476"}, {"name": "Lorimor", "state": "IA", "lat": "41.1268", "lng": "-94.0571"}, {"name": "Toeterville", "state": "IA", "lat": "43.4401", "lng": "-92.8879"}, {"name": "Little Rock", "state": "IA", "lat": "43.4455", "lng": "-95.8804"}, {"name": "Mitchellville", "state": "IA", "lat": "41.6680", "lng": "-93.3629"}, {"name": "Roseville", "state": "IA", "lat": "43.0253", "lng": "-92.8082"}, {"name": "Ricketts", "state": "IA", "lat": "42.1281", "lng": "-95.5749"}, {"name": "Lytton", "state": "IA", "lat": "42.4233", "lng": "-94.8605"}, {"name": "Minburn", "state": "IA", "lat": "41.7575", "lng": "-94.0284"}, {"name": "Indianola", "state": "IA", "lat": "41.3629", "lng": "-93.5652"}, {"name": "Lineville", "state": "IA", "lat": "40.5870", "lng": "-93.5232"}, {"name": "Bellevue", "state": "IA", "lat": "42.2625", "lng": "-90.4319"}, {"name": "Truro", "state": "IA", "lat": "41.2098", "lng": "-93.8467"}, {"name": "Frytown", "state": "IA", "lat": "41.5720", "lng": "-91.7321"}, {"name": "Fort Atkinson", "state": "IA", "lat": "43.1444", "lng": "-91.9344"}, {"name": "Ogden", "state": "IA", "lat": "42.0395", "lng": "-94.0283"}, {"name": "Brunsville", "state": "IA", "lat": "42.8110", "lng": "-96.2666"}, {"name": "Van Wert", "state": "IA", "lat": "40.8710", "lng": "-93.7918"}, {"name": "Matlock", "state": "IA", "lat": "43.2443", "lng": "-95.9343"}, {"name": "Modale", "state": "IA", "lat": "41.6182", "lng": "-96.0120"}, {"name": "Cincinnati", "state": "IA", "lat": "40.6309", "lng": "-92.9222"}, {"name": "Little Cedar", "state": "IA", "lat": "43.3698", "lng": "-92.7236"}, {"name": "Blanchard", "state": "IA", "lat": "40.5808", "lng": "-95.2215"}, {"name": "Garwin", "state": "IA", "lat": "42.0935", "lng": "-92.6791"}, {"name": "Marion", "state": "IA", "lat": "42.0452", "lng": "-91.5847"}, {"name": "Milo", "state": "IA", "lat": "41.2892", "lng": "-93.4406"}, {"name": "Delmar", "state": "IA", "lat": "41.9988", "lng": "-90.6080"}, {"name": "Norwalk", "state": "IA", "lat": "41.4897", "lng": "-93.6913"}, {"name": "Atalissa", "state": "IA", "lat": "41.5716", "lng": "-91.1664"}, {"name": "Burlington", "state": "IA", "lat": "40.8072", "lng": "-91.1247"}, {"name": "Henderson", "state": "IA", "lat": "41.1400", "lng": "-95.4309"}, {"name": "Rinard", "state": "IA", "lat": "42.3396", "lng": "-94.4849"}, {"name": "Scarville", "state": "IA", "lat": "43.4711", "lng": "-93.6168"}, {"name": "Gilbertville", "state": "IA", "lat": "42.4191", "lng": "-92.2143"}, {"name": "New Market", "state": "IA", "lat": "40.7324", "lng": "-94.9005"}, {"name": "Centralia", "state": "IA", "lat": "42.4723", "lng": "-90.8362"}, {"name": "Galva", "state": "IA", "lat": "42.5059", "lng": "-95.4177"}, {"name": "Yale", "state": "IA", "lat": "41.7754", "lng": "-94.3572"}, {"name": "Burchinal", "state": "IA", "lat": "43.0648", "lng": "-93.2785"}, {"name": "St. Lucas", "state": "IA", "lat": "43.0666", "lng": "-91.9342"}, {"name": "Crescent", "state": "IA", "lat": "41.3656", "lng": "-95.8580"}, {"name": "Grandview", "state": "IA", "lat": "41.2772", "lng": "-91.1884"}, {"name": "Emmetsburg", "state": "IA", "lat": "43.1146", "lng": "-94.6799"}, {"name": "Martensdale", "state": "IA", "lat": "41.3738", "lng": "-93.7388"}, {"name": "Park View", "state": "IA", "lat": "41.6922", "lng": "-90.5393"}, {"name": "Durant", "state": "IA", "lat": "41.6011", "lng": "-90.9137"}, {"name": "Elkader", "state": "IA", "lat": "42.8572", "lng": "-91.4024"}, {"name": "Arcadia", "state": "IA", "lat": "42.0862", "lng": "-95.0432"}, {"name": "Blairsburg", "state": "IA", "lat": "42.4784", "lng": "-93.6428"}, {"name": "Alta", "state": "IA", "lat": "42.6717", "lng": "-95.3045"}, {"name": "Franklin", "state": "IA", "lat": "40.6668", "lng": "-91.5119"}, {"name": "Stockton", "state": "IA", "lat": "41.5908", "lng": "-90.8566"}, {"name": "West Bend", "state": "IA", "lat": "42.9599", "lng": "-94.4457"}, {"name": "Cedar Rapids", "state": "IA", "lat": "41.9667", "lng": "-91.6781"}, {"name": "Swea City", "state": "IA", "lat": "43.3832", "lng": "-94.3110"}, {"name": "Frederika", "state": "IA", "lat": "42.8835", "lng": "-92.3054"}, {"name": "Lenox", "state": "IA", "lat": "40.8830", "lng": "-94.5583"}, {"name": "Chapin", "state": "IA", "lat": "42.8353", "lng": "-93.2219"}, {"name": "Fairfield", "state": "IA", "lat": "41.0061", "lng": "-91.9669"}, {"name": "Meriden", "state": "IA", "lat": "42.7941", "lng": "-95.6338"}, {"name": "Hinton", "state": "IA", "lat": "42.6212", "lng": "-96.2978"}, {"name": "Meyer", "state": "IA", "lat": "43.4618", "lng": "-92.7011"}, {"name": "Cantril", "state": "IA", "lat": "40.6428", "lng": "-92.0686"}, {"name": "Milford", "state": "IA", "lat": "43.3335", "lng": "-95.1474"}, {"name": "Remsen", "state": "IA", "lat": "42.8148", "lng": "-95.9725"}, {"name": "Keokuk", "state": "IA", "lat": "40.4095", "lng": "-91.4030"}, {"name": "Shellsburg", "state": "IA", "lat": "42.0929", "lng": "-91.8712"}, {"name": "New Hartford", "state": "IA", "lat": "42.5666", "lng": "-92.6233"}, {"name": "Goodell", "state": "IA", "lat": "42.9237", "lng": "-93.6140"}, {"name": "North Washington", "state": "IA", "lat": "43.1173", "lng": "-92.4155"}, {"name": "Titonka", "state": "IA", "lat": "43.2369", "lng": "-94.0412"}, {"name": "Webster", "state": "IA", "lat": "41.4379", "lng": "-92.1715"}, {"name": "Lone Rock", "state": "IA", "lat": "43.2208", "lng": "-94.3255"}, {"name": "Carroll", "state": "IA", "lat": "42.0699", "lng": "-94.8647"}, {"name": "Colesburg", "state": "IA", "lat": "42.6387", "lng": "-91.2010"}, {"name": "Varina", "state": "IA", "lat": "42.6582", "lng": "-94.8978"}, {"name": "Richland", "state": "IA", "lat": "41.1857", "lng": "-91.9960"}, {"name": "Sidney", "state": "IA", "lat": "40.7459", "lng": "-95.6443"}, {"name": "Oskaloosa", "state": "IA", "lat": "41.2922", "lng": "-92.6403"}, {"name": "West Okoboji", "state": "IA", "lat": "43.3489", "lng": "-95.1632"}, {"name": "Rolfe", "state": "IA", "lat": "42.8129", "lng": "-94.5313"}, {"name": "Pleasant Plain", "state": "IA", "lat": "41.1472", "lng": "-91.8597"}, {"name": "Chillicothe", "state": "IA", "lat": "41.0860", "lng": "-92.5303"}, {"name": "Marengo", "state": "IA", "lat": "41.7961", "lng": "-92.0675"}, {"name": "Swaledale", "state": "IA", "lat": "42.9765", "lng": "-93.3154"}, {"name": "Rose Hill", "state": "IA", "lat": "41.3202", "lng": "-92.4641"}, {"name": "Irwin", "state": "IA", "lat": "41.7902", "lng": "-95.2068"}, {"name": "Sioux Center", "state": "IA", "lat": "43.0748", "lng": "-96.1707"}, {"name": "Cascade", "state": "IA", "lat": "42.3018", "lng": "-91.0047"}, {"name": "Sumner", "state": "IA", "lat": "42.8498", "lng": "-92.0971"}, {"name": "Carter Lake", "state": "IA", "lat": "41.2884", "lng": "-95.9171"}, {"name": "Spring Hill", "state": "IA", "lat": "41.4122", "lng": "-93.6500"}, {"name": "Cotter", "state": "IA", "lat": "41.2940", "lng": "-91.4650"}, {"name": "Peterson", "state": "IA", "lat": "42.9176", "lng": "-95.3425"}, {"name": "Hawarden", "state": "IA", "lat": "43.0015", "lng": "-96.4829"}, {"name": "Oyens", "state": "IA", "lat": "42.8200", "lng": "-96.0582"}, {"name": "Van Meter", "state": "IA", "lat": "41.5206", "lng": "-93.9453"}, {"name": "Imogene", "state": "IA", "lat": "40.8790", "lng": "-95.4275"}, {"name": "Forest City", "state": "IA", "lat": "43.2570", "lng": "-93.6365"}, {"name": "Chelsea", "state": "IA", "lat": "41.9205", "lng": "-92.3945"}, {"name": "Rake", "state": "IA", "lat": "43.4806", "lng": "-93.9202"}, {"name": "Wall Lake", "state": "IA", "lat": "42.2672", "lng": "-95.0927"}, {"name": "Akron", "state": "IA", "lat": "42.8268", "lng": "-96.5571"}, {"name": "Hancock", "state": "IA", "lat": "41.3922", "lng": "-95.3637"}, {"name": "Olin", "state": "IA", "lat": "41.9977", "lng": "-91.1417"}, {"name": "Graettinger", "state": "IA", "lat": "43.2371", "lng": "-94.7504"}, {"name": "Nashua", "state": "IA", "lat": "42.9501", "lng": "-92.5417"}, {"name": "Carlisle", "state": "IA", "lat": "41.5116", "lng": "-93.4949"}, {"name": "Rudd", "state": "IA", "lat": "43.1275", "lng": "-92.9046"}, {"name": "Decatur City", "state": "IA", "lat": "40.7424", "lng": "-93.8327"}, {"name": "Kent", "state": "IA", "lat": "40.9536", "lng": "-94.4611"}, {"name": "Sheffield", "state": "IA", "lat": "42.8929", "lng": "-93.2087"}, {"name": "Boxholm", "state": "IA", "lat": "42.1736", "lng": "-94.1061"}, {"name": "Ackley", "state": "IA", "lat": "42.5518", "lng": "-93.0528"}, {"name": "Winterset", "state": "IA", "lat": "41.3457", "lng": "-94.0137"}, {"name": "Moville", "state": "IA", "lat": "42.4900", "lng": "-96.0679"}, {"name": "Clarion", "state": "IA", "lat": "42.7319", "lng": "-93.7297"}, {"name": "Silver City", "state": "IA", "lat": "41.1116", "lng": "-95.6381"}, {"name": "Harlan", "state": "IA", "lat": "41.6496", "lng": "-95.3268"}, {"name": "Merrill", "state": "IA", "lat": "42.7203", "lng": "-96.2523"}, {"name": "Corydon", "state": "IA", "lat": "40.7574", "lng": "-93.3174"}, {"name": "Central City", "state": "IA", "lat": "42.2037", "lng": "-91.5246"}, {"name": "Hartwick", "state": "IA", "lat": "41.7861", "lng": "-92.3453"}, {"name": "Maquoketa", "state": "IA", "lat": "42.0598", "lng": "-90.6651"}, {"name": "Kanawha", "state": "IA", "lat": "42.9342", "lng": "-93.7933"}, {"name": "New Vienna", "state": "IA", "lat": "42.5477", "lng": "-91.1139"}, {"name": "Green Mountain", "state": "IA", "lat": "42.1019", "lng": "-92.8196"}, {"name": "George", "state": "IA", "lat": "43.3420", "lng": "-96.0027"}, {"name": "Carson", "state": "IA", "lat": "41.2359", "lng": "-95.4186"}, {"name": "Coburg", "state": "IA", "lat": "40.9188", "lng": "-95.2656"}, {"name": "Beaconsfield", "state": "IA", "lat": "40.8076", "lng": "-94.0507"}, {"name": "Williams", "state": "IA", "lat": "42.4892", "lng": "-93.5411"}, {"name": "Woden", "state": "IA", "lat": "43.2308", "lng": "-93.9114"}, {"name": "Hartford", "state": "IA", "lat": "41.4578", "lng": "-93.4037"}, {"name": "Corning", "state": "IA", "lat": "40.9929", "lng": "-94.7395"}, {"name": "Milton", "state": "IA", "lat": "40.6712", "lng": "-92.1621"}, {"name": "Bertram", "state": "IA", "lat": "41.9512", "lng": "-91.5376"}, {"name": "Ventura", "state": "IA", "lat": "43.1283", "lng": "-93.4621"}, {"name": "Beaverdale", "state": "IA", "lat": "40.8537", "lng": "-91.2077"}, {"name": "Stockport", "state": "IA", "lat": "40.8573", "lng": "-91.8334"}, {"name": "Parnell", "state": "IA", "lat": "41.5837", "lng": "-92.0046"}, {"name": "Portsmouth", "state": "IA", "lat": "41.6505", "lng": "-95.5193"}, {"name": "Calumet", "state": "IA", "lat": "42.9450", "lng": "-95.5514"}, {"name": "Orange City", "state": "IA", "lat": "43.0021", "lng": "-96.0567"}, {"name": "Craig", "state": "IA", "lat": "42.8956", "lng": "-96.3097"}, {"name": "Preston", "state": "IA", "lat": "42.0492", "lng": "-90.3971"}, {"name": "Washburn", "state": "IA", "lat": "42.4111", "lng": "-92.2685"}, {"name": "Marathon", "state": "IA", "lat": "42.8602", "lng": "-94.9829"}, {"name": "Martinsburg", "state": "IA", "lat": "41.1786", "lng": "-92.2519"}, {"name": "Jefferson", "state": "IA", "lat": "42.0173", "lng": "-94.3798"}, {"name": "Douds", "state": "IA", "lat": "40.8438", "lng": "-92.0764"}, {"name": "Marysville", "state": "IA", "lat": "41.1827", "lng": "-92.9537"}, {"name": "Treynor", "state": "IA", "lat": "41.2322", "lng": "-95.6062"}, {"name": "Grand River", "state": "IA", "lat": "40.8190", "lng": "-93.9634"}, {"name": "Hutchins", "state": "IA", "lat": "43.0878", "lng": "-93.8865"}, {"name": "Delphos", "state": "IA", "lat": "40.6632", "lng": "-94.3403"}, {"name": "Curlew", "state": "IA", "lat": "42.9795", "lng": "-94.7377"}, {"name": "Buffalo Center", "state": "IA", "lat": "43.3894", "lng": "-93.9428"}, {"name": "Lansing", "state": "IA", "lat": "43.3606", "lng": "-91.2254"}, {"name": "Thompson", "state": "IA", "lat": "43.3698", "lng": "-93.7747"}, {"name": "Melrose", "state": "IA", "lat": "40.9790", "lng": "-93.0508"}, {"name": "Fraser", "state": "IA", "lat": "42.1242", "lng": "-93.9699"}, {"name": "Ossian", "state": "IA", "lat": "43.1469", "lng": "-91.7646"}, {"name": "Drakesville", "state": "IA", "lat": "40.7984", "lng": "-92.4815"}, {"name": "Woodburn", "state": "IA", "lat": "41.0109", "lng": "-93.5963"}, {"name": "Bagley", "state": "IA", "lat": "41.8464", "lng": "-94.4303"}, {"name": "Homestead", "state": "IA", "lat": "41.7627", "lng": "-91.8731"}, {"name": "Westphalia", "state": "IA", "lat": "41.7192", "lng": "-95.3937"}, {"name": "Osceola", "state": "IA", "lat": "41.0302", "lng": "-93.7829"}, {"name": "Miles", "state": "IA", "lat": "42.0481", "lng": "-90.3133"}, {"name": "Rickardsville", "state": "IA", "lat": "42.5815", "lng": "-90.8763"}, {"name": "Lime Springs", "state": "IA", "lat": "43.4498", "lng": "-92.2841"}, {"name": "Stanley", "state": "IA", "lat": "42.6417", "lng": "-91.8123"}, {"name": "Dexter", "state": "IA", "lat": "41.5154", "lng": "-94.2276"}, {"name": "Battle Creek", "state": "IA", "lat": "42.3168", "lng": "-95.6003"}, {"name": "Harvey", "state": "IA", "lat": "41.3179", "lng": "-92.9227"}, {"name": "Knoxville", "state": "IA", "lat": "41.3188", "lng": "-93.1024"}, {"name": "Bayard", "state": "IA", "lat": "41.8519", "lng": "-94.5578"}, {"name": "Hazleton", "state": "IA", "lat": "42.6176", "lng": "-91.9059"}, {"name": "Clayton", "state": "IA", "lat": "42.9037", "lng": "-91.1510"}, {"name": "Quasqueton", "state": "IA", "lat": "42.3944", "lng": "-91.7579"}, {"name": "Mona", "state": "IA", "lat": "43.4833", "lng": "-92.9501"}, {"name": "Rhodes", "state": "IA", "lat": "41.9279", "lng": "-93.1837"}, {"name": "Lawton", "state": "IA", "lat": "42.4769", "lng": "-96.1851"}, {"name": "Eagle Grove", "state": "IA", "lat": "42.6664", "lng": "-93.9026"}, {"name": "Asbury", "state": "IA", "lat": "42.5119", "lng": "-90.7796"}, {"name": "Libertyville", "state": "IA", "lat": "40.9583", "lng": "-92.0502"}, {"name": "Marquette", "state": "IA", "lat": "43.0443", "lng": "-91.1920"}, {"name": "Holiday Lake", "state": "IA", "lat": "41.8174", "lng": "-92.4496"}, {"name": "Bolan", "state": "IA", "lat": "43.3735", "lng": "-93.1085"}, {"name": "Lakota", "state": "IA", "lat": "43.3786", "lng": "-94.0963"}, {"name": "Camanche", "state": "IA", "lat": "41.7928", "lng": "-90.2766"}, {"name": "Amana", "state": "IA", "lat": "41.8025", "lng": "-91.8741"}, {"name": "Andrew", "state": "IA", "lat": "42.1533", "lng": "-90.5923"}, {"name": "Protivin", "state": "IA", "lat": "43.2165", "lng": "-92.0892"}, {"name": "Paton", "state": "IA", "lat": "42.1642", "lng": "-94.2551"}, {"name": "Center Point", "state": "IA", "lat": "42.1844", "lng": "-91.7795"}, {"name": "Red Oak", "state": "IA", "lat": "41.0141", "lng": "-95.2248"}, {"name": "Rembrandt", "state": "IA", "lat": "42.8257", "lng": "-95.1656"}, {"name": "Elgin", "state": "IA", "lat": "42.9551", "lng": "-91.6357"}, {"name": "McGregor", "state": "IA", "lat": "43.0247", "lng": "-91.1820"}, {"name": "Beaver", "state": "IA", "lat": "42.0383", "lng": "-94.1400"}, {"name": "Centerville", "state": "IA", "lat": "40.7294", "lng": "-92.8718"}, {"name": "Millersburg", "state": "IA", "lat": "41.5733", "lng": "-92.1593"}, {"name": "Dow City", "state": "IA", "lat": "41.9280", "lng": "-95.4943"}, {"name": "Hawkeye", "state": "IA", "lat": "42.9378", "lng": "-91.9504"}, {"name": "Harris", "state": "IA", "lat": "43.4435", "lng": "-95.4371"}, {"name": "Mount Auburn", "state": "IA", "lat": "42.2573", "lng": "-92.0939"}, {"name": "Larrabee", "state": "IA", "lat": "42.8616", "lng": "-95.5447"}, {"name": "Sabula", "state": "IA", "lat": "42.0664", "lng": "-90.1765"}, {"name": "Woodbine", "state": "IA", "lat": "41.7346", "lng": "-95.7067"}, {"name": "Breda", "state": "IA", "lat": "42.1840", "lng": "-94.9751"}, {"name": "Guernsey", "state": "IA", "lat": "41.6492", "lng": "-92.3430"}, {"name": "Sageville", "state": "IA", "lat": "42.5487", "lng": "-90.7060"}, {"name": "Earling", "state": "IA", "lat": "41.7762", "lng": "-95.4190"}, {"name": "Baldwin", "state": "IA", "lat": "42.0732", "lng": "-90.8386"}, {"name": "Robins", "state": "IA", "lat": "42.0798", "lng": "-91.6764"}, {"name": "Glidden", "state": "IA", "lat": "42.0576", "lng": "-94.7267"}, {"name": "Barnes City", "state": "IA", "lat": "41.5071", "lng": "-92.4696"}, {"name": "Searsboro", "state": "IA", "lat": "41.5792", "lng": "-92.7042"}, {"name": "Kellerton", "state": "IA", "lat": "40.7103", "lng": "-94.0503"}, {"name": "Kirkman", "state": "IA", "lat": "41.7281", "lng": "-95.2673"}, {"name": "Batavia", "state": "IA", "lat": "40.9951", "lng": "-92.1674"}, {"name": "Early", "state": "IA", "lat": "42.4615", "lng": "-95.1523"}, {"name": "Castana", "state": "IA", "lat": "42.0732", "lng": "-95.9105"}, {"name": "Blakesburg", "state": "IA", "lat": "40.9620", "lng": "-92.6348"}, {"name": "Madrid", "state": "IA", "lat": "41.8757", "lng": "-93.8205"}, {"name": "Britt", "state": "IA", "lat": "43.0975", "lng": "-93.8032"}, {"name": "Glenwood", "state": "IA", "lat": "41.0445", "lng": "-95.7408"}, {"name": "Welton", "state": "IA", "lat": "41.9076", "lng": "-90.5959"}, {"name": "Woolstock", "state": "IA", "lat": "42.5648", "lng": "-93.8433"}, {"name": "Colfax", "state": "IA", "lat": "41.6800", "lng": "-93.2386"}, {"name": "Pioneer", "state": "IA", "lat": "42.6535", "lng": "-94.3909"}, {"name": "Ledyard", "state": "IA", "lat": "43.4206", "lng": "-94.1584"}, {"name": "High Amana", "state": "IA", "lat": "41.8011", "lng": "-91.9419"}, {"name": "Melcher-Dallas", "state": "IA", "lat": "41.2275", "lng": "-93.2411"}, {"name": "Grundy Center", "state": "IA", "lat": "42.3638", "lng": "-92.7740"}, {"name": "Dumont", "state": "IA", "lat": "42.7522", "lng": "-92.9735"}, {"name": "Brighton", "state": "IA", "lat": "41.1747", "lng": "-91.8212"}, {"name": "Otho", "state": "IA", "lat": "42.4222", "lng": "-94.1493"}, {"name": "Van Horne", "state": "IA", "lat": "42.0083", "lng": "-92.0897"}, {"name": "Johnston", "state": "IA", "lat": "41.6857", "lng": "-93.7174"}, {"name": "Bondurant", "state": "IA", "lat": "41.6987", "lng": "-93.4548"}, {"name": "Cambridge", "state": "IA", "lat": "41.9001", "lng": "-93.5360"}, {"name": "Fertile", "state": "IA", "lat": "43.2623", "lng": "-93.4232"}, {"name": "West Chester", "state": "IA", "lat": "41.3400", "lng": "-91.8169"}, {"name": "Bevington", "state": "IA", "lat": "41.3596", "lng": "-93.7904"}, {"name": "Le Mars", "state": "IA", "lat": "42.7809", "lng": "-96.1743"}, {"name": "Essex", "state": "IA", "lat": "40.8327", "lng": "-95.3038"}, {"name": "Garner", "state": "IA", "lat": "43.1000", "lng": "-93.6026"}, {"name": "Oakland Acres", "state": "IA", "lat": "41.7205", "lng": "-92.8211"}, {"name": "Morrison", "state": "IA", "lat": "42.3430", "lng": "-92.6733"}, {"name": "Gruver", "state": "IA", "lat": "43.3931", "lng": "-94.7036"}, {"name": "Gowrie", "state": "IA", "lat": "42.2778", "lng": "-94.2897"}, {"name": "Walcott", "state": "IA", "lat": "41.5989", "lng": "-90.7744"}, {"name": "Ayrshire", "state": "IA", "lat": "43.0395", "lng": "-94.8336"}, {"name": "Tipton", "state": "IA", "lat": "41.7701", "lng": "-91.1283"}, {"name": "Marne", "state": "IA", "lat": "41.4489", "lng": "-95.1108"}, {"name": "Benton", "state": "IA", "lat": "40.7041", "lng": "-94.3612"}, {"name": "Liscomb", "state": "IA", "lat": "42.1910", "lng": "-93.0062"}, {"name": "Lu Verne", "state": "IA", "lat": "42.9092", "lng": "-94.0836"}, {"name": "Salem", "state": "IA", "lat": "40.8520", "lng": "-91.6206"}, {"name": "Randolph", "state": "IA", "lat": "40.8734", "lng": "-95.5647"}, {"name": "Sully", "state": "IA", "lat": "41.5780", "lng": "-92.8469"}, {"name": "Montour", "state": "IA", "lat": "41.9803", "lng": "-92.7150"}, {"name": "Carpenter", "state": "IA", "lat": "43.4150", "lng": "-93.0173"}, {"name": "Dubuque", "state": "IA", "lat": "42.5007", "lng": "-90.7067"}, {"name": "Low Moor", "state": "IA", "lat": "41.8023", "lng": "-90.3542"}, {"name": "Kingsley", "state": "IA", "lat": "42.5865", "lng": "-95.9678"}, {"name": "Ashton", "state": "IA", "lat": "43.3088", "lng": "-95.7925"}, {"name": "Udell", "state": "IA", "lat": "40.7801", "lng": "-92.7427"}, {"name": "Kinross", "state": "IA", "lat": "41.4589", "lng": "-91.9873"}, {"name": "Scranton", "state": "IA", "lat": "42.0191", "lng": "-94.5490"}, {"name": "East Amana", "state": "IA", "lat": "41.8071", "lng": "-91.8498"}, {"name": "Larchwood", "state": "IA", "lat": "43.4545", "lng": "-96.4369"}, {"name": "Urbana", "state": "IA", "lat": "42.2279", "lng": "-91.8875"}, {"name": "Durango", "state": "IA", "lat": "42.5610", "lng": "-90.7743"}, {"name": "Mount Sterling", "state": "IA", "lat": "40.6198", "lng": "-91.9326"}, {"name": "Fostoria", "state": "IA", "lat": "43.2430", "lng": "-95.1550"}, {"name": "Bassett", "state": "IA", "lat": "43.0621", "lng": "-92.5158"}, {"name": "Farmington", "state": "IA", "lat": "40.6389", "lng": "-91.7392"}, {"name": "Earlham", "state": "IA", "lat": "41.4945", "lng": "-94.1222"}, {"name": "Evansdale", "state": "IA", "lat": "42.4635", "lng": "-92.2764"}, {"name": "Story City", "state": "IA", "lat": "42.1866", "lng": "-93.5863"}, {"name": "Waucoma", "state": "IA", "lat": "43.0554", "lng": "-92.0341"}, {"name": "Waverly", "state": "IA", "lat": "42.7250", "lng": "-92.4708"}, {"name": "Somers", "state": "IA", "lat": "42.3787", "lng": "-94.4309"}, {"name": "Colwell", "state": "IA", "lat": "43.1577", "lng": "-92.5910"}, {"name": "Traer", "state": "IA", "lat": "42.1895", "lng": "-92.4639"}, {"name": "Minden", "state": "IA", "lat": "41.4685", "lng": "-95.5410"}, {"name": "Morley", "state": "IA", "lat": "42.0060", "lng": "-91.2459"}, {"name": "Columbus Junction", "state": "IA", "lat": "41.2787", "lng": "-91.3651"}, {"name": "Clemons", "state": "IA", "lat": "42.1139", "lng": "-93.1585"}, {"name": "Riceville", "state": "IA", "lat": "43.3621", "lng": "-92.5541"}, {"name": "Hospers", "state": "IA", "lat": "43.0722", "lng": "-95.9039"}, {"name": "Magnolia", "state": "IA", "lat": "41.6922", "lng": "-95.8741"}, {"name": "Greenville", "state": "IA", "lat": "43.0170", "lng": "-95.1461"}, {"name": "Council Bluffs", "state": "IA", "lat": "41.2369", "lng": "-95.8518"}, {"name": "Beacon", "state": "IA", "lat": "41.2747", "lng": "-92.6814"}, {"name": "McClelland", "state": "IA", "lat": "41.3285", "lng": "-95.6834"}, {"name": "South Amana", "state": "IA", "lat": "41.7704", "lng": "-91.9600"}, {"name": "Oakville", "state": "IA", "lat": "41.0982", "lng": "-91.0437"}, {"name": "Soldier", "state": "IA", "lat": "41.9842", "lng": "-95.7802"}, {"name": "Beaman", "state": "IA", "lat": "42.2202", "lng": "-92.8221"}, {"name": "Shannon City", "state": "IA", "lat": "40.8992", "lng": "-94.2639"}, {"name": "Wallingford", "state": "IA", "lat": "43.3202", "lng": "-94.7924"}, {"name": "Deloit", "state": "IA", "lat": "42.0971", "lng": "-95.3175"}, {"name": "Onslow", "state": "IA", "lat": "42.1073", "lng": "-91.0153"}, {"name": "Linden", "state": "IA", "lat": "41.6427", "lng": "-94.2700"}, {"name": "St. Charles", "state": "IA", "lat": "41.2881", "lng": "-93.8075"}, {"name": "Vining", "state": "IA", "lat": "41.9910", "lng": "-92.3876"}, {"name": "Floyd", "state": "IA", "lat": "43.1282", "lng": "-92.7402"}, {"name": "Doon", "state": "IA", "lat": "43.2792", "lng": "-96.2324"}, {"name": "Avoca", "state": "IA", "lat": "41.4828", "lng": "-95.3373"}, {"name": "Bedford", "state": "IA", "lat": "40.6711", "lng": "-94.7240"}, {"name": "Greeley", "state": "IA", "lat": "42.5851", "lng": "-91.3416"}, {"name": "Stanhope", "state": "IA", "lat": "42.2889", "lng": "-93.7960"}, {"name": "Alleman", "state": "IA", "lat": "41.8159", "lng": "-93.6094"}, {"name": "Clearfield", "state": "IA", "lat": "40.8025", "lng": "-94.4826"}, {"name": "Sigourney", "state": "IA", "lat": "41.3341", "lng": "-92.2045"}, {"name": "Popejoy", "state": "IA", "lat": "42.5939", "lng": "-93.4278"}, {"name": "Barnum", "state": "IA", "lat": "42.5062", "lng": "-94.3657"}, {"name": "Numa", "state": "IA", "lat": "40.6854", "lng": "-92.9800"}, {"name": "Plano", "state": "IA", "lat": "40.7554", "lng": "-93.0469"}, {"name": "Jolley", "state": "IA", "lat": "42.4794", "lng": "-94.7182"}, {"name": "Havelock", "state": "IA", "lat": "42.8332", "lng": "-94.7008"}, {"name": "Orchard", "state": "IA", "lat": "43.2273", "lng": "-92.7751"}, {"name": "Prairieburg", "state": "IA", "lat": "42.2378", "lng": "-91.4259"}, {"name": "Columbus City", "state": "IA", "lat": "41.2592", "lng": "-91.3747"}, {"name": "Correctionville", "state": "IA", "lat": "42.4775", "lng": "-95.7830"}, {"name": "Schaller", "state": "IA", "lat": "42.4965", "lng": "-95.2963"}, {"name": "Auburn", "state": "IA", "lat": "42.2496", "lng": "-94.8778"}, {"name": "Manilla", "state": "IA", "lat": "41.8923", "lng": "-95.2347"}, {"name": "Logan", "state": "IA", "lat": "41.6453", "lng": "-95.7917"}, {"name": "New Hampton", "state": "IA", "lat": "43.0572", "lng": "-92.3164"}, {"name": "Rock Valley", "state": "IA", "lat": "43.2042", "lng": "-96.2909"}, {"name": "Moulton", "state": "IA", "lat": "40.6854", "lng": "-92.6765"}, {"name": "Blairstown", "state": "IA", "lat": "41.9060", "lng": "-92.0822"}, {"name": "Lake Mills", "state": "IA", "lat": "43.4169", "lng": "-93.5321"}, {"name": "Martelle", "state": "IA", "lat": "42.0204", "lng": "-91.3578"}, {"name": "University Park", "state": "IA", "lat": "41.2857", "lng": "-92.6149"}, {"name": "River Sioux", "state": "IA", "lat": "41.8024", "lng": "-96.0479"}, {"name": "Dyersville", "state": "IA", "lat": "42.4817", "lng": "-91.1175"}, {"name": "Oxford", "state": "IA", "lat": "41.7228", "lng": "-91.7911"}, {"name": "Marcus", "state": "IA", "lat": "42.8224", "lng": "-95.8068"}, {"name": "Mapleton", "state": "IA", "lat": "42.1671", "lng": "-95.7904"}, {"name": "Rutland", "state": "IA", "lat": "42.7614", "lng": "-94.2952"}, {"name": "Charles City", "state": "IA", "lat": "43.0644", "lng": "-92.6745"}, {"name": "Belle Plaine", "state": "IA", "lat": "41.8954", "lng": "-92.2751"}, {"name": "Ollie", "state": "IA", "lat": "41.1991", "lng": "-92.0923"}, {"name": "Readlyn", "state": "IA", "lat": "42.7038", "lng": "-92.2249"}, {"name": "Earlville", "state": "IA", "lat": "42.4828", "lng": "-91.2701"}, {"name": "Portland", "state": "IA", "lat": "43.1276", "lng": "-93.1271"}, {"name": "Hartley", "state": "IA", "lat": "43.1790", "lng": "-95.4768"}, {"name": "Orient", "state": "IA", "lat": "41.2033", "lng": "-94.4177"}, {"name": "Shell Rock", "state": "IA", "lat": "42.7122", "lng": "-92.5819"}, {"name": "Fruitland", "state": "IA", "lat": "41.3475", "lng": "-91.1288"}, {"name": "West Point", "state": "IA", "lat": "40.7145", "lng": "-91.4528"}, {"name": "Perry", "state": "IA", "lat": "41.8387", "lng": "-94.0938"}, {"name": "Deep River", "state": "IA", "lat": "41.5813", "lng": "-92.3731"}, {"name": "Sloan", "state": "IA", "lat": "42.2319", "lng": "-96.2256"}, {"name": "Blockton", "state": "IA", "lat": "40.6168", "lng": "-94.4779"}, {"name": "Arion", "state": "IA", "lat": "41.9482", "lng": "-95.4623"}, {"name": "Ottosen", "state": "IA", "lat": "42.8980", "lng": "-94.3755"}, {"name": "Panorama Park", "state": "IA", "lat": "41.5556", "lng": "-90.4537"}, {"name": "Hepburn", "state": "IA", "lat": "40.8476", "lng": "-95.0167"}, {"name": "Renwick", "state": "IA", "lat": "42.8269", "lng": "-93.9813"}, {"name": "Randall", "state": "IA", "lat": "42.2372", "lng": "-93.6026"}, {"name": "Lawler", "state": "IA", "lat": "43.0718", "lng": "-92.1536"}, {"name": "Hayesville", "state": "IA", "lat": "41.2646", "lng": "-92.2477"}, {"name": "Coulter", "state": "IA", "lat": "42.7331", "lng": "-93.3701"}, {"name": "Humboldt", "state": "IA", "lat": "42.7232", "lng": "-94.2245"}, {"name": "Struble", "state": "IA", "lat": "42.8945", "lng": "-96.1946"}, {"name": "Mount Pleasant", "state": "IA", "lat": "40.9625", "lng": "-91.5453"}, {"name": "Iowa Falls", "state": "IA", "lat": "42.5190", "lng": "-93.2662"}, {"name": "Arlington", "state": "IA", "lat": "42.7489", "lng": "-91.6711"}, {"name": "West Branch", "state": "IA", "lat": "41.6667", "lng": "-91.3448"}, {"name": "Leighton", "state": "IA", "lat": "41.3387", "lng": "-92.7864"}, {"name": "Atkins", "state": "IA", "lat": "41.9943", "lng": "-91.8585"}, {"name": "Newell", "state": "IA", "lat": "42.6097", "lng": "-95.0040"}, {"name": "Houghton", "state": "IA", "lat": "40.7836", "lng": "-91.6104"}, {"name": "Morning Sun", "state": "IA", "lat": "41.0941", "lng": "-91.2505"}, {"name": "Farmersburg", "state": "IA", "lat": "42.9589", "lng": "-91.3670"}, {"name": "Blue Grass", "state": "IA", "lat": "41.5096", "lng": "-90.7649"}, {"name": "Prescott", "state": "IA", "lat": "41.0239", "lng": "-94.6130"}, {"name": "Garrison", "state": "IA", "lat": "42.1451", "lng": "-92.1441"}, {"name": "Dana", "state": "IA", "lat": "42.1071", "lng": "-94.2383"}, {"name": "Galt", "state": "IA", "lat": "42.6930", "lng": "-93.6051"}, {"name": "Charlotte", "state": "IA", "lat": "41.9621", "lng": "-90.4682"}, {"name": "Rochester", "state": "IA", "lat": "41.6747", "lng": "-91.1508"}, {"name": "Shelby", "state": "IA", "lat": "41.5067", "lng": "-95.4506"}, {"name": "Cherokee", "state": "IA", "lat": "42.7508", "lng": "-95.5526"}, {"name": "Patterson", "state": "IA", "lat": "41.3485", "lng": "-93.8772"}, {"name": "Dayton", "state": "IA", "lat": "42.2622", "lng": "-94.0712"}, {"name": "Algona", "state": "IA", "lat": "43.0743", "lng": "-94.2301"}, {"name": "Brooklyn", "state": "IA", "lat": "41.7314", "lng": "-92.4453"}, {"name": "Chester", "state": "IA", "lat": "43.4918", "lng": "-92.3639"}, {"name": "Bradgate", "state": "IA", "lat": "42.8029", "lng": "-94.4196"}, {"name": "Blencoe", "state": "IA", "lat": "41.9304", "lng": "-96.0822"}, {"name": "Duncan", "state": "IA", "lat": "43.1051", "lng": "-93.7059"}, {"name": "Ringsted", "state": "IA", "lat": "43.2950", "lng": "-94.5067"}, {"name": "University Heights", "state": "IA", "lat": "41.6551", "lng": "-91.5589"}, {"name": "Lake Park", "state": "IA", "lat": "43.4472", "lng": "-95.3247"}, {"name": "Bankston", "state": "IA", "lat": "42.5073", "lng": "-90.9613"}, {"name": "Alexander", "state": "IA", "lat": "42.8044", "lng": "-93.4786"}, {"name": "Guthrie Center", "state": "IA", "lat": "41.6781", "lng": "-94.4990"}, {"name": "Walford", "state": "IA", "lat": "41.8798", "lng": "-91.8304"}, {"name": "Wellman", "state": "IA", "lat": "41.4693", "lng": "-91.8354"}, {"name": "Vincent", "state": "IA", "lat": "42.5917", "lng": "-94.0198"}, {"name": "Hedrick", "state": "IA", "lat": "41.1712", "lng": "-92.3079"}, {"name": "Lost Nation", "state": "IA", "lat": "41.9666", "lng": "-90.8167"}, {"name": "Maurice", "state": "IA", "lat": "42.9664", "lng": "-96.1824"}, {"name": "Harpers Ferry", "state": "IA", "lat": "43.2006", "lng": "-91.1523"}, {"name": "Lake Panorama", "state": "IA", "lat": "41.7199", "lng": "-94.4026"}, {"name": "Manning", "state": "IA", "lat": "41.9092", "lng": "-95.0642"}, {"name": "Manly", "state": "IA", "lat": "43.2881", "lng": "-93.2010"}, {"name": "Lisbon", "state": "IA", "lat": "41.9205", "lng": "-91.3917"}, {"name": "Thayer", "state": "IA", "lat": "41.0290", "lng": "-94.0497"}, {"name": "Gilmore City", "state": "IA", "lat": "42.7269", "lng": "-94.4369"}, {"name": "Toledo", "state": "IA", "lat": "41.9902", "lng": "-92.5803"}, {"name": "Clarinda", "state": "IA", "lat": "40.7380", "lng": "-95.0340"}, {"name": "Conroy", "state": "IA", "lat": "41.7267", "lng": "-91.9986"}, {"name": "New Liberty", "state": "IA", "lat": "41.7159", "lng": "-90.8780"}, {"name": "Chatsworth", "state": "IA", "lat": "42.9163", "lng": "-96.5144"}, {"name": "Thor", "state": "IA", "lat": "42.6881", "lng": "-94.0496"}, {"name": "Berkley", "state": "IA", "lat": "41.9465", "lng": "-94.1136"}, {"name": "Yetter", "state": "IA", "lat": "42.3161", "lng": "-94.8432"}, {"name": "Prairie City", "state": "IA", "lat": "41.5954", "lng": "-93.2393"}, {"name": "Lowden", "state": "IA", "lat": "41.8589", "lng": "-90.9229"}, {"name": "Leon", "state": "IA", "lat": "40.7407", "lng": "-93.7546"}, {"name": "Eddyville", "state": "IA", "lat": "41.1591", "lng": "-92.6297"}, {"name": "Meservey", "state": "IA", "lat": "42.9157", "lng": "-93.4734"}, {"name": "Kiron", "state": "IA", "lat": "42.1940", "lng": "-95.3271"}, {"name": "Epworth", "state": "IA", "lat": "42.4467", "lng": "-90.9314"}, {"name": "Spillville", "state": "IA", "lat": "43.2031", "lng": "-91.9523"}, {"name": "Ruthven", "state": "IA", "lat": "43.1301", "lng": "-94.8985"}, {"name": "California Junction", "state": "IA", "lat": "41.5601", "lng": "-95.9947"}, {"name": "Leland", "state": "IA", "lat": "43.3318", "lng": "-93.6351"}, {"name": "St. Ansgar", "state": "IA", "lat": "43.3797", "lng": "-92.9178"}, {"name": "Mystic", "state": "IA", "lat": "40.7792", "lng": "-92.9446"}, {"name": "Buckeye", "state": "IA", "lat": "42.4195", "lng": "-93.3758"}, {"name": "Belmond", "state": "IA", "lat": "42.8466", "lng": "-93.6084"}, {"name": "Monroe", "state": "IA", "lat": "41.5189", "lng": "-93.1038"}, {"name": "Pomeroy", "state": "IA", "lat": "42.5519", "lng": "-94.6778"}, {"name": "Grant", "state": "IA", "lat": "41.1427", "lng": "-94.9851"}, {"name": "West Union", "state": "IA", "lat": "42.9588", "lng": "-91.8132"}, {"name": "Cumming", "state": "IA", "lat": "41.4876", "lng": "-93.7594"}, {"name": "Luxemburg", "state": "IA", "lat": "42.6040", "lng": "-91.0726"}, {"name": "Delhi", "state": "IA", "lat": "42.4303", "lng": "-91.3305"}, {"name": "Paullina", "state": "IA", "lat": "42.9797", "lng": "-95.6831"}, {"name": "Monticello", "state": "IA", "lat": "42.2298", "lng": "-91.1861"}, {"name": "Athelstan", "state": "IA", "lat": "40.5727", "lng": "-94.5426"}, {"name": "Bartlett", "state": "IA", "lat": "40.8853", "lng": "-95.7947"}, {"name": "Malvern", "state": "IA", "lat": "41.0040", "lng": "-95.5842"}, {"name": "Clermont", "state": "IA", "lat": "43.0001", "lng": "-91.6523"}, {"name": "Ottumwa", "state": "IA", "lat": "41.0196", "lng": "-92.4186"}, {"name": "Hastings", "state": "IA", "lat": "41.0251", "lng": "-95.4948"}, {"name": "Dysart", "state": "IA", "lat": "42.1721", "lng": "-92.3091"}, {"name": "Terril", "state": "IA", "lat": "43.3058", "lng": "-94.9689"}, {"name": "Truesdale", "state": "IA", "lat": "42.7292", "lng": "-95.1835"}, {"name": "Lester", "state": "IA", "lat": "43.4403", "lng": "-96.3315"}, {"name": "Bancroft", "state": "IA", "lat": "43.2928", "lng": "-94.2175"}, {"name": "Wayland", "state": "IA", "lat": "41.1487", "lng": "-91.6575"}, {"name": "Plainfield", "state": "IA", "lat": "42.8447", "lng": "-92.5357"}, {"name": "Dixon", "state": "IA", "lat": "41.7422", "lng": "-90.7824"}, {"name": "Denison", "state": "IA", "lat": "42.0160", "lng": "-95.3528"}, {"name": "College Springs", "state": "IA", "lat": "40.6213", "lng": "-95.1211"}, {"name": "Garden Grove", "state": "IA", "lat": "40.8265", "lng": "-93.6073"}, {"name": "Fremont", "state": "IA", "lat": "41.2126", "lng": "-92.4342"}, {"name": "New Albin", "state": "IA", "lat": "43.4970", "lng": "-91.2881"}, {"name": "Jacksonville", "state": "IA", "lat": "41.6452", "lng": "-95.1515"}, {"name": "Thurman", "state": "IA", "lat": "40.8202", "lng": "-95.7488"}, {"name": "Whitten", "state": "IA", "lat": "42.2626", "lng": "-93.0092"}, {"name": "Arthur", "state": "IA", "lat": "42.3353", "lng": "-95.3469"}, {"name": "Lynnville", "state": "IA", "lat": "41.5729", "lng": "-92.7869"}, {"name": "Oelwein", "state": "IA", "lat": "42.6715", "lng": "-91.9133"}, {"name": "Coon Rapids", "state": "IA", "lat": "41.8748", "lng": "-94.6785"}, {"name": "Palo", "state": "IA", "lat": "42.0645", "lng": "-91.8001"}, {"name": "Hopkinton", "state": "IA", "lat": "42.3430", "lng": "-91.2488"}, {"name": "Middle Amana", "state": "IA", "lat": "41.7945", "lng": "-91.9010"}, {"name": "Tabor", "state": "IA", "lat": "40.8949", "lng": "-95.6737"}, {"name": "Palmer", "state": "IA", "lat": "42.6299", "lng": "-94.5984"}, {"name": "Northboro", "state": "IA", "lat": "40.6080", "lng": "-95.2937"}, {"name": "Quimby", "state": "IA", "lat": "42.6292", "lng": "-95.6440"}, {"name": "Melbourne", "state": "IA", "lat": "41.9416", "lng": "-93.1027"}, {"name": "Dedham", "state": "IA", "lat": "41.9087", "lng": "-94.8232"}, {"name": "Stuart", "state": "IA", "lat": "41.5003", "lng": "-94.3187"}, {"name": "Hudson", "state": "IA", "lat": "42.4320", "lng": "-92.4519"}, {"name": "Clinton", "state": "IA", "lat": "41.8434", "lng": "-90.2409"}, {"name": "Greenfield", "state": "IA", "lat": "41.3056", "lng": "-94.4592"}, {"name": "Storm Lake", "state": "IA", "lat": "42.6431", "lng": "-95.1970"}, {"name": "Fredericksburg", "state": "IA", "lat": "42.9647", "lng": "-92.1964"}, {"name": "Farragut", "state": "IA", "lat": "40.7200", "lng": "-95.4807"}, {"name": "Tingley", "state": "IA", "lat": "40.8527", "lng": "-94.1958"}, {"name": "Macksburg", "state": "IA", "lat": "41.2147", "lng": "-94.1851"}, {"name": "Sioux City", "state": "IA", "lat": "42.4959", "lng": "-96.3901"}, {"name": "Atlantic", "state": "IA", "lat": "41.3957", "lng": "-95.0138"}, {"name": "Delta", "state": "IA", "lat": "41.3226", "lng": "-92.3304"}, {"name": "Linn Grove", "state": "IA", "lat": "42.8927", "lng": "-95.2423"}, {"name": "Ute", "state": "IA", "lat": "42.0500", "lng": "-95.7058"}, {"name": "Adair", "state": "IA", "lat": "41.5004", "lng": "-94.6434"}, {"name": "Riverton", "state": "IA", "lat": "40.6868", "lng": "-95.5686"}, {"name": "Sac City", "state": "IA", "lat": "42.4217", "lng": "-94.9979"}, {"name": "Winthrop", "state": "IA", "lat": "42.4702", "lng": "-91.7380"}, {"name": "Armstrong", "state": "IA", "lat": "43.3945", "lng": "-94.4834"}, {"name": "Willey", "state": "IA", "lat": "41.9787", "lng": "-94.8224"}, {"name": "Packwood", "state": "IA", "lat": "41.1327", "lng": "-92.0825"}, {"name": "Rock Rapids", "state": "IA", "lat": "43.4273", "lng": "-96.1662"}, {"name": "Garber", "state": "IA", "lat": "42.7444", "lng": "-91.2617"}, {"name": "Monmouth", "state": "IA", "lat": "42.0751", "lng": "-90.8822"}, {"name": "Shenandoah", "state": "IA", "lat": "40.7583", "lng": "-95.3721"}, {"name": "Saylorville", "state": "IA", "lat": "41.6809", "lng": "-93.6279"}, {"name": "Casey", "state": "IA", "lat": "41.5075", "lng": "-94.5213"}, {"name": "McCausland", "state": "IA", "lat": "41.7435", "lng": "-90.4461"}, {"name": "Walker", "state": "IA", "lat": "42.2873", "lng": "-91.7809"}, {"name": "Harcourt", "state": "IA", "lat": "42.2606", "lng": "-94.1745"}, {"name": "Buffalo", "state": "IA", "lat": "41.4666", "lng": "-90.7170"}, {"name": "Albion", "state": "IA", "lat": "42.1125", "lng": "-92.9887"}, {"name": "Hampton", "state": "IA", "lat": "42.7420", "lng": "-93.2050"}, {"name": "Whiting", "state": "IA", "lat": "42.1272", "lng": "-96.1508"}, {"name": "Westwood", "state": "IA", "lat": "40.9648", "lng": "-91.6268"}, {"name": "Otranto", "state": "IA", "lat": "43.4608", "lng": "-92.9862"}, {"name": "Pocahontas", "state": "IA", "lat": "42.7371", "lng": "-94.6661"}, {"name": "Moorland", "state": "IA", "lat": "42.4414", "lng": "-94.2954"}, {"name": "Afton", "state": "IA", "lat": "41.0276", "lng": "-94.1954"}, {"name": "Newhall", "state": "IA", "lat": "41.9933", "lng": "-91.9672"}, {"name": "Keswick", "state": "IA", "lat": "41.4546", "lng": "-92.2382"}, {"name": "Clutier", "state": "IA", "lat": "42.0793", "lng": "-92.4036"}, {"name": "Sherrill", "state": "IA", "lat": "42.6046", "lng": "-90.7841"}, {"name": "Dunlap", "state": "IA", "lat": "41.8526", "lng": "-95.6006"}, {"name": "Alden", "state": "IA", "lat": "42.5114", "lng": "-93.3800"}, {"name": "Nichols", "state": "IA", "lat": "41.4797", "lng": "-91.3081"}, {"name": "Cresco", "state": "IA", "lat": "43.3718", "lng": "-92.1164"}, {"name": "Ryan", "state": "IA", "lat": "42.3524", "lng": "-91.4851"}, {"name": "Eldora", "state": "IA", "lat": "42.3605", "lng": "-93.1013"}, {"name": "Dallas Center", "state": "IA", "lat": "41.6854", "lng": "-93.9817"}, {"name": "Springbrook", "state": "IA", "lat": "42.1658", "lng": "-90.4791"}, {"name": "Victor", "state": "IA", "lat": "41.7306", "lng": "-92.2947"}, {"name": "Letts", "state": "IA", "lat": "41.3299", "lng": "-91.2356"}, {"name": "Castalia", "state": "IA", "lat": "43.1126", "lng": "-91.6770"}, {"name": "Collins", "state": "IA", "lat": "41.9020", "lng": "-93.3082"}, {"name": "Churdan", "state": "IA", "lat": "42.1539", "lng": "-94.4786"}, {"name": "Coalville", "state": "IA", "lat": "42.4407", "lng": "-94.1192"}, {"name": "Fort Madison", "state": "IA", "lat": "40.6207", "lng": "-91.3509"}, {"name": "Underwood", "state": "IA", "lat": "41.3808", "lng": "-95.6820"}, {"name": "Rowley", "state": "IA", "lat": "42.3685", "lng": "-91.8445"}, {"name": "Slater", "state": "IA", "lat": "41.8805", "lng": "-93.6910"}, {"name": "Bode", "state": "IA", "lat": "42.8680", "lng": "-94.2863"}, {"name": "Cumberland", "state": "IA", "lat": "41.2731", "lng": "-94.8707"}, {"name": "Volga", "state": "IA", "lat": "42.8027", "lng": "-91.5423"}, {"name": "Derby", "state": "IA", "lat": "40.9303", "lng": "-93.4565"}, {"name": "De Soto", "state": "IA", "lat": "41.5364", "lng": "-94.0098"}, {"name": "Clare", "state": "IA", "lat": "42.5875", "lng": "-94.3447"}, {"name": "Tennant", "state": "IA", "lat": "41.5941", "lng": "-95.4449"}, {"name": "Grinnell", "state": "IA", "lat": "41.7361", "lng": "-92.7244"}, {"name": "Hardy", "state": "IA", "lat": "42.8101", "lng": "-94.0512"}, {"name": "Maysville", "state": "IA", "lat": "41.6496", "lng": "-90.7184"}, {"name": "Aspinwall", "state": "IA", "lat": "41.9106", "lng": "-95.1350"}, {"name": "Lake City", "state": "IA", "lat": "42.2676", "lng": "-94.7311"}, {"name": "Gladbrook", "state": "IA", "lat": "42.1861", "lng": "-92.7150"}, {"name": "Bettendorf", "state": "IA", "lat": "41.5656", "lng": "-90.4764"}, {"name": "Edgewood", "state": "IA", "lat": "42.6443", "lng": "-91.4017"}, {"name": "Fayette", "state": "IA", "lat": "42.8415", "lng": "-91.8036"}, {"name": "Northwood", "state": "IA", "lat": "43.4441", "lng": "-93.2166"}, {"name": "Braddyville", "state": "IA", "lat": "40.5806", "lng": "-95.0312"}, {"name": "Dougherty", "state": "IA", "lat": "42.9220", "lng": "-93.0359"}, {"name": "Huxley", "state": "IA", "lat": "41.8963", "lng": "-93.5914"}, {"name": "Emerson", "state": "IA", "lat": "41.0181", "lng": "-95.4028"}, {"name": "Archer", "state": "IA", "lat": "43.1151", "lng": "-95.7442"}, {"name": "Ankeny", "state": "IA", "lat": "41.7284", "lng": "-93.6034"}, {"name": "Radcliffe", "state": "IA", "lat": "42.3177", "lng": "-93.4343"}, {"name": "Le Claire", "state": "IA", "lat": "41.5964", "lng": "-90.3687"}, {"name": "Wiota", "state": "IA", "lat": "41.4010", "lng": "-94.8875"}, {"name": "Swisher", "state": "IA", "lat": "41.8443", "lng": "-91.6939"}, {"name": "Everly", "state": "IA", "lat": "43.1619", "lng": "-95.3198"}, {"name": "Lohrville", "state": "IA", "lat": "42.2672", "lng": "-94.5516"}, {"name": "Davenport", "state": "IA", "lat": "41.5563", "lng": "-90.6052"}, {"name": "New Providence", "state": "IA", "lat": "42.2813", "lng": "-93.1716"}, {"name": "Mount Vernon", "state": "IA", "lat": "41.9230", "lng": "-91.4244"}, {"name": "Lone Tree", "state": "IA", "lat": "41.4859", "lng": "-91.4267"}, {"name": "Mediapolis", "state": "IA", "lat": "41.0078", "lng": "-91.1636"}, {"name": "Solon", "state": "IA", "lat": "41.8055", "lng": "-91.4961"}, {"name": "Joice", "state": "IA", "lat": "43.3648", "lng": "-93.4581"}, {"name": "State Center", "state": "IA", "lat": "42.0149", "lng": "-93.1652"}, {"name": "Hiawatha", "state": "IA", "lat": "42.0545", "lng": "-91.6910"}, {"name": "Fredonia", "state": "IA", "lat": "41.2845", "lng": "-91.3397"}, {"name": "Williamsburg", "state": "IA", "lat": "41.6683", "lng": "-92.0103"}, {"name": "Sun Valley Lake", "state": "IA", "lat": "40.8512", "lng": "-94.0685"}, {"name": "Worthington", "state": "IA", "lat": "42.3981", "lng": "-91.1208"}, {"name": "Badger", "state": "IA", "lat": "42.6141", "lng": "-94.1446"}, {"name": "Superior", "state": "IA", "lat": "43.4337", "lng": "-94.9466"}, {"name": "Walnut", "state": "IA", "lat": "41.4885", "lng": "-95.2205"}, {"name": "Mitchell", "state": "IA", "lat": "43.3204", "lng": "-92.8707"}, {"name": "Dike", "state": "IA", "lat": "42.4641", "lng": "-92.6255"}, {"name": "Ferguson", "state": "IA", "lat": "41.9386", "lng": "-92.8630"}, {"name": "Brayton", "state": "IA", "lat": "41.5448", "lng": "-94.9303"}, {"name": "Halbur", "state": "IA", "lat": "42.0051", "lng": "-94.9720"}, {"name": "West Des Moines", "state": "IA", "lat": "41.5522", "lng": "-93.7805"}, {"name": "Pisgah", "state": "IA", "lat": "41.8304", "lng": "-95.9264"}, {"name": "Onawa", "state": "IA", "lat": "42.0268", "lng": "-96.0905"}, {"name": "Persia", "state": "IA", "lat": "41.5786", "lng": "-95.5705"}, {"name": "Baxter", "state": "IA", "lat": "41.8252", "lng": "-93.1525"}, {"name": "Bentley", "state": "IA", "lat": "41.3756", "lng": "-95.6225"}, {"name": "Bridgewater", "state": "IA", "lat": "41.2472", "lng": "-94.6690"}, {"name": "Cromwell", "state": "IA", "lat": "41.0403", "lng": "-94.4616"}, {"name": "Buck Grove", "state": "IA", "lat": "41.9178", "lng": "-95.3951"}, {"name": "Diagonal", "state": "IA", "lat": "40.8105", "lng": "-94.3421"}, {"name": "Dolliver", "state": "IA", "lat": "43.4638", "lng": "-94.6143"}, {"name": "Creston", "state": "IA", "lat": "41.0597", "lng": "-94.3650"}, {"name": "Hanlontown", "state": "IA", "lat": "43.2809", "lng": "-93.3789"}, {"name": "Loveland", "state": "IA", "lat": "41.4974", "lng": "-95.8909"}, {"name": "Farnhamville", "state": "IA", "lat": "42.2768", "lng": "-94.4078"}, {"name": "Audubon", "state": "IA", "lat": "41.7181", "lng": "-94.9286"}, {"name": "Ionia", "state": "IA", "lat": "43.0361", "lng": "-92.4584"}, {"name": "Anita", "state": "IA", "lat": "41.4436", "lng": "-94.7659"}, {"name": "Lacona", "state": "IA", "lat": "41.1901", "lng": "-93.3850"}, {"name": "Jesup", "state": "IA", "lat": "42.4744", "lng": "-92.0658"}, {"name": "Thornburg", "state": "IA", "lat": "41.4554", "lng": "-92.3328"}, {"name": "Pella", "state": "IA", "lat": "41.4051", "lng": "-92.9177"}, {"name": "Seymour", "state": "IA", "lat": "40.6824", "lng": "-93.1212"}, {"name": "Lamont", "state": "IA", "lat": "42.5986", "lng": "-91.6404"}, {"name": "Villisca", "state": "IA", "lat": "40.9300", "lng": "-94.9818"}, {"name": "Lamoni", "state": "IA", "lat": "40.6202", "lng": "-93.9307"}, {"name": "McCallsburg", "state": "IA", "lat": "42.1648", "lng": "-93.3906"}, {"name": "Polk City", "state": "IA", "lat": "41.7773", "lng": "-93.7132"}, {"name": "Holland", "state": "IA", "lat": "42.4000", "lng": "-92.7989"}, {"name": "Ackworth", "state": "IA", "lat": "41.3642", "lng": "-93.4723"}, {"name": "Westgate", "state": "IA", "lat": "42.7682", "lng": "-91.9956"}, {"name": "North Liberty", "state": "IA", "lat": "41.7439", "lng": "-91.6105"}, {"name": "Clear Lake", "state": "IA", "lat": "43.1346", "lng": "-93.3740"}, {"name": "Alta Vista", "state": "IA", "lat": "43.1968", "lng": "-92.4170"}, {"name": "Clio", "state": "IA", "lat": "40.6360", "lng": "-93.4514"}, {"name": "Kelley", "state": "IA", "lat": "41.9510", "lng": "-93.6656"}, {"name": "Parkersburg", "state": "IA", "lat": "42.5740", "lng": "-92.7788"}, {"name": "Agency", "state": "IA", "lat": "40.9975", "lng": "-92.3072"}, {"name": "Gravity", "state": "IA", "lat": "40.7602", "lng": "-94.7435"}, {"name": "Pulaski", "state": "IA", "lat": "40.6929", "lng": "-92.2738"}, {"name": "Kimballton", "state": "IA", "lat": "41.6271", "lng": "-95.0749"}, {"name": "Floris", "state": "IA", "lat": "40.8640", "lng": "-92.3322"}, {"name": "Alton", "state": "IA", "lat": "42.9876", "lng": "-96.0095"}, {"name": "Pleasant Hill", "state": "IA", "lat": "41.5855", "lng": "-93.4999"}, {"name": "Laurens", "state": "IA", "lat": "42.8477", "lng": "-94.8482"}, {"name": "Clive", "state": "IA", "lat": "41.6147", "lng": "-93.7979"}, {"name": "Oxford Junction", "state": "IA", "lat": "41.9837", "lng": "-90.9541"}, {"name": "Runnells", "state": "IA", "lat": "41.5141", "lng": "-93.3603"}, {"name": "Holstein", "state": "IA", "lat": "42.4869", "lng": "-95.5429"}, {"name": "Grand Mound", "state": "IA", "lat": "41.8232", "lng": "-90.6502"}, {"name": "Manchester", "state": "IA", "lat": "42.4854", "lng": "-91.4556"}, {"name": "Gilman", "state": "IA", "lat": "41.8788", "lng": "-92.7881"}, {"name": "Bernard", "state": "IA", "lat": "42.3133", "lng": "-90.8319"}, {"name": "Lovilia", "state": "IA", "lat": "41.1348", "lng": "-92.9081"}, {"name": "Elberon", "state": "IA", "lat": "42.0055", "lng": "-92.3161"}, {"name": "Ralston", "state": "IA", "lat": "42.0418", "lng": "-94.6293"}, {"name": "Latimer", "state": "IA", "lat": "42.7628", "lng": "-93.3656"}, {"name": "Farley", "state": "IA", "lat": "42.4437", "lng": "-91.0092"}, {"name": "Gray", "state": "IA", "lat": "41.8418", "lng": "-94.9859"}, {"name": "Colo", "state": "IA", "lat": "42.0145", "lng": "-93.3186"}, {"name": "Dakota City", "state": "IA", "lat": "42.7229", "lng": "-94.1977"}, {"name": "Denmark", "state": "IA", "lat": "40.7385", "lng": "-91.3381"}, {"name": "Nodaway", "state": "IA", "lat": "40.9366", "lng": "-94.8954"}, {"name": "Gibson", "state": "IA", "lat": "41.4802", "lng": "-92.3920"}, {"name": "Graf", "state": "IA", "lat": "42.4939", "lng": "-90.8735"}, {"name": "Klemme", "state": "IA", "lat": "43.0098", "lng": "-93.6013"}, {"name": "Kirkville", "state": "IA", "lat": "41.1422", "lng": "-92.5036"}, {"name": "Humeston", "state": "IA", "lat": "40.8610", "lng": "-93.4972"}, {"name": "Andover", "state": "IA", "lat": "41.9799", "lng": "-90.2529"}, {"name": "Unionville", "state": "IA", "lat": "40.8182", "lng": "-92.6958"}, {"name": "Sibley", "state": "IA", "lat": "43.4013", "lng": "-95.7438"}, {"name": "Maynard", "state": "IA", "lat": "42.7739", "lng": "-91.8775"}, {"name": "Nemaha", "state": "IA", "lat": "42.5150", "lng": "-95.0889"}, {"name": "Middletown", "state": "IA", "lat": "40.8279", "lng": "-91.2622"}, {"name": "Dundee", "state": "IA", "lat": "42.5799", "lng": "-91.5461"}, {"name": "Diamondhead Lake", "state": "IA", "lat": "41.5490", "lng": "-94.2593"}, {"name": "Rowan", "state": "IA", "lat": "42.7391", "lng": "-93.5504"}, {"name": "Massena", "state": "IA", "lat": "41.2506", "lng": "-94.7698"}, {"name": "Duncombe", "state": "IA", "lat": "42.4695", "lng": "-93.9962"}, {"name": "New Virginia", "state": "IA", "lat": "41.1818", "lng": "-93.7310"}, {"name": "Ames", "state": "IA", "lat": "42.0258", "lng": "-93.6216"}, {"name": "Davis City", "state": "IA", "lat": "40.6401", "lng": "-93.8126"}, {"name": "Waukon", "state": "IA", "lat": "43.2684", "lng": "-91.4782"}, {"name": "Bristow", "state": "IA", "lat": "42.7738", "lng": "-92.9079"}, {"name": "Alvord", "state": "IA", "lat": "43.3418", "lng": "-96.3026"}, {"name": "Rodney", "state": "IA", "lat": "42.2048", "lng": "-95.9508"}, {"name": "Bronson", "state": "IA", "lat": "42.4091", "lng": "-96.2114"}, {"name": "New Sharon", "state": "IA", "lat": "41.4701", "lng": "-92.6509"}, {"name": "Oakland", "state": "IA", "lat": "41.3078", "lng": "-95.3967"}, {"name": "Ellsworth", "state": "IA", "lat": "42.3101", "lng": "-93.5819"}, {"name": "Watkins", "state": "IA", "lat": "41.8931", "lng": "-91.9850"}, {"name": "West Amana", "state": "IA", "lat": "41.8083", "lng": "-91.9654"}, {"name": "Anamosa", "state": "IA", "lat": "42.1091", "lng": "-91.2758"}, {"name": "Elkport", "state": "IA", "lat": "42.7415", "lng": "-91.2751"}, {"name": "Boyden", "state": "IA", "lat": "43.1891", "lng": "-96.0032"}, {"name": "Oto", "state": "IA", "lat": "42.2821", "lng": "-95.8945"}, {"name": "Wadena", "state": "IA", "lat": "42.8397", "lng": "-91.6594"}, {"name": "Steamboat Rock", "state": "IA", "lat": "42.4081", "lng": "-93.0662"}, {"name": "Hamburg", "state": "IA", "lat": "40.6061", "lng": "-95.6545"}, {"name": "Mason City", "state": "IA", "lat": "43.1487", "lng": "-93.1998"}, {"name": "Norway", "state": "IA", "lat": "41.9022", "lng": "-91.9227"}, {"name": "Garden City", "state": "IA", "lat": "42.2455", "lng": "-93.3953"}, {"name": "Lakeside", "state": "IA", "lat": "42.6179", "lng": "-95.1772"}, {"name": "Fonda", "state": "IA", "lat": "42.5817", "lng": "-94.8457"}, {"name": "Crystal Lake", "state": "IA", "lat": "43.2229", "lng": "-93.7927"}, {"name": "Iowa City", "state": "IA", "lat": "41.6559", "lng": "-91.5304"}, {"name": "Osage", "state": "IA", "lat": "43.2826", "lng": "-92.8115"}, {"name": "Hubbard", "state": "IA", "lat": "42.3055", "lng": "-93.3019"}, {"name": "Russell", "state": "IA", "lat": "40.9801", "lng": "-93.2005"}, {"name": "Tripoli", "state": "IA", "lat": "42.8083", "lng": "-92.2579"}, {"name": "Dickens", "state": "IA", "lat": "43.1339", "lng": "-95.0223"}, {"name": "La Porte City", "state": "IA", "lat": "42.3137", "lng": "-92.1912"}, {"name": "Raymond", "state": "IA", "lat": "42.4694", "lng": "-92.2296"}, {"name": "Nora Springs", "state": "IA", "lat": "43.1445", "lng": "-93.0094"}, {"name": "Grafton", "state": "IA", "lat": "43.3304", "lng": "-93.0687"}, {"name": "Valeria", "state": "IA", "lat": "41.7298", "lng": "-93.3256"}, {"name": "Ridgeway", "state": "IA", "lat": "43.2971", "lng": "-91.9924"}, {"name": "Albia", "state": "IA", "lat": "41.0272", "lng": "-92.8039"}, {"name": "Sheldon", "state": "IA", "lat": "43.1796", "lng": "-95.8441"}, {"name": "Charter Oak", "state": "IA", "lat": "42.0683", "lng": "-95.5890"}, {"name": "Stout", "state": "IA", "lat": "42.5269", "lng": "-92.7115"}, {"name": "Bloomfield", "state": "IA", "lat": "40.7487", "lng": "-92.4174"}, {"name": "Pleasantville", "state": "IA", "lat": "41.3864", "lng": "-93.2728"}, {"name": "Laurel", "state": "IA", "lat": "41.8841", "lng": "-92.9222"}, {"name": "St. Joseph", "state": "IA", "lat": "42.9122", "lng": "-94.2306"}, {"name": "Promise City", "state": "IA", "lat": "40.7473", "lng": "-93.1498"}, {"name": "Postville", "state": "IA", "lat": "43.0840", "lng": "-91.5683"}, {"name": "Coralville", "state": "IA", "lat": "41.6990", "lng": "-91.5967"}, {"name": "Riverside", "state": "IA", "lat": "41.4895", "lng": "-91.5554"}, {"name": "Rock Falls", "state": "IA", "lat": "43.2070", "lng": "-93.0870"}, {"name": "Dunkerton", "state": "IA", "lat": "42.5672", "lng": "-92.1611"}, {"name": "McIntire", "state": "IA", "lat": "43.4360", "lng": "-92.5937"}, {"name": "Kellogg", "state": "IA", "lat": "41.7181", "lng": "-92.9071"}, {"name": "Reinbeck", "state": "IA", "lat": "42.3225", "lng": "-92.5943"}, {"name": "Lincoln", "state": "IA", "lat": "42.2635", "lng": "-92.6914"}, {"name": "Spragueville", "state": "IA", "lat": "42.0715", "lng": "-90.4328"}, {"name": "Conrad", "state": "IA", "lat": "42.2234", "lng": "-92.8740"}, {"name": "Janesville", "state": "IA", "lat": "42.6459", "lng": "-92.4627"}, {"name": "Delaware", "state": "IA", "lat": "42.4713", "lng": "-91.3390"}, {"name": "Keystone", "state": "IA", "lat": "41.9995", "lng": "-92.1982"}, {"name": "Marshalltown", "state": "IA", "lat": "42.0341", "lng": "-92.9067"}, {"name": "Shueyville", "state": "IA", "lat": "41.8463", "lng": "-91.6512"}, {"name": "Twin Lakes", "state": "IA", "lat": "42.4775", "lng": "-94.6354"}, {"name": "Wesley", "state": "IA", "lat": "43.0887", "lng": "-93.9928"}, {"name": "Rippey", "state": "IA", "lat": "41.9342", "lng": "-94.2008"}, {"name": "West Burlington", "state": "IA", "lat": "40.8215", "lng": "-91.1755"}, {"name": "Conway", "state": "IA", "lat": "40.7492", "lng": "-94.6199"}, {"name": "Washington", "state": "IA", "lat": "41.2982", "lng": "-91.6928"}, {"name": "Stratford", "state": "IA", "lat": "42.2691", "lng": "-93.9272"}, {"name": "St. Marys", "state": "IA", "lat": "41.3076", "lng": "-93.7338"}, {"name": "Corley", "state": "IA", "lat": "41.5776", "lng": "-95.3308"}, {"name": "Owasa", "state": "IA", "lat": "42.4319", "lng": "-93.2047"}, {"name": "Williamson", "state": "IA", "lat": "41.0882", "lng": "-93.2568"}, {"name": "Cleghorn", "state": "IA", "lat": "42.8124", "lng": "-95.7126"}, {"name": "Sharpsburg", "state": "IA", "lat": "40.8030", "lng": "-94.6405"}, {"name": "Springville", "state": "IA", "lat": "42.0529", "lng": "-91.4457"}, {"name": "Mount Union", "state": "IA", "lat": "41.0576", "lng": "-91.3914"}, {"name": "Mechanicsville", "state": "IA", "lat": "41.9056", "lng": "-91.2536"}, {"name": "Fenton", "state": "IA", "lat": "43.2181", "lng": "-94.4280"}, {"name": "Percival", "state": "IA", "lat": "40.7513", "lng": "-95.8133"}, {"name": "Coppock", "state": "IA", "lat": "41.1635", "lng": "-91.7151"}, {"name": "Albert City", "state": "IA", "lat": "42.7816", "lng": "-94.9491"}, {"name": "Weston", "state": "IA", "lat": "41.3421", "lng": "-95.7449"}, {"name": "Primghar", "state": "IA", "lat": "43.0864", "lng": "-95.6209"}, {"name": "Urbandale", "state": "IA", "lat": "41.6390", "lng": "-93.7813"}, {"name": "Dawson", "state": "IA", "lat": "41.8431", "lng": "-94.2203"}, {"name": "Goldfield", "state": "IA", "lat": "42.7356", "lng": "-93.9181"}, {"name": "Pierson", "state": "IA", "lat": "42.5428", "lng": "-95.8653"}, {"name": "Leando", "state": "IA", "lat": "40.8221", "lng": "-92.0805"}, {"name": "Corwith", "state": "IA", "lat": "42.9890", "lng": "-93.9581"}, {"name": "Boone", "state": "IA", "lat": "42.0530", "lng": "-93.8770"}, {"name": "Shambaugh", "state": "IA", "lat": "40.6574", "lng": "-95.0353"}, {"name": "Garnavillo", "state": "IA", "lat": "42.8662", "lng": "-91.2364"}, {"name": "Montrose", "state": "IA", "lat": "40.5258", "lng": "-91.4159"}, {"name": "Arnolds Park", "state": "IA", "lat": "43.3601", "lng": "-95.1264"}, {"name": "Smithland", "state": "IA", "lat": "42.2290", "lng": "-95.9312"}, {"name": "Spirit Lake", "state": "IA", "lat": "43.4176", "lng": "-95.1109"}, {"name": "Westfield", "state": "IA", "lat": "42.7561", "lng": "-96.6055"}]