[{"name": "Albion", "state": "ID", "lat": "42.4097", "lng": "-113.5805"}, {"name": "Groveland", "state": "ID", "lat": "43.2235", "lng": "-112.3755"}, {"name": "Ponderay", "state": "ID", "lat": "48.3091", "lng": "-116.5390"}, {"name": "Soda Springs", "state": "ID", "lat": "42.6590", "lng": "-111.5877"}, {"name": "Jerome", "state": "ID", "lat": "42.7183", "lng": "-114.5159"}, {"name": "Priest River", "state": "ID", "lat": "48.1782", "lng": "-116.8842"}, {"name": "Paris", "state": "ID", "lat": "42.2273", "lng": "-111.4032"}, {"name": "Onaway", "state": "ID", "lat": "46.9282", "lng": "-116.8896"}, {"name": "Teton", "state": "ID", "lat": "43.8872", "lng": "-111.6724"}, {"name": "McCammon", "state": "ID", "lat": "42.6504", "lng": "-112.1901"}, {"name": "Kendrick", "state": "ID", "lat": "46.6140", "lng": "-116.6542"}, {"name": "Orofino", "state": "ID", "lat": "46.4866", "lng": "-116.2568"}, {"name": "Moreland", "state": "ID", "lat": "43.2195", "lng": "-112.4378"}, {"name": "Fernan Lake Village", "state": "ID", "lat": "47.6726", "lng": "-116.7472"}, {"name": "Plummer", "state": "ID", "lat": "47.3301", "lng": "-116.8849"}, {"name": "Eagle", "state": "ID", "lat": "43.7223", "lng": "-116.3861"}, {"name": "Minidoka", "state": "ID", "lat": "42.7539", "lng": "-113.4901"}, {"name": "Newdale", "state": "ID", "lat": "43.8864", "lng": "-111.6039"}, {"name": "Cottonwood", "state": "ID", "lat": "46.0509", "lng": "-116.3498"}, {"name": "Grand View", "state": "ID", "lat": "42.9840", "lng": "-116.0918"}, {"name": "Crouch", "state": "ID", "lat": "44.1160", "lng": "-115.9728"}, {"name": "Hayden Lake", "state": "ID", "lat": "47.7639", "lng": "-116.7558"}, {"name": "Fairfield", "state": "ID", "lat": "43.3489", "lng": "-114.8006"}, {"name": "Moyie Springs", "state": "ID", "lat": "48.7247", "lng": "-116.1954"}, {"name": "Leadore", "state": "ID", "lat": "44.6801", "lng": "-113.3593"}, {"name": "De Smet", "state": "ID", "lat": "47.1411", "lng": "-116.9113"}, {"name": "Driggs", "state": "ID", "lat": "43.7294", "lng": "-111.1030"}, {"name": "Sandpoint", "state": "ID", "lat": "48.2822", "lng": "-116.5613"}, {"name": "Franklin", "state": "ID", "lat": "42.0124", "lng": "-111.8036"}, {"name": "Potlatch", "state": "ID", "lat": "46.9235", "lng": "-116.8977"}, {"name": "Acequia", "state": "ID", "lat": "42.6688", "lng": "-113.5968"}, {"name": "Parma", "state": "ID", "lat": "43.7864", "lng": "-116.9429"}, {"name": "Grangeville", "state": "ID", "lat": "45.9260", "lng": "-116.1225"}, {"name": "Shelley", "state": "ID", "lat": "43.3795", "lng": "-112.1261"}, {"name": "Glenns Ferry", "state": "ID", "lat": "42.9502", "lng": "-115.3070"}, {"name": "Elk City", "state": "ID", "lat": "45.8266", "lng": "-115.4378"}, {"name": "Hidden Springs", "state": "ID", "lat": "43.7198", "lng": "-116.2512"}, {"name": "Firth", "state": "ID", "lat": "43.3057", "lng": "-112.1834"}, {"name": "St. Charles", "state": "ID", "lat": "42.1124", "lng": "-111.3904"}, {"name": "Basalt", "state": "ID", "lat": "43.3143", "lng": "-112.1650"}, {"name": "Placerville", "state": "ID", "lat": "43.9427", "lng": "-115.9460"}, {"name": "New Plymouth", "state": "ID", "lat": "43.9705", "lng": "-116.8187"}, {"name": "Homedale", "state": "ID", "lat": "43.6154", "lng": "-116.9379"}, {"name": "Eden", "state": "ID", "lat": "42.6053", "lng": "-114.2090"}, {"name": "Hansen", "state": "ID", "lat": "42.5313", "lng": "-114.3012"}, {"name": "Parkline", "state": "ID", "lat": "47.3383", "lng": "-116.6937"}, {"name": "Mackay", "state": "ID", "lat": "43.9120", "lng": "-113.6128"}, {"name": "Hauser", "state": "ID", "lat": "47.7668", "lng": "-117.0132"}, {"name": "Iona", "state": "ID", "lat": "43.5258", "lng": "-111.9308"}, {"name": "Council", "state": "ID", "lat": "44.7329", "lng": "-116.4376"}, {"name": "State Line", "state": "ID", "lat": "47.7052", "lng": "-117.0366"}, {"name": "Burley", "state": "ID", "lat": "42.5379", "lng": "-113.7928"}, {"name": "Dietrich", "state": "ID", "lat": "42.9127", "lng": "-114.2663"}, {"name": "Hailey", "state": "ID", "lat": "43.5141", "lng": "-114.3000"}, {"name": "Arco", "state": "ID", "lat": "43.6316", "lng": "-113.3017"}, {"name": "Irwin", "state": "ID", "lat": "43.3964", "lng": "-111.2720"}, {"name": "Bonners Ferry", "state": "ID", "lat": "48.6928", "lng": "-116.3183"}, {"name": "Cascade", "state": "ID", "lat": "44.5086", "lng": "-116.0425"}, {"name": "Post Falls", "state": "ID", "lat": "47.7203", "lng": "-116.9396"}, {"name": "Malad City", "state": "ID", "lat": "42.1903", "lng": "-112.2500"}, {"name": "Kootenai", "state": "ID", "lat": "48.3118", "lng": "-116.5173"}, {"name": "Buhl", "state": "ID", "lat": "42.5984", "lng": "-114.7596"}, {"name": "Wallace", "state": "ID", "lat": "47.4736", "lng": "-115.9227"}, {"name": "Wilder", "state": "ID", "lat": "43.6781", "lng": "-116.9069"}, {"name": "Oakley", "state": "ID", "lat": "42.2416", "lng": "-113.8824"}, {"name": "Reubens", "state": "ID", "lat": "46.3229", "lng": "-116.5429"}, {"name": "Ketchum", "state": "ID", "lat": "43.6867", "lng": "-114.3730"}, {"name": "Oxford", "state": "ID", "lat": "42.2598", "lng": "-112.0178"}, {"name": "Ferdinand", "state": "ID", "lat": "46.1519", "lng": "-116.3900"}, {"name": "McCall", "state": "ID", "lat": "44.9076", "lng": "-116.1124"}, {"name": "Meridian", "state": "ID", "lat": "43.6112", "lng": "-116.3968"}, {"name": "Castleford", "state": "ID", "lat": "42.5206", "lng": "-114.8719"}, {"name": "Worley", "state": "ID", "lat": "47.4005", "lng": "-116.9193"}, {"name": "Elk River", "state": "ID", "lat": "46.7830", "lng": "-116.1810"}, {"name": "Fruitland", "state": "ID", "lat": "44.0196", "lng": "-116.9222"}, {"name": "Notus", "state": "ID", "lat": "43.7266", "lng": "-116.7998"}, {"name": "Hayden", "state": "ID", "lat": "47.7679", "lng": "-116.8039"}, {"name": "Riggins", "state": "ID", "lat": "45.4203", "lng": "-116.3179"}, {"name": "Mountain Home", "state": "ID", "lat": "43.1325", "lng": "-115.6970"}, {"name": "Pinehurst", "state": "ID", "lat": "47.5364", "lng": "-116.2327"}, {"name": "Atomic City", "state": "ID", "lat": "43.4431", "lng": "-112.8124"}, {"name": "Hamer", "state": "ID", "lat": "43.9219", "lng": "-112.2027"}, {"name": "Kuna", "state": "ID", "lat": "43.4863", "lng": "-116.3982"}, {"name": "Hollister", "state": "ID", "lat": "42.3529", "lng": "-114.5839"}, {"name": "Lewiston", "state": "ID", "lat": "46.3934", "lng": "-116.9934"}, {"name": "Menan", "state": "ID", "lat": "43.7218", "lng": "-111.9925"}, {"name": "Horseshoe Bend", "state": "ID", "lat": "43.9165", "lng": "-116.1997"}, {"name": "Ammon", "state": "ID", "lat": "43.4746", "lng": "-111.9568"}, {"name": "St. Anthony", "state": "ID", "lat": "43.9647", "lng": "-111.6842"}, {"name": "Bennington", "state": "ID", "lat": "42.3823", "lng": "-111.3219"}, {"name": "Midvale", "state": "ID", "lat": "44.4618", "lng": "-116.7435"}, {"name": "Downey", "state": "ID", "lat": "42.4288", "lng": "-112.1233"}, {"name": "Weiser", "state": "ID", "lat": "44.2547", "lng": "-116.9689"}, {"name": "Wendell", "state": "ID", "lat": "42.7745", "lng": "-114.7025"}, {"name": "Moscow", "state": "ID", "lat": "46.7307", "lng": "-116.9986"}, {"name": "Idaho Falls", "state": "ID", "lat": "43.4872", "lng": "-112.0363"}, {"name": "Peck", "state": "ID", "lat": "46.4747", "lng": "-116.4262"}, {"name": "Grace", "state": "ID", "lat": "42.5757", "lng": "-111.7305"}, {"name": "White Bird", "state": "ID", "lat": "45.7622", "lng": "-116.3008"}, {"name": "Princeton", "state": "ID", "lat": "46.9152", "lng": "-116.8316"}, {"name": "Roberts", "state": "ID", "lat": "43.7206", "lng": "-112.1283"}, {"name": "Rockford Bay", "state": "ID", "lat": "47.5087", "lng": "-116.8866"}, {"name": "Payette", "state": "ID", "lat": "44.0789", "lng": "-116.9256"}, {"name": "Stites", "state": "ID", "lat": "46.0924", "lng": "-115.9763"}, {"name": "Emmett", "state": "ID", "lat": "43.8685", "lng": "-116.4890"}, {"name": "Huetter", "state": "ID", "lat": "47.7037", "lng": "-116.8508"}, {"name": "Georgetown", "state": "ID", "lat": "42.4790", "lng": "-111.3639"}, {"name": "Preston", "state": "ID", "lat": "42.0989", "lng": "-111.8800"}, {"name": "Shoshone", "state": "ID", "lat": "42.9369", "lng": "-114.4055"}, {"name": "Arbon Valley", "state": "ID", "lat": "42.8847", "lng": "-112.5942"}, {"name": "Conkling Park", "state": "ID", "lat": "47.3998", "lng": "-116.7704"}, {"name": "Malta", "state": "ID", "lat": "42.3075", "lng": "-113.3693"}, {"name": "Victor", "state": "ID", "lat": "43.6014", "lng": "-111.1107"}, {"name": "Juliaetta", "state": "ID", "lat": "46.5740", "lng": "-116.7096"}, {"name": "East Hope", "state": "ID", "lat": "48.2414", "lng": "-116.2913"}, {"name": "Blackfoot", "state": "ID", "lat": "43.1940", "lng": "-112.3455"}, {"name": "Banks", "state": "ID", "lat": "44.0778", "lng": "-116.1278"}, {"name": "St. Maries", "state": "ID", "lat": "47.3146", "lng": "-116.5722"}, {"name": "Mullan", "state": "ID", "lat": "47.4690", "lng": "-115.7966"}, {"name": "Butte City", "state": "ID", "lat": "43.6070", "lng": "-113.2408"}, {"name": "Dayton", "state": "ID", "lat": "42.1118", "lng": "-111.9779"}, {"name": "Dover", "state": "ID", "lat": "48.2606", "lng": "-116.6098"}, {"name": "Parker", "state": "ID", "lat": "43.9584", "lng": "-111.7584"}, {"name": "Hagerman", "state": "ID", "lat": "42.8163", "lng": "-114.8975"}, {"name": "Marsing", "state": "ID", "lat": "43.5466", "lng": "-116.8094"}, {"name": "Nezperce", "state": "ID", "lat": "46.2339", "lng": "-116.2406"}, {"name": "Bliss", "state": "ID", "lat": "42.9242", "lng": "-114.9479"}, {"name": "Nampa", "state": "ID", "lat": "43.5843", "lng": "-116.5628"}, {"name": "Hope", "state": "ID", "lat": "48.2492", "lng": "-116.3044"}, {"name": "Rockford", "state": "ID", "lat": "43.1892", "lng": "-112.5306"}, {"name": "Heyburn", "state": "ID", "lat": "42.5599", "lng": "-113.7623"}, {"name": "Hazelton", "state": "ID", "lat": "42.5953", "lng": "-114.1365"}, {"name": "Ucon", "state": "ID", "lat": "43.5935", "lng": "-111.9595"}, {"name": "Coeur d'Alene", "state": "ID", "lat": "47.7040", "lng": "-116.7933"}, {"name": "Oldtown", "state": "ID", "lat": "48.1839", "lng": "-117.0206"}, {"name": "Stanley", "state": "ID", "lat": "44.2150", "lng": "-114.9364"}, {"name": "Aberdeen", "state": "ID", "lat": "42.9441", "lng": "-112.8384"}, {"name": "Blanchard", "state": "ID", "lat": "48.0152", "lng": "-116.9928"}, {"name": "Rathdrum", "state": "ID", "lat": "47.7995", "lng": "-116.8908"}, {"name": "Boise", "state": "ID", "lat": "43.6007", "lng": "-116.2312"}, {"name": "Rexburg", "state": "ID", "lat": "43.8222", "lng": "-111.7924"}, {"name": "Mountain Home AFB", "state": "ID", "lat": "43.0490", "lng": "-115.8659"}, {"name": "Clayton", "state": "ID", "lat": "44.2592", "lng": "-114.3998"}, {"name": "Smelterville", "state": "ID", "lat": "47.5426", "lng": "-116.1774"}, {"name": "Mud Lake", "state": "ID", "lat": "43.8430", "lng": "-112.4796"}, {"name": "Caldwell", "state": "ID", "lat": "43.6454", "lng": "-116.6599"}, {"name": "Garden Valley", "state": "ID", "lat": "44.0830", "lng": "-115.9612"}, {"name": "Lowman", "state": "ID", "lat": "44.0785", "lng": "-115.6205"}, {"name": "Kamiah", "state": "ID", "lat": "46.2269", "lng": "-116.0283"}, {"name": "Greenleaf", "state": "ID", "lat": "43.6753", "lng": "-116.8211"}, {"name": "Chubbuck", "state": "ID", "lat": "42.9226", "lng": "-112.4704"}, {"name": "Gooding", "state": "ID", "lat": "42.9373", "lng": "-114.7134"}, {"name": "Richfield", "state": "ID", "lat": "43.0521", "lng": "-114.1555"}, {"name": "Kimberly", "state": "ID", "lat": "42.5338", "lng": "-114.3697"}, {"name": "Bovill", "state": "ID", "lat": "46.8585", "lng": "-116.3935"}, {"name": "Rockland", "state": "ID", "lat": "42.5738", "lng": "-112.8753"}, {"name": "Athol", "state": "ID", "lat": "47.9451", "lng": "-116.7062"}, {"name": "Spirit Lake", "state": "ID", "lat": "47.9660", "lng": "-116.8701"}, {"name": "Lost River", "state": "ID", "lat": "43.7325", "lng": "-113.5579"}, {"name": "Pierce", "state": "ID", "lat": "46.4930", "lng": "-115.7995"}, {"name": "Pocatello", "state": "ID", "lat": "42.8716", "lng": "-112.4652"}, {"name": "Garden City", "state": "ID", "lat": "43.6526", "lng": "-116.2743"}, {"name": "Troy", "state": "ID", "lat": "46.7380", "lng": "-116.7732"}, {"name": "Donnelly", "state": "ID", "lat": "44.7354", "lng": "-116.0789"}, {"name": "Sweetwater", "state": "ID", "lat": "46.3676", "lng": "-116.7975"}, {"name": "Craigmont", "state": "ID", "lat": "46.2422", "lng": "-116.4728"}, {"name": "Sugar City", "state": "ID", "lat": "43.8762", "lng": "-111.7510"}, {"name": "Lapwai", "state": "ID", "lat": "46.4034", "lng": "-116.8041"}, {"name": "Clark Fork", "state": "ID", "lat": "48.1472", "lng": "-116.1768"}, {"name": "Rigby", "state": "ID", "lat": "43.6735", "lng": "-111.9126"}, {"name": "Lewisville", "state": "ID", "lat": "43.6951", "lng": "-112.0131"}, {"name": "Inkom", "state": "ID", "lat": "42.7973", "lng": "-112.2460"}, {"name": "Kooskia", "state": "ID", "lat": "46.1413", "lng": "-115.9766"}, {"name": "Twin Falls", "state": "ID", "lat": "42.5648", "lng": "-114.4617"}, {"name": "Spencer", "state": "ID", "lat": "44.3769", "lng": "-112.1897"}, {"name": "Murtaugh", "state": "ID", "lat": "42.4918", "lng": "-114.1617"}, {"name": "Genesee", "state": "ID", "lat": "46.5516", "lng": "-116.9284"}, {"name": "Bancroft", "state": "ID", "lat": "42.7202", "lng": "-111.8831"}, {"name": "Harrison", "state": "ID", "lat": "47.4674", "lng": "-116.8033"}, {"name": "Paul", "state": "ID", "lat": "42.6052", "lng": "-113.7846"}, {"name": "Wardner", "state": "ID", "lat": "47.5189", "lng": "-116.1357"}, {"name": "Deary", "state": "ID", "lat": "46.8003", "lng": "-116.5572"}, {"name": "Winchester", "state": "ID", "lat": "46.2409", "lng": "-116.6240"}, {"name": "Riverside", "state": "ID", "lat": "43.1965", "lng": "-112.4356"}, {"name": "Lava Hot Springs", "state": "ID", "lat": "42.6198", "lng": "-112.0098"}, {"name": "Weippe", "state": "ID", "lat": "46.3787", "lng": "-115.9396"}, {"name": "Tensed", "state": "ID", "lat": "47.1596", "lng": "-116.9238"}, {"name": "Kellogg", "state": "ID", "lat": "47.5371", "lng": "-116.1420"}, {"name": "Lincoln", "state": "ID", "lat": "43.5178", "lng": "-111.9685"}, {"name": "Sun Valley", "state": "ID", "lat": "43.6837", "lng": "-114.3337"}, {"name": "Culdesac", "state": "ID", "lat": "46.3749", "lng": "-116.6703"}, {"name": "Yellow Pine", "state": "ID", "lat": "44.9623", "lng": "-115.4880"}, {"name": "Star", "state": "ID", "lat": "43.7018", "lng": "-116.4939"}, {"name": "Island Park", "state": "ID", "lat": "44.5289", "lng": "-111.3586"}, {"name": "Salmon", "state": "ID", "lat": "45.1743", "lng": "-113.8948"}, {"name": "Swan Valley", "state": "ID", "lat": "43.4445", "lng": "-111.3287"}, {"name": "Tetonia", "state": "ID", "lat": "43.8147", "lng": "-111.1586"}, {"name": "Cambridge", "state": "ID", "lat": "44.5718", "lng": "-116.6778"}, {"name": "Dubois", "state": "ID", "lat": "44.1727", "lng": "-112.2293"}, {"name": "Clifton", "state": "ID", "lat": "42.1872", "lng": "-112.0046"}, {"name": "Montpelier", "state": "ID", "lat": "42.3260", "lng": "-111.2988"}, {"name": "Carey", "state": "ID", "lat": "43.3101", "lng": "-113.9448"}, {"name": "Middleton", "state": "ID", "lat": "43.7116", "lng": "-116.6153"}, {"name": "Dalton Gardens", "state": "ID", "lat": "47.7328", "lng": "-116.7696"}, {"name": "Bloomington", "state": "ID", "lat": "42.1908", "lng": "-111.4042"}, {"name": "Filer", "state": "ID", "lat": "42.5679", "lng": "-114.6115"}, {"name": "Arimo", "state": "ID", "lat": "42.5598", "lng": "-112.1725"}, {"name": "Murphy", "state": "ID", "lat": "43.2121", "lng": "-116.5485"}, {"name": "Drummond", "state": "ID", "lat": "43.9996", "lng": "-111.3433"}, {"name": "Robie Creek", "state": "ID", "lat": "43.6681", "lng": "-116.0209"}, {"name": "Declo", "state": "ID", "lat": "42.5196", "lng": "-113.6287"}, {"name": "Ririe", "state": "ID", "lat": "43.6325", "lng": "-111.7714"}, {"name": "New Meadows", "state": "ID", "lat": "44.9712", "lng": "-116.2857"}, {"name": "Moore", "state": "ID", "lat": "43.7343", "lng": "-113.3674"}, {"name": "Challis", "state": "ID", "lat": "44.5052", "lng": "-114.2283"}, {"name": "Weston", "state": "ID", "lat": "42.0369", "lng": "-111.9783"}, {"name": "Rupert", "state": "ID", "lat": "42.6189", "lng": "-113.6740"}, {"name": "Fort Hall", "state": "ID", "lat": "43.0145", "lng": "-112.4572"}, {"name": "American Falls", "state": "ID", "lat": "42.7828", "lng": "-112.8542"}, {"name": "Smiths Ferry", "state": "ID", "lat": "44.2989", "lng": "-116.0782"}, {"name": "Bellevue", "state": "ID", "lat": "43.4685", "lng": "-114.2551"}, {"name": "Osburn", "state": "ID", "lat": "47.5055", "lng": "-116.0008"}, {"name": "Idaho City", "state": "ID", "lat": "43.8281", "lng": "-115.8307"}, {"name": "Melba", "state": "ID", "lat": "43.3725", "lng": "-116.5322"}, {"name": "Ashton", "state": "ID", "lat": "44.0734", "lng": "-111.4482"}, {"name": "Warm River", "state": "ID", "lat": "44.1188", "lng": "-111.3200"}]