[{"name": "Trenton", "state": "IL", "lat": "38.6070", "lng": "-89.6844"}, {"name": "Strawn", "state": "IL", "lat": "40.6537", "lng": "-88.3999"}, {"name": "Tilton", "state": "IL", "lat": "40.0941", "lng": "-87.6398"}, {"name": "Bluford", "state": "IL", "lat": "38.3256", "lng": "-88.7366"}, {"name": "Gillespie", "state": "IL", "lat": "39.1258", "lng": "-89.8173"}, {"name": "West York", "state": "IL", "lat": "39.1689", "lng": "-87.6730"}, {"name": "Wenona", "state": "IL", "lat": "41.0486", "lng": "-89.0522"}, {"name": "Paris", "state": "IL", "lat": "39.6148", "lng": "-87.6905"}, {"name": "Mulkeytown", "state": "IL", "lat": "37.9721", "lng": "-89.1111"}, {"name": "St. Peter", "state": "IL", "lat": "38.8676", "lng": "-88.8505"}, {"name": "Cullom", "state": "IL", "lat": "40.8784", "lng": "-88.2696"}, {"name": "Aurora", "state": "IL", "lat": "41.7637", "lng": "-88.2901"}, {"name": "Chrisman", "state": "IL", "lat": "39.8044", "lng": "-87.6752"}, {"name": "Glencoe", "state": "IL", "lat": "42.1347", "lng": "-87.7641"}, {"name": "Twin Grove", "state": "IL", "lat": "40.4857", "lng": "-89.0993"}, {"name": "Mackinaw", "state": "IL", "lat": "40.5340", "lng": "-89.3556"}, {"name": "North Henderson", "state": "IL", "lat": "41.0904", "lng": "-90.4748"}, {"name": "Arlington Heights", "state": "IL", "lat": "42.0956", "lng": "-87.9825"}, {"name": "Olympia Fields", "state": "IL", "lat": "41.5170", "lng": "-87.6924"}, {"name": "Bone Gap", "state": "IL", "lat": "38.4449", "lng": "-87.9975"}, {"name": "Mattoon", "state": "IL", "lat": "39.4774", "lng": "-88.3627"}, {"name": "New Athens", "state": "IL", "lat": "38.3188", "lng": "-89.8743"}, {"name": "Crete", "state": "IL", "lat": "41.4399", "lng": "-87.6231"}, {"name": "Melvin", "state": "IL", "lat": "40.5709", "lng": "-88.2471"}, {"name": "Princeville", "state": "IL", "lat": "40.9350", "lng": "-89.7547"}, {"name": "Panama", "state": "IL", "lat": "39.0290", "lng": "-89.5247"}, {"name": "Liberty", "state": "IL", "lat": "39.8842", "lng": "-91.1084"}, {"name": "Sheffield", "state": "IL", "lat": "41.3573", "lng": "-89.7372"}, {"name": "Hanaford", "state": "IL", "lat": "37.9579", "lng": "-88.8356"}, {"name": "Apple Canyon Lake", "state": "IL", "lat": "42.4302", "lng": "-90.1642"}, {"name": "East Peoria", "state": "IL", "lat": "40.6734", "lng": "-89.5419"}, {"name": "South Pekin", "state": "IL", "lat": "40.4959", "lng": "-89.6525"}, {"name": "Loda", "state": "IL", "lat": "40.5162", "lng": "-88.0759"}, {"name": "Rockton", "state": "IL", "lat": "42.4500", "lng": "-89.0631"}, {"name": "Dongola", "state": "IL", "lat": "37.3599", "lng": "-89.1654"}, {"name": "Bulpitt", "state": "IL", "lat": "39.5919", "lng": "-89.4258"}, {"name": "Cherry Valley", "state": "IL", "lat": "42.2221", "lng": "-88.9716"}, {"name": "Pistakee Highlands", "state": "IL", "lat": "42.4028", "lng": "-88.2117"}, {"name": "Bonfield", "state": "IL", "lat": "41.1450", "lng": "-88.0539"}, {"name": "Round Lake Beach", "state": "IL", "lat": "42.3790", "lng": "-88.0811"}, {"name": "Eddyville", "state": "IL", "lat": "37.5005", "lng": "-88.5847"}, {"name": "Mitchell", "state": "IL", "lat": "38.7631", "lng": "-90.0816"}, {"name": "Summerfield", "state": "IL", "lat": "38.5955", "lng": "-89.7497"}, {"name": "Buckley", "state": "IL", "lat": "40.5973", "lng": "-88.0374"}, {"name": "Exeter", "state": "IL", "lat": "39.7191", "lng": "-90.4961"}, {"name": "Northbrook", "state": "IL", "lat": "42.1292", "lng": "-87.8353"}, {"name": "Moweaqua", "state": "IL", "lat": "39.6265", "lng": "-89.0189"}, {"name": "Highwood", "state": "IL", "lat": "42.2060", "lng": "-87.8129"}, {"name": "Nora", "state": "IL", "lat": "42.4565", "lng": "-89.9459"}, {"name": "Delavan", "state": "IL", "lat": "40.3711", "lng": "-89.5459"}, {"name": "Buncombe", "state": "IL", "lat": "37.4715", "lng": "-88.9746"}, {"name": "Odell", "state": "IL", "lat": "41.0021", "lng": "-88.5224"}, {"name": "Robbins", "state": "IL", "lat": "41.6431", "lng": "-87.7080"}, {"name": "Berlin", "state": "IL", "lat": "39.7577", "lng": "-89.9026"}, {"name": "Willowbrook", "state": "IL", "lat": "41.7635", "lng": "-87.9456"}, {"name": "Streator", "state": "IL", "lat": "41.1242", "lng": "-88.8295"}, {"name": "Waterloo", "state": "IL", "lat": "38.3402", "lng": "-90.1538"}, {"name": "Rockford", "state": "IL", "lat": "42.2598", "lng": "-89.0641"}, {"name": "Belknap", "state": "IL", "lat": "37.3224", "lng": "-88.9405"}, {"name": "Flora", "state": "IL", "lat": "38.6688", "lng": "-88.4758"}, {"name": "Norwood", "state": "IL", "lat": "40.7075", "lng": "-89.7005"}, {"name": "Wauconda", "state": "IL", "lat": "42.2748", "lng": "-88.1359"}, {"name": "Rio", "state": "IL", "lat": "41.1093", "lng": "-90.3988"}, {"name": "Centralia", "state": "IL", "lat": "38.5224", "lng": "-89.1233"}, {"name": "Worth", "state": "IL", "lat": "41.6877", "lng": "-87.7916"}, {"name": "Henry", "state": "IL", "lat": "41.1173", "lng": "-89.3567"}, {"name": "Channahon", "state": "IL", "lat": "41.4211", "lng": "-88.2593"}, {"name": "Freeman Spur", "state": "IL", "lat": "37.8611", "lng": "-88.9993"}, {"name": "Waverly", "state": "IL", "lat": "39.5925", "lng": "-89.9528"}, {"name": "Danvers", "state": "IL", "lat": "40.5297", "lng": "-89.1753"}, {"name": "Manteno", "state": "IL", "lat": "41.2471", "lng": "-87.8457"}, {"name": "Orion", "state": "IL", "lat": "41.3515", "lng": "-90.3767"}, {"name": "Amboy", "state": "IL", "lat": "41.7290", "lng": "-89.3679"}, {"name": "Belle Rive", "state": "IL", "lat": "38.2317", "lng": "-88.7405"}, {"name": "Oak Lawn", "state": "IL", "lat": "41.7139", "lng": "-87.7528"}, {"name": "Lincolnshire", "state": "IL", "lat": "42.1957", "lng": "-87.9182"}, {"name": "Rose Hill", "state": "IL", "lat": "39.1043", "lng": "-88.1499"}, {"name": "Big Rock", "state": "IL", "lat": "41.7669", "lng": "-88.5264"}, {"name": "Louisville", "state": "IL", "lat": "38.7696", "lng": "-88.5068"}, {"name": "Granville", "state": "IL", "lat": "41.2637", "lng": "-89.2300"}, {"name": "Winslow", "state": "IL", "lat": "42.4929", "lng": "-89.7949"}, {"name": "Hillsboro", "state": "IL", "lat": "39.1670", "lng": "-89.4735"}, {"name": "Raleigh", "state": "IL", "lat": "37.8262", "lng": "-88.5304"}, {"name": "Elizabeth", "state": "IL", "lat": "42.3164", "lng": "-90.2206"}, {"name": "Walshville", "state": "IL", "lat": "39.0689", "lng": "-89.6189"}, {"name": "La Rose", "state": "IL", "lat": "40.9787", "lng": "-89.2350"}, {"name": "Nauvoo", "state": "IL", "lat": "40.5457", "lng": "-91.3829"}, {"name": "Nokomis", "state": "IL", "lat": "39.3001", "lng": "-89.2852"}, {"name": "Norris City", "state": "IL", "lat": "37.9789", "lng": "-88.3279"}, {"name": "Alorton", "state": "IL", "lat": "38.5850", "lng": "-90.1139"}, {"name": "Round Lake Heights", "state": "IL", "lat": "42.3855", "lng": "-88.1037"}, {"name": "Toluca", "state": "IL", "lat": "41.0044", "lng": "-89.1339"}, {"name": "Northfield", "state": "IL", "lat": "42.1026", "lng": "-87.7791"}, {"name": "West Frankfort", "state": "IL", "lat": "37.8997", "lng": "-88.9301"}, {"name": "Modesto", "state": "IL", "lat": "39.4789", "lng": "-89.9803"}, {"name": "Fidelity", "state": "IL", "lat": "39.1546", "lng": "-90.1642"}, {"name": "East Alton", "state": "IL", "lat": "38.8840", "lng": "-90.1073"}, {"name": "Bingham", "state": "IL", "lat": "39.1122", "lng": "-89.2137"}, {"name": "West Union", "state": "IL", "lat": "39.2150", "lng": "-87.6657"}, {"name": "Downs", "state": "IL", "lat": "40.3998", "lng": "-88.8904"}, {"name": "Rantoul", "state": "IL", "lat": "40.3031", "lng": "-88.1549"}, {"name": "Loraine", "state": "IL", "lat": "40.1525", "lng": "-91.2216"}, {"name": "Alexis", "state": "IL", "lat": "41.0629", "lng": "-90.5555"}, {"name": "Concord", "state": "IL", "lat": "39.8154", "lng": "-90.3698"}, {"name": "Forest Lake", "state": "IL", "lat": "42.2103", "lng": "-88.0532"}, {"name": "Fairmont", "state": "IL", "lat": "41.5614", "lng": "-88.0587"}, {"name": "Elwood", "state": "IL", "lat": "41.4119", "lng": "-88.1346"}, {"name": "Galena", "state": "IL", "lat": "42.4218", "lng": "-90.4293"}, {"name": "Burnham", "state": "IL", "lat": "41.6376", "lng": "-87.5447"}, {"name": "New Berlin", "state": "IL", "lat": "39.7259", "lng": "-89.9134"}, {"name": "Le Roy", "state": "IL", "lat": "40.3395", "lng": "-88.7629"}, {"name": "Urbana", "state": "IL", "lat": "40.1106", "lng": "-88.1972"}, {"name": "Onarga", "state": "IL", "lat": "40.7153", "lng": "-88.0107"}, {"name": "Danforth", "state": "IL", "lat": "40.8218", "lng": "-87.9778"}, {"name": "Mason", "state": "IL", "lat": "38.9537", "lng": "-88.6259"}, {"name": "Wapella", "state": "IL", "lat": "40.2218", "lng": "-88.9612"}, {"name": "Smithfield", "state": "IL", "lat": "40.4744", "lng": "-90.2949"}, {"name": "North Aurora", "state": "IL", "lat": "41.8083", "lng": "-88.3413"}, {"name": "Standard", "state": "IL", "lat": "41.2559", "lng": "-89.1814"}, {"name": "Hinsdale", "state": "IL", "lat": "41.8005", "lng": "-87.9273"}, {"name": "Saunemin", "state": "IL", "lat": "40.8908", "lng": "-88.4051"}, {"name": "Pearl City", "state": "IL", "lat": "42.2668", "lng": "-89.8271"}, {"name": "Lyndon", "state": "IL", "lat": "41.7173", "lng": "-89.9238"}, {"name": "Country Club Hills", "state": "IL", "lat": "41.5638", "lng": "-87.7250"}, {"name": "Hickory Hills", "state": "IL", "lat": "41.7248", "lng": "-87.8281"}, {"name": "Bement", "state": "IL", "lat": "39.9229", "lng": "-88.5724"}, {"name": "Steward", "state": "IL", "lat": "41.8493", "lng": "-89.0150"}, {"name": "Valmeyer", "state": "IL", "lat": "38.3064", "lng": "-90.2979"}, {"name": "St. Anne", "state": "IL", "lat": "41.0233", "lng": "-87.7184"}, {"name": "Earlville", "state": "IL", "lat": "41.5880", "lng": "-88.9229"}, {"name": "Carlyle", "state": "IL", "lat": "38.6218", "lng": "-89.3733"}, {"name": "Hettick", "state": "IL", "lat": "39.3557", "lng": "-90.0372"}, {"name": "Leaf River", "state": "IL", "lat": "42.1236", "lng": "-89.4040"}, {"name": "Danville", "state": "IL", "lat": "40.1423", "lng": "-87.6114"}, {"name": "Geneva", "state": "IL", "lat": "41.8833", "lng": "-88.3242"}, {"name": "Donnellson", "state": "IL", "lat": "39.0306", "lng": "-89.4745"}, {"name": "Albers", "state": "IL", "lat": "38.5452", "lng": "-89.6143"}, {"name": "Villa Park", "state": "IL", "lat": "41.8864", "lng": "-87.9779"}, {"name": "St. Johns", "state": "IL", "lat": "38.0333", "lng": "-89.2400"}, {"name": "Candlewick Lake", "state": "IL", "lat": "42.3524", "lng": "-88.8693"}, {"name": "Coal Valley", "state": "IL", "lat": "41.4416", "lng": "-90.4464"}, {"name": "Iuka", "state": "IL", "lat": "38.6183", "lng": "-88.7876"}, {"name": "Princeton", "state": "IL", "lat": "41.3809", "lng": "-89.4648"}, {"name": "Bethany", "state": "IL", "lat": "39.6441", "lng": "-88.7412"}, {"name": "Long Lake", "state": "IL", "lat": "42.3765", "lng": "-88.1265"}, {"name": "Wheaton", "state": "IL", "lat": "41.8561", "lng": "-88.1083"}, {"name": "Burnt Prairie", "state": "IL", "lat": "38.2508", "lng": "-88.2586"}, {"name": "Bartonville", "state": "IL", "lat": "40.6397", "lng": "-89.6608"}, {"name": "Willow Hill", "state": "IL", "lat": "38.9958", "lng": "-88.0218"}, {"name": "Thornton", "state": "IL", "lat": "41.5711", "lng": "-87.6187"}, {"name": "Belvidere", "state": "IL", "lat": "42.2544", "lng": "-88.8649"}, {"name": "Hammond", "state": "IL", "lat": "39.7994", "lng": "-88.5921"}, {"name": "Victoria", "state": "IL", "lat": "41.0334", "lng": "-90.0952"}, {"name": "Piper City", "state": "IL", "lat": "40.7562", "lng": "-88.1890"}, {"name": "Bradford", "state": "IL", "lat": "41.1773", "lng": "-89.6582"}, {"name": "Lincolnwood", "state": "IL", "lat": "42.0054", "lng": "-87.7329"}, {"name": "Glendale Heights", "state": "IL", "lat": "41.9196", "lng": "-88.0785"}, {"name": "Dover", "state": "IL", "lat": "41.4340", "lng": "-89.3959"}, {"name": "Buffalo Grove", "state": "IL", "lat": "42.1674", "lng": "-87.9616"}, {"name": "Bonnie", "state": "IL", "lat": "38.2030", "lng": "-88.9068"}, {"name": "Granite City", "state": "IL", "lat": "38.7295", "lng": "-90.1263"}, {"name": "Rushville", "state": "IL", "lat": "40.1199", "lng": "-90.5666"}, {"name": "Dupo", "state": "IL", "lat": "38.5144", "lng": "-90.2167"}, {"name": "Spillertown", "state": "IL", "lat": "37.7641", "lng": "-88.9198"}, {"name": "Elburn", "state": "IL", "lat": "41.8838", "lng": "-88.4615"}, {"name": "Red Bud", "state": "IL", "lat": "38.2096", "lng": "-89.9998"}, {"name": "Bellflower", "state": "IL", "lat": "40.3403", "lng": "-88.5265"}, {"name": "Bush", "state": "IL", "lat": "37.8427", "lng": "-89.1295"}, {"name": "Greenwood", "state": "IL", "lat": "42.3915", "lng": "-88.3894"}, {"name": "Macon", "state": "IL", "lat": "39.7117", "lng": "-88.9965"}, {"name": "Deerfield", "state": "IL", "lat": "42.1654", "lng": "-87.8516"}, {"name": "Champaign", "state": "IL", "lat": "40.1144", "lng": "-88.2735"}, {"name": "Watson", "state": "IL", "lat": "39.0262", "lng": "-88.5683"}, {"name": "Christopher", "state": "IL", "lat": "37.9706", "lng": "-89.0530"}, {"name": "Cantrall", "state": "IL", "lat": "39.9353", "lng": "-89.6790"}, {"name": "Tamms", "state": "IL", "lat": "37.2416", "lng": "-89.2714"}, {"name": "Aviston", "state": "IL", "lat": "38.6163", "lng": "-89.6088"}, {"name": "Long Grove", "state": "IL", "lat": "42.1968", "lng": "-88.0057"}, {"name": "Lindenhurst", "state": "IL", "lat": "42.4175", "lng": "-88.0257"}, {"name": "Franklin Park", "state": "IL", "lat": "41.9360", "lng": "-87.8794"}, {"name": "Clay City", "state": "IL", "lat": "38.6858", "lng": "-88.3486"}, {"name": "North Chicago", "state": "IL", "lat": "42.3172", "lng": "-87.8596"}, {"name": "Rockdale", "state": "IL", "lat": "41.5058", "lng": "-88.1183"}, {"name": "Heyworth", "state": "IL", "lat": "40.3138", "lng": "-88.9928"}, {"name": "Winfield", "state": "IL", "lat": "41.8776", "lng": "-88.1506"}, {"name": "Glasgow", "state": "IL", "lat": "39.5487", "lng": "-90.4800"}, {"name": "Lakemoor", "state": "IL", "lat": "42.3396", "lng": "-88.2028"}, {"name": "Vernon", "state": "IL", "lat": "38.8014", "lng": "-89.0896"}, {"name": "Harvard", "state": "IL", "lat": "42.4297", "lng": "-88.6212"}, {"name": "New Burnside", "state": "IL", "lat": "37.5786", "lng": "-88.7726"}, {"name": "Bunker Hill", "state": "IL", "lat": "39.0416", "lng": "-89.9512"}, {"name": "Third Lake", "state": "IL", "lat": "42.3708", "lng": "-88.0122"}, {"name": "Caledonia", "state": "IL", "lat": "42.3686", "lng": "-88.8939"}, {"name": "Flat Rock", "state": "IL", "lat": "38.9037", "lng": "-87.6734"}, {"name": "Waterman", "state": "IL", "lat": "41.7683", "lng": "-88.7659"}, {"name": "Niantic", "state": "IL", "lat": "39.8541", "lng": "-89.1652"}, {"name": "West Dundee", "state": "IL", "lat": "42.0984", "lng": "-88.3072"}, {"name": "Compton", "state": "IL", "lat": "41.6942", "lng": "-89.0863"}, {"name": "Hillsdale", "state": "IL", "lat": "41.6108", "lng": "-90.1751"}, {"name": "Macedonia", "state": "IL", "lat": "38.0525", "lng": "-88.7054"}, {"name": "Cornell", "state": "IL", "lat": "40.9920", "lng": "-88.7297"}, {"name": "Elk Grove Village", "state": "IL", "lat": "42.0061", "lng": "-87.9929"}, {"name": "Fillmore", "state": "IL", "lat": "39.1154", "lng": "-89.2785"}, {"name": "Buckner", "state": "IL", "lat": "37.9807", "lng": "-89.0151"}, {"name": "Sullivan", "state": "IL", "lat": "39.5954", "lng": "-88.6085"}, {"name": "Royal", "state": "IL", "lat": "40.1932", "lng": "-87.9721"}, {"name": "Yorkville", "state": "IL", "lat": "41.6561", "lng": "-88.4508"}, {"name": "Woodlawn", "state": "IL", "lat": "38.3282", "lng": "-89.0345"}, {"name": "Woodstock", "state": "IL", "lat": "42.3103", "lng": "-88.4357"}, {"name": "Owaneco", "state": "IL", "lat": "39.4815", "lng": "-89.1949"}, {"name": "Naperville", "state": "IL", "lat": "41.7483", "lng": "-88.1657"}, {"name": "Johnsonville", "state": "IL", "lat": "38.5208", "lng": "-88.5382"}, {"name": "Union", "state": "IL", "lat": "42.2315", "lng": "-88.5447"}, {"name": "Rockbridge", "state": "IL", "lat": "39.2693", "lng": "-90.2066"}, {"name": "Coal City", "state": "IL", "lat": "41.2763", "lng": "-88.2805"}, {"name": "Ivesdale", "state": "IL", "lat": "39.9458", "lng": "-88.4558"}, {"name": "Junction City", "state": "IL", "lat": "38.5773", "lng": "-89.1259"}, {"name": "Hanna City", "state": "IL", "lat": "40.6936", "lng": "-89.8064"}, {"name": "Du Bois", "state": "IL", "lat": "38.2214", "lng": "-89.2127"}, {"name": "Ludlow", "state": "IL", "lat": "40.3866", "lng": "-88.1259"}, {"name": "Oak Brook", "state": "IL", "lat": "41.8372", "lng": "-87.9512"}, {"name": "Irving", "state": "IL", "lat": "39.2054", "lng": "-89.4056"}, {"name": "St. Rose", "state": "IL", "lat": "38.6826", "lng": "-89.5536"}, {"name": "North Riverside", "state": "IL", "lat": "41.8461", "lng": "-87.8263"}, {"name": "Camp Point", "state": "IL", "lat": "40.0384", "lng": "-91.0666"}, {"name": "Sheridan", "state": "IL", "lat": "41.5285", "lng": "-88.6790"}, {"name": "Maryville", "state": "IL", "lat": "38.7261", "lng": "-89.9645"}, {"name": "Benld", "state": "IL", "lat": "39.0930", "lng": "-89.8023"}, {"name": "Westervelt", "state": "IL", "lat": "39.4790", "lng": "-88.8614"}, {"name": "Mundelein", "state": "IL", "lat": "42.2692", "lng": "-88.0101"}, {"name": "Medora", "state": "IL", "lat": "39.1765", "lng": "-90.1414"}, {"name": "Anchor", "state": "IL", "lat": "40.5683", "lng": "-88.5383"}, {"name": "Savanna", "state": "IL", "lat": "42.0904", "lng": "-90.1396"}, {"name": "Papineau", "state": "IL", "lat": "40.9673", "lng": "-87.7161"}, {"name": "Oswego", "state": "IL", "lat": "41.6834", "lng": "-88.3372"}, {"name": "Shabbona", "state": "IL", "lat": "41.7655", "lng": "-88.8848"}, {"name": "Mount Clare", "state": "IL", "lat": "39.1002", "lng": "-89.8254"}, {"name": "Pierron", "state": "IL", "lat": "38.7772", "lng": "-89.5645"}, {"name": "Elliott", "state": "IL", "lat": "40.4661", "lng": "-88.2769"}, {"name": "Warsaw", "state": "IL", "lat": "40.3509", "lng": "-91.4277"}, {"name": "Mount Carroll", "state": "IL", "lat": "42.0947", "lng": "-89.9769"}, {"name": "Melrose Park", "state": "IL", "lat": "41.9029", "lng": "-87.8642"}, {"name": "Palos Heights", "state": "IL", "lat": "41.6637", "lng": "-87.7959"}, {"name": "Pontiac", "state": "IL", "lat": "40.8881", "lng": "-88.6414"}, {"name": "Tinley Park", "state": "IL", "lat": "41.5670", "lng": "-87.8050"}, {"name": "Greenview", "state": "IL", "lat": "40.0850", "lng": "-89.7407"}, {"name": "Vermont", "state": "IL", "lat": "40.2957", "lng": "-90.4290"}, {"name": "Edinburg", "state": "IL", "lat": "39.6579", "lng": "-89.3904"}, {"name": "Cahokia", "state": "IL", "lat": "38.5649", "lng": "-90.1792"}, {"name": "El Paso", "state": "IL", "lat": "40.7406", "lng": "-89.0181"}, {"name": "Rome", "state": "IL", "lat": "40.8753", "lng": "-89.5128"}, {"name": "Merrionette Park", "state": "IL", "lat": "41.6812", "lng": "-87.7012"}, {"name": "Riverdale", "state": "IL", "lat": "41.6440", "lng": "-87.6366"}, {"name": "Lake Barrington", "state": "IL", "lat": "42.2121", "lng": "-88.1684"}, {"name": "McLean", "state": "IL", "lat": "40.3157", "lng": "-89.1704"}, {"name": "Golden", "state": "IL", "lat": "40.1104", "lng": "-91.0193"}, {"name": "Marquette Heights", "state": "IL", "lat": "40.6183", "lng": "-89.6049"}, {"name": "Newton", "state": "IL", "lat": "38.9872", "lng": "-88.1644"}, {"name": "Kampsville", "state": "IL", "lat": "39.2971", "lng": "-90.6127"}, {"name": "Kell", "state": "IL", "lat": "38.4913", "lng": "-88.9033"}, {"name": "Cherry", "state": "IL", "lat": "41.4283", "lng": "-89.2137"}, {"name": "Evanston", "state": "IL", "lat": "42.0463", "lng": "-87.6942"}, {"name": "Altamont", "state": "IL", "lat": "39.0570", "lng": "-88.7474"}, {"name": "Cortland", "state": "IL", "lat": "41.9255", "lng": "-88.6795"}, {"name": "Oakdale", "state": "IL", "lat": "38.2649", "lng": "-89.5035"}, {"name": "Posen", "state": "IL", "lat": "41.6291", "lng": "-87.6858"}, {"name": "Mounds", "state": "IL", "lat": "37.1145", "lng": "-89.2024"}, {"name": "Creve Coeur", "state": "IL", "lat": "40.6422", "lng": "-89.5986"}, {"name": "Beecher", "state": "IL", "lat": "41.3504", "lng": "-87.6171"}, {"name": "McCullom Lake", "state": "IL", "lat": "42.3687", "lng": "-88.2967"}, {"name": "South Wilmington", "state": "IL", "lat": "41.1744", "lng": "-88.2813"}, {"name": "Iroquois", "state": "IL", "lat": "40.8286", "lng": "-87.5844"}, {"name": "Peotone", "state": "IL", "lat": "41.3312", "lng": "-87.7937"}, {"name": "Blue Mound", "state": "IL", "lat": "39.7005", "lng": "-89.1185"}, {"name": "Addieville", "state": "IL", "lat": "38.3913", "lng": "-89.4865"}, {"name": "Chenoa", "state": "IL", "lat": "40.7390", "lng": "-88.7256"}, {"name": "Indianola", "state": "IL", "lat": "39.9270", "lng": "-87.7403"}, {"name": "New Haven", "state": "IL", "lat": "37.9025", "lng": "-88.1279"}, {"name": "Verona", "state": "IL", "lat": "41.2157", "lng": "-88.5049"}, {"name": "Marseilles", "state": "IL", "lat": "41.3099", "lng": "-88.6850"}, {"name": "Columbus", "state": "IL", "lat": "39.9882", "lng": "-91.1456"}, {"name": "Herrin", "state": "IL", "lat": "37.7984", "lng": "-89.0304"}, {"name": "Wood River", "state": "IL", "lat": "38.8632", "lng": "-90.0774"}, {"name": "Lynnville", "state": "IL", "lat": "39.6854", "lng": "-90.3458"}, {"name": "Rentchler", "state": "IL", "lat": "38.4918", "lng": "-89.8693"}, {"name": "Paw Paw", "state": "IL", "lat": "41.6876", "lng": "-88.9810"}, {"name": "Burbank", "state": "IL", "lat": "41.7444", "lng": "-87.7686"}, {"name": "St. Jacob", "state": "IL", "lat": "38.7198", "lng": "-89.7677"}, {"name": "Marshall", "state": "IL", "lat": "39.3988", "lng": "-87.6901"}, {"name": "Bath", "state": "IL", "lat": "40.1906", "lng": "-90.1425"}, {"name": "South Roxana", "state": "IL", "lat": "38.8120", "lng": "-90.0611"}, {"name": "Vergennes", "state": "IL", "lat": "37.9013", "lng": "-89.3398"}, {"name": "Broadwell", "state": "IL", "lat": "40.0669", "lng": "-89.4429"}, {"name": "Virgil", "state": "IL", "lat": "41.9555", "lng": "-88.5292"}, {"name": "Monroe Center", "state": "IL", "lat": "42.1005", "lng": "-88.9944"}, {"name": "Crestwood", "state": "IL", "lat": "41.6454", "lng": "-87.7397"}, {"name": "Bloomington", "state": "IL", "lat": "40.4757", "lng": "-88.9703"}, {"name": "Smithboro", "state": "IL", "lat": "38.8945", "lng": "-89.3399"}, {"name": "Farina", "state": "IL", "lat": "38.8301", "lng": "-88.7797"}, {"name": "Lakewood Shores", "state": "IL", "lat": "41.2713", "lng": "-88.1361"}, {"name": "Buckingham", "state": "IL", "lat": "41.0470", "lng": "-88.1750"}, {"name": "Weldon", "state": "IL", "lat": "40.1217", "lng": "-88.7497"}, {"name": "Maywood", "state": "IL", "lat": "41.8798", "lng": "-87.8442"}, {"name": "Chemung", "state": "IL", "lat": "42.4162", "lng": "-88.6642"}, {"name": "Shipman", "state": "IL", "lat": "39.1203", "lng": "-90.0452"}, {"name": "Tampico", "state": "IL", "lat": "41.6306", "lng": "-89.7852"}, {"name": "Troy Grove", "state": "IL", "lat": "41.4657", "lng": "-89.0815"}, {"name": "Waynesville", "state": "IL", "lat": "40.2413", "lng": "-89.1245"}, {"name": "Plymouth", "state": "IL", "lat": "40.2921", "lng": "-90.9163"}, {"name": "Sparland", "state": "IL", "lat": "41.0294", "lng": "-89.4410"}, {"name": "Bull Valley", "state": "IL", "lat": "42.3223", "lng": "-88.3634"}, {"name": "Rosiclare", "state": "IL", "lat": "37.4239", "lng": "-88.3501"}, {"name": "Sidell", "state": "IL", "lat": "39.9097", "lng": "-87.8236"}, {"name": "Highland Park", "state": "IL", "lat": "42.1823", "lng": "-87.8105"}, {"name": "Seneca", "state": "IL", "lat": "41.3210", "lng": "-88.5880"}, {"name": "Roseville", "state": "IL", "lat": "40.7308", "lng": "-90.6639"}, {"name": "Hillview", "state": "IL", "lat": "39.4496", "lng": "-90.5387"}, {"name": "Trout Valley", "state": "IL", "lat": "42.1978", "lng": "-88.2537"}, {"name": "Altona", "state": "IL", "lat": "41.1150", "lng": "-90.1648"}, {"name": "Clarendon Hills", "state": "IL", "lat": "41.7980", "lng": "-87.9569"}, {"name": "Hopkins Park", "state": "IL", "lat": "41.0689", "lng": "-87.6064"}, {"name": "Calumet City", "state": "IL", "lat": "41.6134", "lng": "-87.5505"}, {"name": "San Jose", "state": "IL", "lat": "40.3051", "lng": "-89.6048"}, {"name": "Cambria", "state": "IL", "lat": "37.7800", "lng": "-89.1189"}, {"name": "Biggsville", "state": "IL", "lat": "40.8539", "lng": "-90.8621"}, {"name": "Ogden", "state": "IL", "lat": "40.1150", "lng": "-87.9563"}, {"name": "Oakwood Hills", "state": "IL", "lat": "42.2478", "lng": "-88.2393"}, {"name": "Ottawa", "state": "IL", "lat": "41.3532", "lng": "-88.8307"}, {"name": "Deer Creek", "state": "IL", "lat": "40.6291", "lng": "-89.3315"}, {"name": "Time", "state": "IL", "lat": "39.5612", "lng": "-90.7234"}, {"name": "Carlock", "state": "IL", "lat": "40.5835", "lng": "-89.1287"}, {"name": "Schiller Park", "state": "IL", "lat": "41.9586", "lng": "-87.8693"}, {"name": "Murrayville", "state": "IL", "lat": "39.5820", "lng": "-90.2517"}, {"name": "Oglesby", "state": "IL", "lat": "41.2960", "lng": "-89.0693"}, {"name": "Sailor Springs", "state": "IL", "lat": "38.7645", "lng": "-88.3602"}, {"name": "Channel Lake", "state": "IL", "lat": "42.4831", "lng": "-88.1491"}, {"name": "Vermilion", "state": "IL", "lat": "39.5800", "lng": "-87.5877"}, {"name": "Marion", "state": "IL", "lat": "37.7171", "lng": "-88.9275"}, {"name": "Roanoke", "state": "IL", "lat": "40.7969", "lng": "-89.2023"}, {"name": "Venice", "state": "IL", "lat": "38.6719", "lng": "-90.1689"}, {"name": "Marissa", "state": "IL", "lat": "38.2501", "lng": "-89.7746"}, {"name": "Fults", "state": "IL", "lat": "38.1644", "lng": "-90.2129"}, {"name": "Eagarville", "state": "IL", "lat": "39.1121", "lng": "-89.7832"}, {"name": "Burlington", "state": "IL", "lat": "42.0415", "lng": "-88.5511"}, {"name": "Mendon", "state": "IL", "lat": "40.0892", "lng": "-91.2858"}, {"name": "London Mills", "state": "IL", "lat": "40.7106", "lng": "-90.2661"}, {"name": "Hume", "state": "IL", "lat": "39.7985", "lng": "-87.8693"}, {"name": "Cisne", "state": "IL", "lat": "38.5141", "lng": "-88.4371"}, {"name": "Bluffs", "state": "IL", "lat": "39.7494", "lng": "-90.5352"}, {"name": "Saybrook", "state": "IL", "lat": "40.4286", "lng": "-88.5260"}, {"name": "Lake Forest", "state": "IL", "lat": "42.2380", "lng": "-87.8596"}, {"name": "River Grove", "state": "IL", "lat": "41.9243", "lng": "-87.8379"}, {"name": "Pesotum", "state": "IL", "lat": "39.9129", "lng": "-88.2744"}, {"name": "Dixmoor", "state": "IL", "lat": "41.6330", "lng": "-87.6672"}, {"name": "Payson", "state": "IL", "lat": "39.8169", "lng": "-91.2443"}, {"name": "Dix", "state": "IL", "lat": "38.4431", "lng": "-88.9423"}, {"name": "Warrensburg", "state": "IL", "lat": "39.9320", "lng": "-89.0628"}, {"name": "Galva", "state": "IL", "lat": "41.1689", "lng": "-90.0375"}, {"name": "Yale", "state": "IL", "lat": "39.1203", "lng": "-88.0246"}, {"name": "Alsey", "state": "IL", "lat": "39.5593", "lng": "-90.4329"}, {"name": "Beason", "state": "IL", "lat": "40.1423", "lng": "-89.1951"}, {"name": "Villa Grove", "state": "IL", "lat": "39.8644", "lng": "-88.1600"}, {"name": "Lacon", "state": "IL", "lat": "41.0228", "lng": "-89.4061"}, {"name": "Prospect Heights", "state": "IL", "lat": "42.1039", "lng": "-87.9267"}, {"name": "Allenville", "state": "IL", "lat": "39.5585", "lng": "-88.5383"}, {"name": "Tremont", "state": "IL", "lat": "40.5248", "lng": "-89.4906"}, {"name": "Easton", "state": "IL", "lat": "40.2320", "lng": "-89.8412"}, {"name": "Benson", "state": "IL", "lat": "40.8505", "lng": "-89.1211"}, {"name": "Rosemont", "state": "IL", "lat": "41.9890", "lng": "-87.8717"}, {"name": "Edwardsville", "state": "IL", "lat": "38.7922", "lng": "-89.9881"}, {"name": "Franklin", "state": "IL", "lat": "39.6205", "lng": "-90.0477"}, {"name": "Paxton", "state": "IL", "lat": "40.4563", "lng": "-88.1021"}, {"name": "Chesterfield", "state": "IL", "lat": "39.2566", "lng": "-90.0668"}, {"name": "Williamsfield", "state": "IL", "lat": "40.9264", "lng": "-90.0182"}, {"name": "Sorento", "state": "IL", "lat": "39.0008", "lng": "-89.5748"}, {"name": "Fairmount", "state": "IL", "lat": "40.0456", "lng": "-87.8293"}, {"name": "Stockton", "state": "IL", "lat": "42.3526", "lng": "-90.0019"}, {"name": "Elmwood Park", "state": "IL", "lat": "41.9225", "lng": "-87.8163"}, {"name": "Mascoutah", "state": "IL", "lat": "38.5191", "lng": "-89.8045"}, {"name": "Northlake", "state": "IL", "lat": "41.9143", "lng": "-87.9054"}, {"name": "Chapin", "state": "IL", "lat": "39.7670", "lng": "-90.4027"}, {"name": "Athens", "state": "IL", "lat": "39.9619", "lng": "-89.7216"}, {"name": "Decatur", "state": "IL", "lat": "39.8556", "lng": "-88.9337"}, {"name": "Breese", "state": "IL", "lat": "38.6138", "lng": "-89.5231"}, {"name": "Goodfield", "state": "IL", "lat": "40.6251", "lng": "-89.2694"}, {"name": "Peru", "state": "IL", "lat": "41.3490", "lng": "-89.1368"}, {"name": "Milford", "state": "IL", "lat": "40.6274", "lng": "-87.6962"}, {"name": "Lake in the Hills", "state": "IL", "lat": "42.1913", "lng": "-88.3478"}, {"name": "Oregon", "state": "IL", "lat": "42.0132", "lng": "-89.3356"}, {"name": "Casey", "state": "IL", "lat": "39.3027", "lng": "-87.9896"}, {"name": "Farmer City", "state": "IL", "lat": "40.2480", "lng": "-88.6423"}, {"name": "Mansfield", "state": "IL", "lat": "40.2122", "lng": "-88.5081"}, {"name": "Reddick", "state": "IL", "lat": "41.0985", "lng": "-88.2486"}, {"name": "McCook", "state": "IL", "lat": "41.7959", "lng": "-87.8410"}, {"name": "Andalusia", "state": "IL", "lat": "41.4373", "lng": "-90.7164"}, {"name": "Markham", "state": "IL", "lat": "41.6000", "lng": "-87.6905"}, {"name": "Roscoe", "state": "IL", "lat": "42.4252", "lng": "-89.0085"}, {"name": "Radom", "state": "IL", "lat": "38.2798", "lng": "-89.1921"}, {"name": "Gladstone", "state": "IL", "lat": "40.8640", "lng": "-90.9567"}, {"name": "Fulton", "state": "IL", "lat": "41.8647", "lng": "-90.1576"}, {"name": "Lanark", "state": "IL", "lat": "42.1019", "lng": "-89.8328"}, {"name": "Longview", "state": "IL", "lat": "39.8859", "lng": "-88.0662"}, {"name": "East Dubuque", "state": "IL", "lat": "42.4890", "lng": "-90.6279"}, {"name": "Savoy", "state": "IL", "lat": "40.0602", "lng": "-88.2553"}, {"name": "Sidney", "state": "IL", "lat": "40.0250", "lng": "-88.0721"}, {"name": "Coyne Center", "state": "IL", "lat": "41.4002", "lng": "-90.5632"}, {"name": "Chillicothe", "state": "IL", "lat": "40.9152", "lng": "-89.5018"}, {"name": "Springfield", "state": "IL", "lat": "39.7710", "lng": "-89.6537"}, {"name": "Sammons Point", "state": "IL", "lat": "41.0309", "lng": "-87.8585"}, {"name": "Marengo", "state": "IL", "lat": "42.2312", "lng": "-88.6153"}, {"name": "Penfield", "state": "IL", "lat": "40.3048", "lng": "-87.9442"}, {"name": "Zeigler", "state": "IL", "lat": "37.9067", "lng": "-89.0521"}, {"name": "Knollwood", "state": "IL", "lat": "42.2846", "lng": "-87.8793"}, {"name": "Tamaroa", "state": "IL", "lat": "38.1364", "lng": "-89.2293"}, {"name": "Harmon", "state": "IL", "lat": "41.7193", "lng": "-89.5562"}, {"name": "East Gillespie", "state": "IL", "lat": "39.1378", "lng": "-89.8127"}, {"name": "Carrier Mills", "state": "IL", "lat": "37.6886", "lng": "-88.6294"}, {"name": "Irwin", "state": "IL", "lat": "41.0529", "lng": "-87.9841"}, {"name": "Sesser", "state": "IL", "lat": "38.0905", "lng": "-89.0509"}, {"name": "Sumner", "state": "IL", "lat": "38.7197", "lng": "-87.8726"}, {"name": "Fox River Grove", "state": "IL", "lat": "42.1955", "lng": "-88.2146"}, {"name": "Green Valley", "state": "IL", "lat": "40.4073", "lng": "-89.6438"}, {"name": "Whiteash", "state": "IL", "lat": "37.7853", "lng": "-88.9294"}, {"name": "Hoyleton", "state": "IL", "lat": "38.4457", "lng": "-89.2721"}, {"name": "Colp", "state": "IL", "lat": "37.8074", "lng": "-89.0787"}, {"name": "Mulberry Grove", "state": "IL", "lat": "38.9245", "lng": "-89.2662"}, {"name": "Elvaston", "state": "IL", "lat": "40.3954", "lng": "-91.2493"}, {"name": "Oquawka", "state": "IL", "lat": "40.9378", "lng": "-90.9499"}, {"name": "Beaverville", "state": "IL", "lat": "40.9534", "lng": "-87.6548"}, {"name": "Springerton", "state": "IL", "lat": "38.1786", "lng": "-88.3548"}, {"name": "Spring Grove", "state": "IL", "lat": "42.4547", "lng": "-88.2404"}, {"name": "Steger", "state": "IL", "lat": "41.4723", "lng": "-87.6183"}, {"name": "Forest City", "state": "IL", "lat": "40.3723", "lng": "-89.8325"}, {"name": "Nilwood", "state": "IL", "lat": "39.3995", "lng": "-89.8077"}, {"name": "Deer Grove", "state": "IL", "lat": "41.6098", "lng": "-89.6874"}, {"name": "Bridgeview", "state": "IL", "lat": "41.7402", "lng": "-87.8067"}, {"name": "Hamilton", "state": "IL", "lat": "40.3899", "lng": "-91.3623"}, {"name": "Spring Bay", "state": "IL", "lat": "40.8207", "lng": "-89.5285"}, {"name": "Equality", "state": "IL", "lat": "37.7371", "lng": "-88.3422"}, {"name": "Brownstown", "state": "IL", "lat": "38.9943", "lng": "-88.9553"}, {"name": "Woodhull", "state": "IL", "lat": "41.1784", "lng": "-90.3221"}, {"name": "Chebanse", "state": "IL", "lat": "41.0058", "lng": "-87.9098"}, {"name": "Cairo", "state": "IL", "lat": "37.0063", "lng": "-89.1819"}, {"name": "Kane", "state": "IL", "lat": "39.1905", "lng": "-90.3512"}, {"name": "Bradley", "state": "IL", "lat": "41.1643", "lng": "-87.8451"}, {"name": "Valier", "state": "IL", "lat": "38.0176", "lng": "-89.0439"}, {"name": "Shelbyville", "state": "IL", "lat": "39.4096", "lng": "-88.8005"}, {"name": "Kenilworth", "state": "IL", "lat": "42.0888", "lng": "-87.7145"}, {"name": "Maple Park", "state": "IL", "lat": "41.9086", "lng": "-88.6063"}, {"name": "Flossmoor", "state": "IL", "lat": "41.5391", "lng": "-87.6857"}, {"name": "Vernon Hills", "state": "IL", "lat": "42.2340", "lng": "-87.9607"}, {"name": "Kilbourne", "state": "IL", "lat": "40.1519", "lng": "-90.0115"}, {"name": "Winnebago", "state": "IL", "lat": "42.2671", "lng": "-89.2337"}, {"name": "Cary", "state": "IL", "lat": "42.2128", "lng": "-88.2491"}, {"name": "Hull", "state": "IL", "lat": "39.7086", "lng": "-91.2032"}, {"name": "Bolingbrook", "state": "IL", "lat": "41.6903", "lng": "-88.1019"}, {"name": "Marine", "state": "IL", "lat": "38.7868", "lng": "-89.7789"}, {"name": "Dallas City", "state": "IL", "lat": "40.6353", "lng": "-91.1645"}, {"name": "Hamel", "state": "IL", "lat": "38.8891", "lng": "-89.8429"}, {"name": "Arrowsmith", "state": "IL", "lat": "40.4493", "lng": "-88.6321"}, {"name": "Livingston", "state": "IL", "lat": "38.9682", "lng": "-89.7642"}, {"name": "Charleston", "state": "IL", "lat": "39.4842", "lng": "-88.1775"}, {"name": "Lake Zurich", "state": "IL", "lat": "42.1955", "lng": "-88.0870"}, {"name": "Lyons", "state": "IL", "lat": "41.8121", "lng": "-87.8192"}, {"name": "Patoka", "state": "IL", "lat": "38.7540", "lng": "-89.0958"}, {"name": "Bishop Hill", "state": "IL", "lat": "41.1997", "lng": "-90.1175"}, {"name": "Metamora", "state": "IL", "lat": "40.7958", "lng": "-89.3689"}, {"name": "Central City", "state": "IL", "lat": "38.5483", "lng": "-89.1284"}, {"name": "Hodgkins", "state": "IL", "lat": "41.7663", "lng": "-87.8607"}, {"name": "Towanda", "state": "IL", "lat": "40.5633", "lng": "-88.9007"}, {"name": "Wonder Lake", "state": "IL", "lat": "42.3791", "lng": "-88.3493"}, {"name": "Murphysboro", "state": "IL", "lat": "37.7679", "lng": "-89.3321"}, {"name": "Lovington", "state": "IL", "lat": "39.7144", "lng": "-88.6316"}, {"name": "Shawneetown", "state": "IL", "lat": "37.7157", "lng": "-88.1865"}, {"name": "Muncie", "state": "IL", "lat": "40.1160", "lng": "-87.8430"}, {"name": "Brookport", "state": "IL", "lat": "37.1258", "lng": "-88.6279"}, {"name": "Lostant", "state": "IL", "lat": "41.1252", "lng": "-89.0668"}, {"name": "Godley", "state": "IL", "lat": "41.2385", "lng": "-88.2452"}, {"name": "Elkhart", "state": "IL", "lat": "40.0136", "lng": "-89.4727"}, {"name": "Scottville", "state": "IL", "lat": "39.4777", "lng": "-90.1038"}, {"name": "Sandoval", "state": "IL", "lat": "38.6121", "lng": "-89.1193"}, {"name": "Hartford", "state": "IL", "lat": "38.8212", "lng": "-90.0909"}, {"name": "Minonk", "state": "IL", "lat": "40.9104", "lng": "-89.0382"}, {"name": "Standard City", "state": "IL", "lat": "39.3504", "lng": "-89.7836"}, {"name": "Milton", "state": "IL", "lat": "39.5645", "lng": "-90.6501"}, {"name": "Waggoner", "state": "IL", "lat": "39.3776", "lng": "-89.6527"}, {"name": "Barrington", "state": "IL", "lat": "42.1515", "lng": "-88.1281"}, {"name": "Browning", "state": "IL", "lat": "40.1270", "lng": "-90.3731"}, {"name": "Banner", "state": "IL", "lat": "40.5126", "lng": "-89.9156"}, {"name": "Emington", "state": "IL", "lat": "40.9693", "lng": "-88.3577"}, {"name": "Effingham", "state": "IL", "lat": "39.1207", "lng": "-88.5509"}, {"name": "Ellisville", "state": "IL", "lat": "40.6273", "lng": "-90.3060"}, {"name": "Brimfield", "state": "IL", "lat": "40.8380", "lng": "-89.8830"}, {"name": "Nebo", "state": "IL", "lat": "39.4421", "lng": "-90.7881"}, {"name": "Middletown", "state": "IL", "lat": "40.0993", "lng": "-89.5903"}, {"name": "Malta", "state": "IL", "lat": "41.9291", "lng": "-88.8669"}, {"name": "Canton", "state": "IL", "lat": "40.5632", "lng": "-90.0409"}, {"name": "Spring Valley", "state": "IL", "lat": "41.3359", "lng": "-89.2034"}, {"name": "Gulf Port", "state": "IL", "lat": "40.8076", "lng": "-91.0845"}, {"name": "Normal", "state": "IL", "lat": "40.5220", "lng": "-88.9877"}, {"name": "Mendota", "state": "IL", "lat": "41.5553", "lng": "-89.1042"}, {"name": "Sherman", "state": "IL", "lat": "39.8877", "lng": "-89.6065"}, {"name": "Fox Lake", "state": "IL", "lat": "42.4238", "lng": "-88.1843"}, {"name": "Rankin", "state": "IL", "lat": "40.4644", "lng": "-87.8959"}, {"name": "Steeleville", "state": "IL", "lat": "38.0085", "lng": "-89.6625"}, {"name": "Glen Ellyn", "state": "IL", "lat": "41.8667", "lng": "-88.0629"}, {"name": "Long Creek", "state": "IL", "lat": "39.8052", "lng": "-88.8475"}, {"name": "Riverwoods", "state": "IL", "lat": "42.1723", "lng": "-87.8951"}, {"name": "Floraville", "state": "IL", "lat": "38.3764", "lng": "-90.0554"}, {"name": "Madison", "state": "IL", "lat": "38.7003", "lng": "-90.1425"}, {"name": "Percy", "state": "IL", "lat": "38.0153", "lng": "-89.6188"}, {"name": "Troy", "state": "IL", "lat": "38.7268", "lng": "-89.8974"}, {"name": "Fithian", "state": "IL", "lat": "40.1143", "lng": "-87.8750"}, {"name": "Opdyke", "state": "IL", "lat": "38.2583", "lng": "-88.7898"}, {"name": "Tower Lakes", "state": "IL", "lat": "42.2315", "lng": "-88.1538"}, {"name": "Neoga", "state": "IL", "lat": "39.3215", "lng": "-88.4504"}, {"name": "Lansing", "state": "IL", "lat": "41.5648", "lng": "-87.5462"}, {"name": "Mound City", "state": "IL", "lat": "37.0854", "lng": "-89.1628"}, {"name": "Bourbonnais", "state": "IL", "lat": "41.1831", "lng": "-87.8781"}, {"name": "Fairview", "state": "IL", "lat": "40.6485", "lng": "-90.1841"}, {"name": "New Lenox", "state": "IL", "lat": "41.5097", "lng": "-87.9700"}, {"name": "Rolling Meadows", "state": "IL", "lat": "42.0747", "lng": "-88.0253"}, {"name": "Foosland", "state": "IL", "lat": "40.3611", "lng": "-88.4291"}, {"name": "Harvel", "state": "IL", "lat": "39.3577", "lng": "-89.5323"}, {"name": "Cedar Point", "state": "IL", "lat": "41.2651", "lng": "-89.1260"}, {"name": "Pana", "state": "IL", "lat": "39.3828", "lng": "-89.0643"}, {"name": "Varna", "state": "IL", "lat": "41.0353", "lng": "-89.2244"}, {"name": "Wood Dale", "state": "IL", "lat": "41.9665", "lng": "-87.9808"}, {"name": "Wenonah", "state": "IL", "lat": "39.3200", "lng": "-89.2879"}, {"name": "Davis Junction", "state": "IL", "lat": "42.1144", "lng": "-89.0898"}, {"name": "Tallula", "state": "IL", "lat": "39.9457", "lng": "-89.9365"}, {"name": "Hennepin", "state": "IL", "lat": "41.2589", "lng": "-89.3216"}, {"name": "Mill Creek", "state": "IL", "lat": "37.3410", "lng": "-89.2535"}, {"name": "Forest View", "state": "IL", "lat": "41.8073", "lng": "-87.7798"}, {"name": "Harvey", "state": "IL", "lat": "41.6076", "lng": "-87.6521"}, {"name": "Knoxville", "state": "IL", "lat": "40.9070", "lng": "-90.2857"}, {"name": "Herscher", "state": "IL", "lat": "41.0493", "lng": "-88.1006"}, {"name": "Gilson", "state": "IL", "lat": "40.8630", "lng": "-90.1997"}, {"name": "Forest Park", "state": "IL", "lat": "41.8683", "lng": "-87.8157"}, {"name": "Clayton", "state": "IL", "lat": "40.0301", "lng": "-90.9580"}, {"name": "Marietta", "state": "IL", "lat": "40.4995", "lng": "-90.3931"}, {"name": "Griggsville", "state": "IL", "lat": "39.7078", "lng": "-90.7273"}, {"name": "Como", "state": "IL", "lat": "41.7662", "lng": "-89.7657"}, {"name": "Harristown", "state": "IL", "lat": "39.8428", "lng": "-89.0606"}, {"name": "New Bedford", "state": "IL", "lat": "41.5112", "lng": "-89.7184"}, {"name": "Hopewell", "state": "IL", "lat": "40.9842", "lng": "-89.4572"}, {"name": "Holiday Hills", "state": "IL", "lat": "42.2979", "lng": "-88.2297"}, {"name": "Ohlman", "state": "IL", "lat": "39.3434", "lng": "-89.2192"}, {"name": "Libertyville", "state": "IL", "lat": "42.2870", "lng": "-87.9670"}, {"name": "Colona", "state": "IL", "lat": "41.4678", "lng": "-90.3446"}, {"name": "Iola", "state": "IL", "lat": "38.8341", "lng": "-88.6279"}, {"name": "Polo", "state": "IL", "lat": "41.9847", "lng": "-89.5788"}, {"name": "Cornland", "state": "IL", "lat": "39.9375", "lng": "-89.4019"}, {"name": "Olivet", "state": "IL", "lat": "39.9414", "lng": "-87.6379"}, {"name": "Barry", "state": "IL", "lat": "39.6982", "lng": "-91.0398"}, {"name": "Mark", "state": "IL", "lat": "41.2624", "lng": "-89.2550"}, {"name": "Lisle", "state": "IL", "lat": "41.7922", "lng": "-88.0883"}, {"name": "Langleyville", "state": "IL", "lat": "39.5611", "lng": "-89.3602"}, {"name": "Ellis Grove", "state": "IL", "lat": "38.0093", "lng": "-89.9101"}, {"name": "Broadlands", "state": "IL", "lat": "39.9087", "lng": "-87.9971"}, {"name": "Kappa", "state": "IL", "lat": "40.6755", "lng": "-89.0060"}, {"name": "Washington", "state": "IL", "lat": "40.7048", "lng": "-89.4345"}, {"name": "Ringwood", "state": "IL", "lat": "42.3974", "lng": "-88.3032"}, {"name": "South Chicago Heights", "state": "IL", "lat": "41.4831", "lng": "-87.6370"}, {"name": "La Fayette", "state": "IL", "lat": "41.1097", "lng": "-89.9735"}, {"name": "Palos Hills", "state": "IL", "lat": "41.6986", "lng": "-87.8266"}, {"name": "Elgin", "state": "IL", "lat": "42.0385", "lng": "-88.3229"}, {"name": "Kincaid", "state": "IL", "lat": "39.5868", "lng": "-89.4166"}, {"name": "Crab Orchard", "state": "IL", "lat": "37.7249", "lng": "-88.8059"}, {"name": "Russellville", "state": "IL", "lat": "38.8196", "lng": "-87.5301"}, {"name": "Oakwood", "state": "IL", "lat": "40.1101", "lng": "-87.7769"}, {"name": "Media", "state": "IL", "lat": "40.7694", "lng": "-90.8326"}, {"name": "Annapolis", "state": "IL", "lat": "39.1453", "lng": "-87.8157"}, {"name": "Alsip", "state": "IL", "lat": "41.6701", "lng": "-87.7368"}, {"name": "Sterling", "state": "IL", "lat": "41.7997", "lng": "-89.6952"}, {"name": "Noble", "state": "IL", "lat": "38.6974", "lng": "-88.2234"}, {"name": "Crest Hill", "state": "IL", "lat": "41.5724", "lng": "-88.1128"}, {"name": "Du Quoin", "state": "IL", "lat": "38.0019", "lng": "-89.2323"}, {"name": "Lake Summerset", "state": "IL", "lat": "42.4521", "lng": "-89.3984"}, {"name": "Paderborn", "state": "IL", "lat": "38.3595", "lng": "-90.0465"}, {"name": "Wellington", "state": "IL", "lat": "40.5404", "lng": "-87.6796"}, {"name": "Eureka", "state": "IL", "lat": "40.7145", "lng": "-89.2774"}, {"name": "Limestone", "state": "IL", "lat": "41.1338", "lng": "-87.9599"}, {"name": "Scott AFB", "state": "IL", "lat": "38.5412", "lng": "-89.8528"}, {"name": "Round Lake Park", "state": "IL", "lat": "42.3308", "lng": "-88.0749"}, {"name": "Monee", "state": "IL", "lat": "41.4176", "lng": "-87.7510"}, {"name": "Harrison", "state": "IL", "lat": "37.7982", "lng": "-89.3361"}, {"name": "Somonauk", "state": "IL", "lat": "41.6420", "lng": "-88.6732"}, {"name": "Milledgeville", "state": "IL", "lat": "41.9637", "lng": "-89.7748"}, {"name": "Baldwin", "state": "IL", "lat": "38.1838", "lng": "-89.8451"}, {"name": "Darien", "state": "IL", "lat": "41.7447", "lng": "-87.9823"}, {"name": "Sheldon", "state": "IL", "lat": "40.7710", "lng": "-87.5658"}, {"name": "Ford Heights", "state": "IL", "lat": "41.5109", "lng": "-87.5814"}, {"name": "Hecker", "state": "IL", "lat": "38.3054", "lng": "-89.9935"}, {"name": "Barrington Hills", "state": "IL", "lat": "42.1400", "lng": "-88.2035"}, {"name": "Mount Zion", "state": "IL", "lat": "39.7797", "lng": "-88.8835"}, {"name": "East St. Louis", "state": "IL", "lat": "38.6156", "lng": "-90.1304"}, {"name": "Ladd", "state": "IL", "lat": "41.3816", "lng": "-89.2145"}, {"name": "East Cape Girardeau", "state": "IL", "lat": "37.2957", "lng": "-89.4869"}, {"name": "Zion", "state": "IL", "lat": "42.4598", "lng": "-87.8509"}, {"name": "Virginia", "state": "IL", "lat": "39.9525", "lng": "-90.2107"}, {"name": "New Holland", "state": "IL", "lat": "40.1834", "lng": "-89.5825"}, {"name": "Mount Erie", "state": "IL", "lat": "38.5146", "lng": "-88.2325"}, {"name": "Carrollton", "state": "IL", "lat": "39.2948", "lng": "-90.4062"}, {"name": "Chandlerville", "state": "IL", "lat": "40.0470", "lng": "-90.1512"}, {"name": "Karnak", "state": "IL", "lat": "37.2941", "lng": "-88.9758"}, {"name": "Mapleton", "state": "IL", "lat": "40.5732", "lng": "-89.7245"}, {"name": "Kenney", "state": "IL", "lat": "40.0981", "lng": "-89.0862"}, {"name": "Maunie", "state": "IL", "lat": "38.0354", "lng": "-88.0457"}, {"name": "Ridott", "state": "IL", "lat": "42.2967", "lng": "-89.4771"}, {"name": "Apple River", "state": "IL", "lat": "42.5022", "lng": "-90.0937"}, {"name": "Cisco", "state": "IL", "lat": "40.0116", "lng": "-88.7255"}, {"name": "Pittsburg", "state": "IL", "lat": "37.7771", "lng": "-88.8499"}, {"name": "Teutopolis", "state": "IL", "lat": "39.1319", "lng": "-88.4792"}, {"name": "Curran", "state": "IL", "lat": "39.7422", "lng": "-89.7782"}, {"name": "Lebanon", "state": "IL", "lat": "38.6013", "lng": "-89.8120"}, {"name": "Glenwood", "state": "IL", "lat": "41.5412", "lng": "-87.6119"}, {"name": "Detroit", "state": "IL", "lat": "39.6201", "lng": "-90.6760"}, {"name": "Lockport", "state": "IL", "lat": "41.5904", "lng": "-88.0293"}, {"name": "Bellevue", "state": "IL", "lat": "40.6877", "lng": "-89.6733"}, {"name": "Colfax", "state": "IL", "lat": "40.5666", "lng": "-88.6161"}, {"name": "Stone Park", "state": "IL", "lat": "41.9033", "lng": "-87.8806"}, {"name": "Phoenix", "state": "IL", "lat": "41.6118", "lng": "-87.6308"}, {"name": "Jeisyville", "state": "IL", "lat": "39.5793", "lng": "-89.4080"}, {"name": "Henderson", "state": "IL", "lat": "41.0238", "lng": "-90.3535"}, {"name": "New Douglas", "state": "IL", "lat": "38.9699", "lng": "-89.6664"}, {"name": "Prestbury", "state": "IL", "lat": "41.7847", "lng": "-88.4225"}, {"name": "Boulder Hill", "state": "IL", "lat": "41.7112", "lng": "-88.3353"}, {"name": "Kirkland", "state": "IL", "lat": "42.0905", "lng": "-88.8491"}, {"name": "Metropolis", "state": "IL", "lat": "37.1566", "lng": "-88.7083"}, {"name": "Beardstown", "state": "IL", "lat": "39.9994", "lng": "-90.4178"}, {"name": "Golden Gate", "state": "IL", "lat": "38.3589", "lng": "-88.2047"}, {"name": "Ridgway", "state": "IL", "lat": "37.7979", "lng": "-88.2606"}, {"name": "Basco", "state": "IL", "lat": "40.3278", "lng": "-91.1995"}, {"name": "Brighton", "state": "IL", "lat": "39.0406", "lng": "-90.1404"}, {"name": "New Grand Chain", "state": "IL", "lat": "37.2552", "lng": "-89.0165"}, {"name": "Industry", "state": "IL", "lat": "40.3269", "lng": "-90.6082"}, {"name": "Topeka", "state": "IL", "lat": "40.3304", "lng": "-89.9306"}, {"name": "New Minden", "state": "IL", "lat": "38.4380", "lng": "-89.3705"}, {"name": "Cambridge", "state": "IL", "lat": "41.2984", "lng": "-90.1907"}, {"name": "Essex", "state": "IL", "lat": "41.1819", "lng": "-88.1928"}, {"name": "Hidalgo", "state": "IL", "lat": "39.1559", "lng": "-88.1491"}, {"name": "Port Byron", "state": "IL", "lat": "41.6166", "lng": "-90.3273"}, {"name": "Royalton", "state": "IL", "lat": "37.8774", "lng": "-89.1142"}, {"name": "Ferris", "state": "IL", "lat": "40.4695", "lng": "-91.1683"}, {"name": "Buda", "state": "IL", "lat": "41.3291", "lng": "-89.6791"}, {"name": "Henning", "state": "IL", "lat": "40.3069", "lng": "-87.7010"}, {"name": "Ashmore", "state": "IL", "lat": "39.5305", "lng": "-88.0202"}, {"name": "Pawnee", "state": "IL", "lat": "39.5936", "lng": "-89.5824"}, {"name": "Morrison", "state": "IL", "lat": "41.8077", "lng": "-89.9618"}, {"name": "Witt", "state": "IL", "lat": "39.2545", "lng": "-89.3492"}, {"name": "Hanover", "state": "IL", "lat": "42.2552", "lng": "-90.2736"}, {"name": "New Boston", "state": "IL", "lat": "41.1697", "lng": "-91.0000"}, {"name": "Kinderhook", "state": "IL", "lat": "39.7037", "lng": "-91.1517"}, {"name": "Ewing", "state": "IL", "lat": "38.0889", "lng": "-88.8528"}, {"name": "Tiskilwa", "state": "IL", "lat": "41.2927", "lng": "-89.5085"}, {"name": "Sleepy Hollow", "state": "IL", "lat": "42.0913", "lng": "-88.3137"}, {"name": "Grantfork", "state": "IL", "lat": "38.8288", "lng": "-89.6664"}, {"name": "Stanford", "state": "IL", "lat": "40.4318", "lng": "-89.2208"}, {"name": "Milan", "state": "IL", "lat": "41.4416", "lng": "-90.5595"}, {"name": "Kinsman", "state": "IL", "lat": "41.1903", "lng": "-88.5699"}, {"name": "Abingdon", "state": "IL", "lat": "40.8039", "lng": "-90.4009"}, {"name": "Collinsville", "state": "IL", "lat": "38.6769", "lng": "-90.0059"}, {"name": "Lake Petersburg", "state": "IL", "lat": "39.9832", "lng": "-89.8655"}, {"name": "Salem", "state": "IL", "lat": "38.6278", "lng": "-88.9579"}, {"name": "Lake Holiday", "state": "IL", "lat": "41.6156", "lng": "-88.6703"}, {"name": "Sauk Village", "state": "IL", "lat": "41.4907", "lng": "-87.5702"}, {"name": "Jerseyville", "state": "IL", "lat": "39.1180", "lng": "-90.3276"}, {"name": "Heritage Lake", "state": "IL", "lat": "40.5454", "lng": "-89.3309"}, {"name": "Wayne City", "state": "IL", "lat": "38.3481", "lng": "-88.5895"}, {"name": "Virden", "state": "IL", "lat": "39.5058", "lng": "-89.7711"}, {"name": "St. Augustine", "state": "IL", "lat": "40.7213", "lng": "-90.4070"}, {"name": "McLeansboro", "state": "IL", "lat": "38.0902", "lng": "-88.5386"}, {"name": "Eldred", "state": "IL", "lat": "39.2863", "lng": "-90.5538"}, {"name": "Havana", "state": "IL", "lat": "40.2950", "lng": "-90.0566"}, {"name": "South Holland", "state": "IL", "lat": "41.5977", "lng": "-87.6022"}, {"name": "Nelson", "state": "IL", "lat": "41.7962", "lng": "-89.6036"}, {"name": "Boody", "state": "IL", "lat": "39.7655", "lng": "-89.0473"}, {"name": "Glenview", "state": "IL", "lat": "42.0825", "lng": "-87.8216"}, {"name": "Sadorus", "state": "IL", "lat": "39.9669", "lng": "-88.3451"}, {"name": "Lake Ka-Ho", "state": "IL", "lat": "39.0998", "lng": "-89.7464"}, {"name": "Jerome", "state": "IL", "lat": "39.7677", "lng": "-89.6786"}, {"name": "Rock Island Arsenal", "state": "IL", "lat": "41.5172", "lng": "-90.5399"}, {"name": "Hollowayville", "state": "IL", "lat": "41.3648", "lng": "-89.2948"}, {"name": "Bismarck", "state": "IL", "lat": "40.2594", "lng": "-87.6113"}, {"name": "Farmington", "state": "IL", "lat": "40.6972", "lng": "-90.0034"}, {"name": "Wyoming", "state": "IL", "lat": "41.0638", "lng": "-89.7729"}, {"name": "Ashkum", "state": "IL", "lat": "40.8782", "lng": "-87.9531"}, {"name": "Lakewood", "state": "IL", "lat": "42.2278", "lng": "-88.3932"}, {"name": "De Land", "state": "IL", "lat": "40.1218", "lng": "-88.6434"}, {"name": "Cowden", "state": "IL", "lat": "39.2492", "lng": "-88.8595"}, {"name": "Alma", "state": "IL", "lat": "38.7231", "lng": "-88.9119"}, {"name": "Worden", "state": "IL", "lat": "38.9315", "lng": "-89.8404"}, {"name": "Bridgeport", "state": "IL", "lat": "38.7094", "lng": "-87.7591"}, {"name": "Sciota", "state": "IL", "lat": "40.5624", "lng": "-90.7480"}, {"name": "Fieldon", "state": "IL", "lat": "39.1088", "lng": "-90.4996"}, {"name": "Donovan", "state": "IL", "lat": "40.8848", "lng": "-87.6142"}, {"name": "Tolono", "state": "IL", "lat": "39.9912", "lng": "-88.2625"}, {"name": "Pinckneyville", "state": "IL", "lat": "38.0851", "lng": "-89.3718"}, {"name": "Prophetstown", "state": "IL", "lat": "41.6703", "lng": "-89.9349"}, {"name": "Oreana", "state": "IL", "lat": "39.9378", "lng": "-88.8685"}, {"name": "Lynwood", "state": "IL", "lat": "41.5234", "lng": "-87.5508"}, {"name": "Makanda", "state": "IL", "lat": "37.6210", "lng": "-89.2357"}, {"name": "McNabb", "state": "IL", "lat": "41.1772", "lng": "-89.2096"}, {"name": "Batchtown", "state": "IL", "lat": "39.0331", "lng": "-90.6534"}, {"name": "Magnolia", "state": "IL", "lat": "41.1141", "lng": "-89.1958"}, {"name": "East Galesburg", "state": "IL", "lat": "40.9428", "lng": "-90.3110"}, {"name": "Greenville", "state": "IL", "lat": "38.8866", "lng": "-89.3893"}, {"name": "Cobden", "state": "IL", "lat": "37.5335", "lng": "-89.2545"}, {"name": "Richton Park", "state": "IL", "lat": "41.4822", "lng": "-87.7352"}, {"name": "Thawville", "state": "IL", "lat": "40.6733", "lng": "-88.1134"}, {"name": "Berkeley", "state": "IL", "lat": "41.8891", "lng": "-87.9114"}, {"name": "Braceville", "state": "IL", "lat": "41.2280", "lng": "-88.2464"}, {"name": "El Dara", "state": "IL", "lat": "39.6227", "lng": "-90.9912"}, {"name": "Dowell", "state": "IL", "lat": "37.9397", "lng": "-89.2390"}, {"name": "Raritan", "state": "IL", "lat": "40.6959", "lng": "-90.8253"}, {"name": "Seatonville", "state": "IL", "lat": "41.3647", "lng": "-89.2740"}, {"name": "Southern View", "state": "IL", "lat": "39.7560", "lng": "-89.6511"}, {"name": "Blandinsville", "state": "IL", "lat": "40.5542", "lng": "-90.8681"}, {"name": "Irvington", "state": "IL", "lat": "38.4386", "lng": "-89.1601"}, {"name": "O'Fallon", "state": "IL", "lat": "38.5976", "lng": "-89.9156"}, {"name": "Florence", "state": "IL", "lat": "39.6286", "lng": "-90.6106"}, {"name": "Good Hope", "state": "IL", "lat": "40.5575", "lng": "-90.6755"}, {"name": "Johnsburg", "state": "IL", "lat": "42.3840", "lng": "-88.2475"}, {"name": "Maroa", "state": "IL", "lat": "40.0366", "lng": "-88.9561"}, {"name": "Hindsboro", "state": "IL", "lat": "39.6847", "lng": "-88.1347"}, {"name": "Pearl", "state": "IL", "lat": "39.4597", "lng": "-90.6237"}, {"name": "Petersburg", "state": "IL", "lat": "40.0143", "lng": "-89.8455"}, {"name": "Chestnut", "state": "IL", "lat": "40.0538", "lng": "-89.1866"}, {"name": "Carol Stream", "state": "IL", "lat": "41.9182", "lng": "-88.1308"}, {"name": "Diamond", "state": "IL", "lat": "41.2852", "lng": "-88.2506"}, {"name": "St. Charles", "state": "IL", "lat": "41.9193", "lng": "-88.3110"}, {"name": "Inverness", "state": "IL", "lat": "42.1152", "lng": "-88.1019"}, {"name": "Hoffman", "state": "IL", "lat": "38.5404", "lng": "-89.2644"}, {"name": "Macomb", "state": "IL", "lat": "40.4721", "lng": "-90.6818"}, {"name": "Orland Hills", "state": "IL", "lat": "41.5905", "lng": "-87.8413"}, {"name": "Lemont", "state": "IL", "lat": "41.6697", "lng": "-87.9828"}, {"name": "Thebes", "state": "IL", "lat": "37.2140", "lng": "-89.4544"}, {"name": "Thomasboro", "state": "IL", "lat": "40.2439", "lng": "-88.1877"}, {"name": "White Heath", "state": "IL", "lat": "40.0870", "lng": "-88.5115"}, {"name": "Blue Island", "state": "IL", "lat": "41.6578", "lng": "-87.6812"}, {"name": "Robinson", "state": "IL", "lat": "39.0089", "lng": "-87.7333"}, {"name": "Morton Grove", "state": "IL", "lat": "42.0423", "lng": "-87.7890"}, {"name": "Belleville", "state": "IL", "lat": "38.5165", "lng": "-89.9900"}, {"name": "Browns", "state": "IL", "lat": "38.3775", "lng": "-87.9831"}, {"name": "Dalzell", "state": "IL", "lat": "41.3553", "lng": "-89.1763"}, {"name": "Elsah", "state": "IL", "lat": "38.9540", "lng": "-90.3554"}, {"name": "Sandwich", "state": "IL", "lat": "41.6496", "lng": "-88.6177"}, {"name": "Warrenville", "state": "IL", "lat": "41.8210", "lng": "-88.1857"}, {"name": "Countryside", "state": "IL", "lat": "41.7741", "lng": "-87.8752"}, {"name": "Downers Grove", "state": "IL", "lat": "41.7949", "lng": "-88.0170"}, {"name": "Plano", "state": "IL", "lat": "41.6757", "lng": "-88.5294"}, {"name": "Kempton", "state": "IL", "lat": "40.9355", "lng": "-88.2362"}, {"name": "Oak Forest", "state": "IL", "lat": "41.6055", "lng": "-87.7527"}, {"name": "North Pekin", "state": "IL", "lat": "40.6113", "lng": "-89.6226"}, {"name": "Woodland", "state": "IL", "lat": "40.7137", "lng": "-87.7303"}, {"name": "Auburn", "state": "IL", "lat": "39.5765", "lng": "-89.7441"}, {"name": "Wyanet", "state": "IL", "lat": "41.3606", "lng": "-89.5831"}, {"name": "Wheeling", "state": "IL", "lat": "42.1308", "lng": "-87.9240"}, {"name": "Thomson", "state": "IL", "lat": "41.9726", "lng": "-90.1117"}, {"name": "Menominee", "state": "IL", "lat": "42.4747", "lng": "-90.5428"}, {"name": "Oak Grove", "state": "IL", "lat": "41.4120", "lng": "-90.5742"}, {"name": "Olmsted", "state": "IL", "lat": "37.1827", "lng": "-89.0849"}, {"name": "West City", "state": "IL", "lat": "37.9962", "lng": "-88.9470"}, {"name": "Humboldt", "state": "IL", "lat": "39.6047", "lng": "-88.3200"}, {"name": "Hinckley", "state": "IL", "lat": "41.7714", "lng": "-88.6397"}, {"name": "St. Francisville", "state": "IL", "lat": "38.5919", "lng": "-87.6474"}, {"name": "Odin", "state": "IL", "lat": "38.6159", "lng": "-89.0541"}, {"name": "Chicago", "state": "IL", "lat": "41.8373", "lng": "-87.6862"}, {"name": "Pleasant Plains", "state": "IL", "lat": "39.8746", "lng": "-89.9186"}, {"name": "La Moille", "state": "IL", "lat": "41.5301", "lng": "-89.2833"}, {"name": "Minooka", "state": "IL", "lat": "41.4507", "lng": "-88.2792"}, {"name": "White City", "state": "IL", "lat": "39.0716", "lng": "-89.7637"}, {"name": "Rutland", "state": "IL", "lat": "40.9838", "lng": "-89.0413"}, {"name": "Genoa", "state": "IL", "lat": "42.0929", "lng": "-88.6966"}, {"name": "Darmstadt", "state": "IL", "lat": "38.3190", "lng": "-89.7288"}, {"name": "Energy", "state": "IL", "lat": "37.7741", "lng": "-89.0246"}, {"name": "Gilberts", "state": "IL", "lat": "42.1096", "lng": "-88.3716"}, {"name": "Gifford", "state": "IL", "lat": "40.3079", "lng": "-88.0214"}, {"name": "Crainville", "state": "IL", "lat": "37.7509", "lng": "-89.0600"}, {"name": "Hazel Crest", "state": "IL", "lat": "41.5732", "lng": "-87.6899"}, {"name": "Orient", "state": "IL", "lat": "37.9176", "lng": "-88.9773"}, {"name": "West Point", "state": "IL", "lat": "40.2556", "lng": "-91.1836"}, {"name": "Perry", "state": "IL", "lat": "39.7823", "lng": "-90.7469"}, {"name": "Quincy", "state": "IL", "lat": "39.9335", "lng": "-91.3798"}, {"name": "Sauget", "state": "IL", "lat": "38.5845", "lng": "-90.1611"}, {"name": "Broadview", "state": "IL", "lat": "41.8584", "lng": "-87.8562"}, {"name": "Greenup", "state": "IL", "lat": "39.2484", "lng": "-88.1598"}, {"name": "Matherville", "state": "IL", "lat": "41.2596", "lng": "-90.6055"}, {"name": "St. Elmo", "state": "IL", "lat": "39.0228", "lng": "-88.8513"}, {"name": "Fairview Heights", "state": "IL", "lat": "38.5974", "lng": "-90.0052"}, {"name": "Antioch", "state": "IL", "lat": "42.4742", "lng": "-88.0721"}, {"name": "Grand Tower", "state": "IL", "lat": "37.6343", "lng": "-89.5013"}, {"name": "Meredosia", "state": "IL", "lat": "39.8311", "lng": "-90.5571"}, {"name": "Peoria Heights", "state": "IL", "lat": "40.7466", "lng": "-89.5701"}, {"name": "Grandwood Park", "state": "IL", "lat": "42.3929", "lng": "-87.9871"}, {"name": "Kaskaskia", "state": "IL", "lat": "37.9213", "lng": "-89.9163"}, {"name": "Tovey", "state": "IL", "lat": "39.5883", "lng": "-89.4486"}, {"name": "Stewardson", "state": "IL", "lat": "39.2638", "lng": "-88.6303"}, {"name": "Hebron", "state": "IL", "lat": "42.4646", "lng": "-88.4343"}, {"name": "Creal Springs", "state": "IL", "lat": "37.6198", "lng": "-88.8375"}, {"name": "Crossville", "state": "IL", "lat": "38.1625", "lng": "-88.0643"}, {"name": "Arlington", "state": "IL", "lat": "41.4717", "lng": "-89.2482"}, {"name": "Assumption", "state": "IL", "lat": "39.5180", "lng": "-89.0478"}, {"name": "Yates City", "state": "IL", "lat": "40.7777", "lng": "-90.0140"}, {"name": "Bowen", "state": "IL", "lat": "40.2321", "lng": "-91.0633"}, {"name": "Willow Springs", "state": "IL", "lat": "41.7335", "lng": "-87.8859"}, {"name": "Grand Detour", "state": "IL", "lat": "41.9011", "lng": "-89.4137"}, {"name": "Green Oaks", "state": "IL", "lat": "42.2954", "lng": "-87.9116"}, {"name": "Table Grove", "state": "IL", "lat": "40.3650", "lng": "-90.4252"}, {"name": "Port Barrington", "state": "IL", "lat": "42.2439", "lng": "-88.1942"}, {"name": "Kangley", "state": "IL", "lat": "41.1480", "lng": "-88.8722"}, {"name": "East Hazel Crest", "state": "IL", "lat": "41.5758", "lng": "-87.6503"}, {"name": "Venedy", "state": "IL", "lat": "38.3966", "lng": "-89.6456"}, {"name": "Dana", "state": "IL", "lat": "40.9565", "lng": "-88.9500"}, {"name": "Golconda", "state": "IL", "lat": "37.3622", "lng": "-88.4872"}, {"name": "Campbell Hill", "state": "IL", "lat": "37.9298", "lng": "-89.5510"}, {"name": "Bethalto", "state": "IL", "lat": "38.9014", "lng": "-90.0467"}, {"name": "Flanagan", "state": "IL", "lat": "40.8771", "lng": "-88.8597"}, {"name": "Johnston City", "state": "IL", "lat": "37.8213", "lng": "-88.9293"}, {"name": "Fairbury", "state": "IL", "lat": "40.7460", "lng": "-88.5162"}, {"name": "Wamac", "state": "IL", "lat": "38.4973", "lng": "-89.1456"}, {"name": "Coalton", "state": "IL", "lat": "39.2848", "lng": "-89.3030"}, {"name": "Rochester", "state": "IL", "lat": "39.7490", "lng": "-89.5459"}, {"name": "Lerna", "state": "IL", "lat": "39.4179", "lng": "-88.2884"}, {"name": "Cooksville", "state": "IL", "lat": "40.5426", "lng": "-88.7144"}, {"name": "Rapids City", "state": "IL", "lat": "41.5788", "lng": "-90.3394"}, {"name": "Dayton", "state": "IL", "lat": "41.3856", "lng": "-88.7959"}, {"name": "Mount Morris", "state": "IL", "lat": "42.0487", "lng": "-89.4295"}, {"name": "Brooklyn", "state": "IL", "lat": "38.6544", "lng": "-90.1679"}, {"name": "Alpha", "state": "IL", "lat": "41.1917", "lng": "-90.3802"}, {"name": "Pingree Grove", "state": "IL", "lat": "42.0857", "lng": "-88.4362"}, {"name": "Omaha", "state": "IL", "lat": "37.8901", "lng": "-88.3053"}, {"name": "Norris", "state": "IL", "lat": "40.6258", "lng": "-90.0321"}, {"name": "Huntley", "state": "IL", "lat": "42.1600", "lng": "-88.4330"}, {"name": "Pekin", "state": "IL", "lat": "40.5677", "lng": "-89.6263"}, {"name": "Chester", "state": "IL", "lat": "37.9200", "lng": "-89.8260"}, {"name": "Golf", "state": "IL", "lat": "42.0586", "lng": "-87.7850"}, {"name": "Hillside", "state": "IL", "lat": "41.8674", "lng": "-87.9019"}, {"name": "Annawan", "state": "IL", "lat": "41.3959", "lng": "-89.8887"}, {"name": "Ridge Farm", "state": "IL", "lat": "39.8957", "lng": "-87.6520"}, {"name": "Roselle", "state": "IL", "lat": "41.9807", "lng": "-88.0862"}, {"name": "Justice", "state": "IL", "lat": "41.7495", "lng": "-87.8345"}, {"name": "Wayne", "state": "IL", "lat": "41.9493", "lng": "-88.2583"}, {"name": "Lake Catherine", "state": "IL", "lat": "42.4870", "lng": "-88.1272"}, {"name": "Lombard", "state": "IL", "lat": "41.8741", "lng": "-88.0157"}, {"name": "Washington Park", "state": "IL", "lat": "38.6285", "lng": "-90.0928"}, {"name": "Gibson City", "state": "IL", "lat": "40.4665", "lng": "-88.3788"}, {"name": "Camargo", "state": "IL", "lat": "39.7991", "lng": "-88.1671"}, {"name": "Stronghurst", "state": "IL", "lat": "40.7462", "lng": "-90.9095"}, {"name": "McHenry", "state": "IL", "lat": "42.3388", "lng": "-88.2931"}, {"name": "Emden", "state": "IL", "lat": "40.2982", "lng": "-89.4851"}, {"name": "Hardin", "state": "IL", "lat": "39.1591", "lng": "-90.6248"}, {"name": "Goofy Ridge", "state": "IL", "lat": "40.3949", "lng": "-89.9407"}, {"name": "Roxana", "state": "IL", "lat": "38.8318", "lng": "-90.0465"}, {"name": "Bondville", "state": "IL", "lat": "40.1116", "lng": "-88.3683"}, {"name": "Lost Nation", "state": "IL", "lat": "41.9124", "lng": "-89.3689"}, {"name": "Sycamore", "state": "IL", "lat": "41.9950", "lng": "-88.6812"}, {"name": "Byron", "state": "IL", "lat": "42.1273", "lng": "-89.2622"}, {"name": "Dakota", "state": "IL", "lat": "42.3880", "lng": "-89.5266"}, {"name": "Westville", "state": "IL", "lat": "40.0439", "lng": "-87.6389"}, {"name": "Lisbon", "state": "IL", "lat": "41.4794", "lng": "-88.4597"}, {"name": "Thayer", "state": "IL", "lat": "39.5404", "lng": "-89.7579"}, {"name": "Prairie Grove", "state": "IL", "lat": "42.2771", "lng": "-88.2697"}, {"name": "Valley City", "state": "IL", "lat": "39.7071", "lng": "-90.6514"}, {"name": "Symerton", "state": "IL", "lat": "41.3255", "lng": "-88.0532"}, {"name": "Elkville", "state": "IL", "lat": "37.9100", "lng": "-89.2367"}, {"name": "Argenta", "state": "IL", "lat": "39.9855", "lng": "-88.8197"}, {"name": "Swansea", "state": "IL", "lat": "38.5507", "lng": "-89.9859"}, {"name": "Wilmette", "state": "IL", "lat": "42.0770", "lng": "-87.7282"}, {"name": "Nashville", "state": "IL", "lat": "38.3514", "lng": "-89.3770"}, {"name": "Dunfermline", "state": "IL", "lat": "40.4917", "lng": "-90.0325"}, {"name": "Broughton", "state": "IL", "lat": "37.9345", "lng": "-88.4623"}, {"name": "Machesney Park", "state": "IL", "lat": "42.3666", "lng": "-89.0266"}, {"name": "Chatsworth", "state": "IL", "lat": "40.7294", "lng": "-88.2974"}, {"name": "Kankakee", "state": "IL", "lat": "41.1020", "lng": "-87.8643"}, {"name": "Algonquin", "state": "IL", "lat": "42.1629", "lng": "-88.3158"}, {"name": "Malden", "state": "IL", "lat": "41.4249", "lng": "-89.3698"}, {"name": "Forsyth", "state": "IL", "lat": "39.9259", "lng": "-88.9640"}, {"name": "Homer Glen", "state": "IL", "lat": "41.6044", "lng": "-87.9497"}, {"name": "Prairie City", "state": "IL", "lat": "40.6210", "lng": "-90.4649"}, {"name": "Mokena", "state": "IL", "lat": "41.5324", "lng": "-87.8779"}, {"name": "Panola", "state": "IL", "lat": "40.7829", "lng": "-89.0203"}, {"name": "Tennessee", "state": "IL", "lat": "40.4112", "lng": "-90.8362"}, {"name": "Bellwood", "state": "IL", "lat": "41.8829", "lng": "-87.8762"}, {"name": "Mettawa", "state": "IL", "lat": "42.2449", "lng": "-87.9201"}, {"name": "Shorewood", "state": "IL", "lat": "41.5175", "lng": "-88.2149"}, {"name": "Dorchester", "state": "IL", "lat": "39.0859", "lng": "-89.8878"}, {"name": "Pittsfield", "state": "IL", "lat": "39.6199", "lng": "-90.7936"}, {"name": "Niles", "state": "IL", "lat": "42.0279", "lng": "-87.8100"}, {"name": "Wheeler", "state": "IL", "lat": "39.0430", "lng": "-88.3188"}, {"name": "Tower Hill", "state": "IL", "lat": "39.3868", "lng": "-88.9592"}, {"name": "Martinsville", "state": "IL", "lat": "39.3383", "lng": "-87.8811"}, {"name": "Hainesville", "state": "IL", "lat": "42.3414", "lng": "-88.0686"}, {"name": "Leland", "state": "IL", "lat": "41.6160", "lng": "-88.7983"}, {"name": "East Brooklyn", "state": "IL", "lat": "41.1727", "lng": "-88.2660"}, {"name": "Calumet Park", "state": "IL", "lat": "41.6650", "lng": "-87.6578"}, {"name": "Holiday Shores", "state": "IL", "lat": "38.9226", "lng": "-89.9361"}, {"name": "Kingston Mines", "state": "IL", "lat": "40.5587", "lng": "-89.7718"}, {"name": "Oakford", "state": "IL", "lat": "40.1011", "lng": "-89.9651"}, {"name": "Beach Park", "state": "IL", "lat": "42.4261", "lng": "-87.8584"}, {"name": "Lomax", "state": "IL", "lat": "40.6789", "lng": "-91.0762"}, {"name": "South Jacksonville", "state": "IL", "lat": "39.7024", "lng": "-90.2293"}, {"name": "Albany", "state": "IL", "lat": "41.7861", "lng": "-90.2166"}, {"name": "Dieterich", "state": "IL", "lat": "39.0601", "lng": "-88.3818"}, {"name": "Keyesport", "state": "IL", "lat": "38.7460", "lng": "-89.2737"}, {"name": "Viola", "state": "IL", "lat": "41.2053", "lng": "-90.5863"}, {"name": "Carbondale", "state": "IL", "lat": "37.7220", "lng": "-89.2238"}, {"name": "Watseka", "state": "IL", "lat": "40.7748", "lng": "-87.7292"}, {"name": "Monticello", "state": "IL", "lat": "40.0342", "lng": "-88.5729"}, {"name": "Bartlett", "state": "IL", "lat": "41.9803", "lng": "-88.2070"}, {"name": "La Grange Park", "state": "IL", "lat": "41.8308", "lng": "-87.8723"}, {"name": "Brussels", "state": "IL", "lat": "38.9485", "lng": "-90.5890"}, {"name": "Chicago Heights", "state": "IL", "lat": "41.5101", "lng": "-87.6347"}, {"name": "Chicago Ridge", "state": "IL", "lat": "41.7034", "lng": "-87.7795"}, {"name": "Indian Creek", "state": "IL", "lat": "42.2272", "lng": "-87.9783"}, {"name": "Sims", "state": "IL", "lat": "38.3618", "lng": "-88.5354"}, {"name": "Dolton", "state": "IL", "lat": "41.6284", "lng": "-87.5979"}, {"name": "Kinmundy", "state": "IL", "lat": "38.7726", "lng": "-88.8539"}, {"name": "Strasburg", "state": "IL", "lat": "39.3497", "lng": "-88.6212"}, {"name": "Forrest", "state": "IL", "lat": "40.7511", "lng": "-88.4097"}, {"name": "Elizabethtown", "state": "IL", "lat": "37.4499", "lng": "-88.3052"}, {"name": "Sparta", "state": "IL", "lat": "38.1514", "lng": "-89.7185"}, {"name": "Toulon", "state": "IL", "lat": "41.0935", "lng": "-89.8633"}, {"name": "Stillman Valley", "state": "IL", "lat": "42.1041", "lng": "-89.1800"}, {"name": "Plainfield", "state": "IL", "lat": "41.6205", "lng": "-88.2260"}, {"name": "Dixon", "state": "IL", "lat": "41.8439", "lng": "-89.4788"}, {"name": "Huey", "state": "IL", "lat": "38.6054", "lng": "-89.2898"}, {"name": "Phillipstown", "state": "IL", "lat": "38.1429", "lng": "-88.0181"}, {"name": "Jonesboro", "state": "IL", "lat": "37.4510", "lng": "-89.2666"}, {"name": "Jacksonville", "state": "IL", "lat": "39.7292", "lng": "-90.2316"}, {"name": "Coulterville", "state": "IL", "lat": "38.1850", "lng": "-89.6046"}, {"name": "Arthur", "state": "IL", "lat": "39.7144", "lng": "-88.4696"}, {"name": "Olney", "state": "IL", "lat": "38.7285", "lng": "-88.0838"}, {"name": "Girard", "state": "IL", "lat": "39.4466", "lng": "-89.7820"}, {"name": "Cabery", "state": "IL", "lat": "40.9958", "lng": "-88.2037"}, {"name": "Ste. Marie", "state": "IL", "lat": "38.9300", "lng": "-88.0278"}, {"name": "Moline", "state": "IL", "lat": "41.4821", "lng": "-90.4919"}, {"name": "Wataga", "state": "IL", "lat": "41.0253", "lng": "-90.2755"}, {"name": "Hawthorn Woods", "state": "IL", "lat": "42.2313", "lng": "-88.0623"}, {"name": "Olive Branch", "state": "IL", "lat": "37.1755", "lng": "-89.3518"}, {"name": "Union Hill", "state": "IL", "lat": "41.1083", "lng": "-88.1461"}, {"name": "Newark", "state": "IL", "lat": "41.5368", "lng": "-88.5804"}, {"name": "Preston Heights", "state": "IL", "lat": "41.4943", "lng": "-88.0756"}, {"name": "Brookfield", "state": "IL", "lat": "41.8245", "lng": "-87.8470"}, {"name": "Anna", "state": "IL", "lat": "37.4612", "lng": "-89.2388"}, {"name": "Palmer", "state": "IL", "lat": "39.4586", "lng": "-89.4079"}, {"name": "Allendale", "state": "IL", "lat": "38.5276", "lng": "-87.7103"}, {"name": "Mount Carmel", "state": "IL", "lat": "38.4187", "lng": "-87.7694"}, {"name": "Norridge", "state": "IL", "lat": "41.9637", "lng": "-87.8231"}, {"name": "Lake Bluff", "state": "IL", "lat": "42.2826", "lng": "-87.8510"}, {"name": "Crescent City", "state": "IL", "lat": "40.7718", "lng": "-87.8563"}, {"name": "Dwight", "state": "IL", "lat": "41.0986", "lng": "-88.4240"}, {"name": "Clinton", "state": "IL", "lat": "40.1468", "lng": "-88.9633"}, {"name": "Greenfield", "state": "IL", "lat": "39.3443", "lng": "-90.2080"}, {"name": "Franklin Grove", "state": "IL", "lat": "41.8408", "lng": "-89.3004"}, {"name": "Hometown", "state": "IL", "lat": "41.7312", "lng": "-87.7311"}, {"name": "West Peoria", "state": "IL", "lat": "40.6969", "lng": "-89.6400"}, {"name": "Fairfield", "state": "IL", "lat": "38.3799", "lng": "-88.3723"}, {"name": "Smithton", "state": "IL", "lat": "38.4160", "lng": "-89.9902"}, {"name": "Coatsburg", "state": "IL", "lat": "40.0327", "lng": "-91.1603"}, {"name": "Vienna", "state": "IL", "lat": "37.4143", "lng": "-88.8871"}, {"name": "La Grange", "state": "IL", "lat": "41.8072", "lng": "-87.8741"}, {"name": "Fairmont City", "state": "IL", "lat": "38.6503", "lng": "-90.1026"}, {"name": "Metcalf", "state": "IL", "lat": "39.7998", "lng": "-87.8093"}, {"name": "River Forest", "state": "IL", "lat": "41.8950", "lng": "-87.8194"}, {"name": "Hoffman Estates", "state": "IL", "lat": "42.0639", "lng": "-88.1468"}, {"name": "Old Shawneetown", "state": "IL", "lat": "37.6971", "lng": "-88.1387"}, {"name": "McClure", "state": "IL", "lat": "37.3146", "lng": "-89.4335"}, {"name": "Lewistown", "state": "IL", "lat": "40.3968", "lng": "-90.1555"}, {"name": "Mineral", "state": "IL", "lat": "41.3843", "lng": "-89.8388"}, {"name": "Adair", "state": "IL", "lat": "40.4183", "lng": "-90.4974"}, {"name": "Riverton", "state": "IL", "lat": "39.8454", "lng": "-89.5394"}, {"name": "Brocton", "state": "IL", "lat": "39.7155", "lng": "-87.9335"}, {"name": "LaPlace", "state": "IL", "lat": "39.7978", "lng": "-88.7156"}, {"name": "Hurst", "state": "IL", "lat": "37.8351", "lng": "-89.1442"}, {"name": "Morrisonville", "state": "IL", "lat": "39.4217", "lng": "-89.4590"}, {"name": "Matteson", "state": "IL", "lat": "41.5095", "lng": "-87.7468"}, {"name": "Venetian Village", "state": "IL", "lat": "42.4012", "lng": "-88.0465"}, {"name": "Cleveland", "state": "IL", "lat": "41.5033", "lng": "-90.3181"}, {"name": "Armington", "state": "IL", "lat": "40.3398", "lng": "-89.3143"}, {"name": "Cedarville", "state": "IL", "lat": "42.3756", "lng": "-89.6363"}, {"name": "Schram City", "state": "IL", "lat": "39.1632", "lng": "-89.4609"}, {"name": "Mount Auburn", "state": "IL", "lat": "39.7649", "lng": "-89.2608"}, {"name": "Garden Prairie", "state": "IL", "lat": "42.2534", "lng": "-88.7178"}, {"name": "Lake of the Woods", "state": "IL", "lat": "40.2048", "lng": "-88.3732"}, {"name": "Carbon Hill", "state": "IL", "lat": "41.2970", "lng": "-88.2999"}, {"name": "Woodridge", "state": "IL", "lat": "41.7368", "lng": "-88.0408"}, {"name": "Manhattan", "state": "IL", "lat": "41.4274", "lng": "-87.9802"}, {"name": "Lena", "state": "IL", "lat": "42.3786", "lng": "-89.8217"}, {"name": "Monmouth", "state": "IL", "lat": "40.9142", "lng": "-90.6420"}, {"name": "Kansas", "state": "IL", "lat": "39.5545", "lng": "-87.9394"}, {"name": "Waukegan", "state": "IL", "lat": "42.3697", "lng": "-87.8716"}, {"name": "Fisher", "state": "IL", "lat": "40.3157", "lng": "-88.3503"}, {"name": "New Salem", "state": "IL", "lat": "39.7076", "lng": "-90.8478"}, {"name": "Manito", "state": "IL", "lat": "40.4206", "lng": "-89.7809"}, {"name": "Shumway", "state": "IL", "lat": "39.1834", "lng": "-88.6532"}, {"name": "Freeburg", "state": "IL", "lat": "38.4397", "lng": "-89.9169"}, {"name": "Westmont", "state": "IL", "lat": "41.7948", "lng": "-87.9742"}, {"name": "East Dundee", "state": "IL", "lat": "42.0970", "lng": "-88.2545"}, {"name": "Summit", "state": "IL", "lat": "41.7877", "lng": "-87.8146"}, {"name": "Ashton", "state": "IL", "lat": "41.8682", "lng": "-89.2224"}, {"name": "Fayetteville", "state": "IL", "lat": "38.3775", "lng": "-89.7967"}, {"name": "Cerro Gordo", "state": "IL", "lat": "39.8894", "lng": "-88.7347"}, {"name": "Buffalo", "state": "IL", "lat": "39.8499", "lng": "-89.4089"}, {"name": "Garrett", "state": "IL", "lat": "39.7973", "lng": "-88.4246"}, {"name": "Albion", "state": "IL", "lat": "38.3767", "lng": "-88.0581"}, {"name": "Hampton", "state": "IL", "lat": "41.5555", "lng": "-90.4046"}, {"name": "Mount Sterling", "state": "IL", "lat": "39.9854", "lng": "-90.7641"}, {"name": "Alvan", "state": "IL", "lat": "40.3070", "lng": "-87.6069"}, {"name": "Baylis", "state": "IL", "lat": "39.7294", "lng": "-90.9095"}, {"name": "East Moline", "state": "IL", "lat": "41.5199", "lng": "-90.3880"}, {"name": "Bannockburn", "state": "IL", "lat": "42.1932", "lng": "-87.8694"}, {"name": "Nason", "state": "IL", "lat": "38.1760", "lng": "-88.9662"}, {"name": "De Pue", "state": "IL", "lat": "41.3275", "lng": "-89.2963"}, {"name": "Staunton", "state": "IL", "lat": "39.0117", "lng": "-89.7905"}, {"name": "University Park", "state": "IL", "lat": "41.4460", "lng": "-87.7154"}, {"name": "Otterville", "state": "IL", "lat": "39.0508", "lng": "-90.3985"}, {"name": "Roodhouse", "state": "IL", "lat": "39.4840", "lng": "-90.3741"}, {"name": "Dunlap", "state": "IL", "lat": "40.8483", "lng": "-89.6719"}, {"name": "Dahlgren", "state": "IL", "lat": "38.1980", "lng": "-88.6847"}, {"name": "Bryant", "state": "IL", "lat": "40.4654", "lng": "-90.0948"}, {"name": "Bardolph", "state": "IL", "lat": "40.4962", "lng": "-90.5633"}, {"name": "Momence", "state": "IL", "lat": "41.1640", "lng": "-87.6630"}, {"name": "West Salem", "state": "IL", "lat": "38.5197", "lng": "-88.0090"}, {"name": "Sherrard", "state": "IL", "lat": "41.3108", "lng": "-90.4990"}, {"name": "Bloomingdale", "state": "IL", "lat": "41.9497", "lng": "-88.0895"}, {"name": "Rock City", "state": "IL", "lat": "42.4130", "lng": "-89.4711"}, {"name": "Millstadt", "state": "IL", "lat": "38.4579", "lng": "-90.0834"}, {"name": "Carthage", "state": "IL", "lat": "40.4143", "lng": "-91.1277"}, {"name": "Farmersville", "state": "IL", "lat": "39.4427", "lng": "-89.6525"}, {"name": "Richmond", "state": "IL", "lat": "42.4641", "lng": "-88.3088"}, {"name": "Plainville", "state": "IL", "lat": "39.7847", "lng": "-91.1817"}, {"name": "South Barrington", "state": "IL", "lat": "42.0881", "lng": "-88.1579"}, {"name": "East Carondelet", "state": "IL", "lat": "38.5386", "lng": "-90.2400"}, {"name": "Lily Lake", "state": "IL", "lat": "41.9518", "lng": "-88.4742"}, {"name": "Ursa", "state": "IL", "lat": "40.0740", "lng": "-91.3721"}, {"name": "Cordova", "state": "IL", "lat": "41.6773", "lng": "-90.3215"}, {"name": "Lee", "state": "IL", "lat": "41.7954", "lng": "-88.9417"}, {"name": "La Prairie", "state": "IL", "lat": "40.1474", "lng": "-91.0025"}, {"name": "Pontoon Beach", "state": "IL", "lat": "38.7208", "lng": "-90.0601"}, {"name": "Alhambra", "state": "IL", "lat": "38.8878", "lng": "-89.7360"}, {"name": "Joppa", "state": "IL", "lat": "37.2070", "lng": "-88.8447"}, {"name": "Ramsey", "state": "IL", "lat": "39.1443", "lng": "-89.1105"}, {"name": "Manlius", "state": "IL", "lat": "41.4553", "lng": "-89.6685"}, {"name": "Okawville", "state": "IL", "lat": "38.4344", "lng": "-89.5480"}, {"name": "Litchfield", "state": "IL", "lat": "39.1963", "lng": "-89.6288"}, {"name": "Orland Park", "state": "IL", "lat": "41.6075", "lng": "-87.8619"}, {"name": "Jeffersonville", "state": "IL", "lat": "38.4425", "lng": "-88.4040"}, {"name": "Ashland", "state": "IL", "lat": "39.8885", "lng": "-90.0079"}, {"name": "De Soto", "state": "IL", "lat": "37.8162", "lng": "-89.2269"}, {"name": "Volo", "state": "IL", "lat": "42.3298", "lng": "-88.1599"}, {"name": "Mazon", "state": "IL", "lat": "41.2417", "lng": "-88.4234"}, {"name": "Lima", "state": "IL", "lat": "40.1765", "lng": "-91.3782"}, {"name": "Coleta", "state": "IL", "lat": "41.9027", "lng": "-89.8002"}, {"name": "Hudson", "state": "IL", "lat": "40.6053", "lng": "-88.9895"}, {"name": "Butler", "state": "IL", "lat": "39.1976", "lng": "-89.5318"}, {"name": "Midlothian", "state": "IL", "lat": "41.6254", "lng": "-87.7243"}, {"name": "Edgewood", "state": "IL", "lat": "38.9222", "lng": "-88.6641"}, {"name": "Bellmont", "state": "IL", "lat": "38.3830", "lng": "-87.9106"}, {"name": "Astoria", "state": "IL", "lat": "40.2279", "lng": "-90.3566"}, {"name": "Pontoosuc", "state": "IL", "lat": "40.6284", "lng": "-91.2112"}, {"name": "Oak Run", "state": "IL", "lat": "40.9649", "lng": "-90.1304"}, {"name": "Pocahontas", "state": "IL", "lat": "38.8234", "lng": "-89.5394"}, {"name": "Palmyra", "state": "IL", "lat": "39.4345", "lng": "-89.9959"}, {"name": "Maquon", "state": "IL", "lat": "40.7980", "lng": "-90.1632"}, {"name": "DeKalb", "state": "IL", "lat": "41.9314", "lng": "-88.7482"}, {"name": "Reynolds", "state": "IL", "lat": "41.3321", "lng": "-90.6722"}, {"name": "Stoy", "state": "IL", "lat": "38.9967", "lng": "-87.8335"}, {"name": "Sublette", "state": "IL", "lat": "41.6437", "lng": "-89.2311"}, {"name": "Hanover Park", "state": "IL", "lat": "41.9818", "lng": "-88.1447"}, {"name": "Bushnell", "state": "IL", "lat": "40.5518", "lng": "-90.5047"}, {"name": "Tonica", "state": "IL", "lat": "41.2159", "lng": "-89.0702"}, {"name": "Hampshire", "state": "IL", "lat": "42.1112", "lng": "-88.5120"}, {"name": "Forreston", "state": "IL", "lat": "42.1266", "lng": "-89.5782"}, {"name": "Secor", "state": "IL", "lat": "40.7417", "lng": "-89.1349"}, {"name": "Capron", "state": "IL", "lat": "42.3986", "lng": "-88.7393"}, {"name": "Mount Vernon", "state": "IL", "lat": "38.3140", "lng": "-88.9174"}, {"name": "Seaton", "state": "IL", "lat": "41.1023", "lng": "-90.7991"}, {"name": "Hoopeston", "state": "IL", "lat": "40.4609", "lng": "-87.6636"}, {"name": "Gardner", "state": "IL", "lat": "41.1930", "lng": "-88.3147"}, {"name": "Spaulding", "state": "IL", "lat": "39.8665", "lng": "-89.5446"}, {"name": "Old Ripley", "state": "IL", "lat": "38.8927", "lng": "-89.5721"}, {"name": "Western Springs", "state": "IL", "lat": "41.8022", "lng": "-87.9006"}, {"name": "Sigel", "state": "IL", "lat": "39.2257", "lng": "-88.4945"}, {"name": "Campton Hills", "state": "IL", "lat": "41.9498", "lng": "-88.4167"}, {"name": "Divernon", "state": "IL", "lat": "39.5698", "lng": "-89.6539"}, {"name": "Beecher City", "state": "IL", "lat": "39.1866", "lng": "-88.7875"}, {"name": "Martinton", "state": "IL", "lat": "40.9153", "lng": "-87.7265"}, {"name": "Naplate", "state": "IL", "lat": "41.3322", "lng": "-88.8781"}, {"name": "Gages Lake", "state": "IL", "lat": "42.3519", "lng": "-87.9828"}, {"name": "Bensenville", "state": "IL", "lat": "41.9595", "lng": "-87.9434"}, {"name": "Warren", "state": "IL", "lat": "42.4948", "lng": "-89.9913"}, {"name": "La Harpe", "state": "IL", "lat": "40.5848", "lng": "-90.9695"}, {"name": "Lake Villa", "state": "IL", "lat": "42.4184", "lng": "-88.0836"}, {"name": "Berwyn", "state": "IL", "lat": "41.8433", "lng": "-87.7909"}, {"name": "Woodson", "state": "IL", "lat": "39.6274", "lng": "-90.2256"}, {"name": "Walnut", "state": "IL", "lat": "41.5570", "lng": "-89.5908"}, {"name": "Deer Park", "state": "IL", "lat": "42.1656", "lng": "-88.0867"}, {"name": "West Brooklyn", "state": "IL", "lat": "41.6928", "lng": "-89.1473"}, {"name": "Streamwood", "state": "IL", "lat": "42.0208", "lng": "-88.1778"}, {"name": "Junction", "state": "IL", "lat": "37.7234", "lng": "-88.2382"}, {"name": "St. Libory", "state": "IL", "lat": "38.3633", "lng": "-89.7135"}, {"name": "Aroma Park", "state": "IL", "lat": "41.0789", "lng": "-87.8011"}, {"name": "Newman", "state": "IL", "lat": "39.7970", "lng": "-87.9877"}, {"name": "Harrisburg", "state": "IL", "lat": "37.7374", "lng": "-88.5457"}, {"name": "Colchester", "state": "IL", "lat": "40.4273", "lng": "-90.7922"}, {"name": "Wilsonville", "state": "IL", "lat": "39.0694", "lng": "-89.8553"}, {"name": "Dalton City", "state": "IL", "lat": "39.7168", "lng": "-88.8065"}, {"name": "Morris", "state": "IL", "lat": "41.3748", "lng": "-88.4301"}, {"name": "Latham", "state": "IL", "lat": "39.9669", "lng": "-89.1623"}, {"name": "Bentley", "state": "IL", "lat": "40.3441", "lng": "-91.1118"}, {"name": "Goreville", "state": "IL", "lat": "37.5610", "lng": "-88.9557"}, {"name": "Lexington", "state": "IL", "lat": "40.6469", "lng": "-88.7847"}, {"name": "Taylorville", "state": "IL", "lat": "39.5328", "lng": "-89.2804"}, {"name": "Park City", "state": "IL", "lat": "42.3522", "lng": "-87.8915"}, {"name": "Tuscola", "state": "IL", "lat": "39.7968", "lng": "-88.2749"}, {"name": "Morton", "state": "IL", "lat": "40.6137", "lng": "-89.4668"}, {"name": "Elmwood", "state": "IL", "lat": "40.7804", "lng": "-89.9656"}, {"name": "Shannon", "state": "IL", "lat": "42.1524", "lng": "-89.7402"}, {"name": "Waltonville", "state": "IL", "lat": "38.2140", "lng": "-89.0381"}, {"name": "Burr Ridge", "state": "IL", "lat": "41.7485", "lng": "-87.9199"}, {"name": "Potomac", "state": "IL", "lat": "40.3068", "lng": "-87.7978"}, {"name": "Timberlane", "state": "IL", "lat": "42.3372", "lng": "-88.8694"}, {"name": "Schaumburg", "state": "IL", "lat": "42.0307", "lng": "-88.0838"}, {"name": "Oblong", "state": "IL", "lat": "39.0022", "lng": "-87.9107"}, {"name": "Wadsworth", "state": "IL", "lat": "42.4442", "lng": "-87.9199"}, {"name": "St. David", "state": "IL", "lat": "40.4920", "lng": "-90.0519"}, {"name": "Galatia", "state": "IL", "lat": "37.8414", "lng": "-88.6148"}, {"name": "Chatham", "state": "IL", "lat": "39.6729", "lng": "-89.6957"}, {"name": "Vandalia", "state": "IL", "lat": "38.9754", "lng": "-89.1117"}, {"name": "Tilden", "state": "IL", "lat": "38.2124", "lng": "-89.6840"}, {"name": "Godfrey", "state": "IL", "lat": "38.9581", "lng": "-90.2156"}, {"name": "Creston", "state": "IL", "lat": "41.9335", "lng": "-88.9742"}, {"name": "Taylor Springs", "state": "IL", "lat": "39.1310", "lng": "-89.4950"}, {"name": "Carlinville", "state": "IL", "lat": "39.2775", "lng": "-89.8762"}, {"name": "Mahomet", "state": "IL", "lat": "40.1885", "lng": "-88.3903"}, {"name": "Davis", "state": "IL", "lat": "42.4215", "lng": "-89.4156"}, {"name": "Leonore", "state": "IL", "lat": "41.1889", "lng": "-88.9823"}, {"name": "Loves Park", "state": "IL", "lat": "42.3365", "lng": "-88.9975"}, {"name": "Hartsburg", "state": "IL", "lat": "40.2506", "lng": "-89.4409"}, {"name": "Hillcrest", "state": "IL", "lat": "41.9684", "lng": "-89.0654"}, {"name": "Catlin", "state": "IL", "lat": "40.0675", "lng": "-87.7079"}, {"name": "Cave-In-Rock", "state": "IL", "lat": "37.4708", "lng": "-88.1659"}, {"name": "South Elgin", "state": "IL", "lat": "41.9906", "lng": "-88.3134"}, {"name": "Palestine", "state": "IL", "lat": "39.0016", "lng": "-87.6126"}, {"name": "Cissna Park", "state": "IL", "lat": "40.5667", "lng": "-87.8923"}, {"name": "Evansville", "state": "IL", "lat": "38.0889", "lng": "-89.9322"}, {"name": "Georgetown", "state": "IL", "lat": "39.9774", "lng": "-87.6354"}, {"name": "Oakbrook Terrace", "state": "IL", "lat": "41.8539", "lng": "-87.9685"}, {"name": "Seymour", "state": "IL", "lat": "40.1067", "lng": "-88.4271"}, {"name": "Peoria", "state": "IL", "lat": "40.7521", "lng": "-89.6155"}, {"name": "Redmon", "state": "IL", "lat": "39.6448", "lng": "-87.8616"}, {"name": "Kaneville", "state": "IL", "lat": "41.8336", "lng": "-88.5216"}, {"name": "Oconee", "state": "IL", "lat": "39.2863", "lng": "-89.1068"}, {"name": "Carmi", "state": "IL", "lat": "38.0857", "lng": "-88.1728"}, {"name": "Bartelso", "state": "IL", "lat": "38.5371", "lng": "-89.4671"}, {"name": "Hutsonville", "state": "IL", "lat": "39.1084", "lng": "-87.6608"}, {"name": "Roberts", "state": "IL", "lat": "40.6148", "lng": "-88.1843"}, {"name": "Xenia", "state": "IL", "lat": "38.6373", "lng": "-88.6375"}, {"name": "Gays", "state": "IL", "lat": "39.4581", "lng": "-88.4962"}, {"name": "Thompsonville", "state": "IL", "lat": "37.9144", "lng": "-88.7623"}, {"name": "Richview", "state": "IL", "lat": "38.3758", "lng": "-89.1804"}, {"name": "Ipava", "state": "IL", "lat": "40.3526", "lng": "-90.3234"}, {"name": "Clear Lake", "state": "IL", "lat": "39.8139", "lng": "-89.5682"}, {"name": "Skokie", "state": "IL", "lat": "42.0360", "lng": "-87.7400"}, {"name": "Gurnee", "state": "IL", "lat": "42.3708", "lng": "-87.9392"}, {"name": "Keenes", "state": "IL", "lat": "38.3386", "lng": "-88.6419"}, {"name": "Parkersburg", "state": "IL", "lat": "38.5891", "lng": "-88.0568"}, {"name": "Montgomery", "state": "IL", "lat": "41.7237", "lng": "-88.3631"}, {"name": "Pulaski", "state": "IL", "lat": "37.2163", "lng": "-89.2078"}, {"name": "Carterville", "state": "IL", "lat": "37.7630", "lng": "-89.0841"}, {"name": "Grayslake", "state": "IL", "lat": "42.3402", "lng": "-88.0338"}, {"name": "Allerton", "state": "IL", "lat": "39.9161", "lng": "-87.9353"}, {"name": "Congerville", "state": "IL", "lat": "40.6168", "lng": "-89.2051"}, {"name": "Alton", "state": "IL", "lat": "38.9033", "lng": "-90.1523"}, {"name": "Claremont", "state": "IL", "lat": "38.7177", "lng": "-87.9730"}, {"name": "Pleasant Hill", "state": "IL", "lat": "39.4434", "lng": "-90.8729"}, {"name": "Germantown", "state": "IL", "lat": "38.5552", "lng": "-89.5412"}, {"name": "South Beloit", "state": "IL", "lat": "42.4821", "lng": "-89.0247"}, {"name": "Stonefort", "state": "IL", "lat": "37.6178", "lng": "-88.7051"}, {"name": "Atwood", "state": "IL", "lat": "39.7992", "lng": "-88.4626"}, {"name": "Mount Olive", "state": "IL", "lat": "39.0726", "lng": "-89.7277"}, {"name": "Sun River Terrace", "state": "IL", "lat": "41.1254", "lng": "-87.7337"}, {"name": "Round Lake", "state": "IL", "lat": "42.3436", "lng": "-88.1058"}, {"name": "New Baden", "state": "IL", "lat": "38.5367", "lng": "-89.7072"}, {"name": "Chadwick", "state": "IL", "lat": "42.0142", "lng": "-89.8885"}, {"name": "Orangeville", "state": "IL", "lat": "42.4659", "lng": "-89.6469"}, {"name": "Loami", "state": "IL", "lat": "39.6746", "lng": "-89.8476"}, {"name": "Stickney", "state": "IL", "lat": "41.8183", "lng": "-87.7730"}, {"name": "Crystal Lawns", "state": "IL", "lat": "41.5685", "lng": "-88.1638"}, {"name": "Manchester", "state": "IL", "lat": "39.5424", "lng": "-90.3303"}, {"name": "Itasca", "state": "IL", "lat": "41.9773", "lng": "-88.0182"}, {"name": "Hopedale", "state": "IL", "lat": "40.4238", "lng": "-89.4203"}, {"name": "Winthrop Harbor", "state": "IL", "lat": "42.4805", "lng": "-87.8293"}, {"name": "Gilman", "state": "IL", "lat": "40.7632", "lng": "-87.9972"}, {"name": "Germantown Hills", "state": "IL", "lat": "40.7712", "lng": "-89.4670"}, {"name": "Durand", "state": "IL", "lat": "42.4341", "lng": "-89.3265"}, {"name": "Rossville", "state": "IL", "lat": "40.3815", "lng": "-87.6700"}, {"name": "Cuba", "state": "IL", "lat": "40.4936", "lng": "-90.1933"}, {"name": "Toledo", "state": "IL", "lat": "39.2728", "lng": "-88.2419"}, {"name": "Glasford", "state": "IL", "lat": "40.5729", "lng": "-89.8130"}, {"name": "Littleton", "state": "IL", "lat": "40.2340", "lng": "-90.6223"}, {"name": "Sawyerville", "state": "IL", "lat": "39.0785", "lng": "-89.8020"}, {"name": "Neponset", "state": "IL", "lat": "41.2968", "lng": "-89.7894"}, {"name": "Westchester", "state": "IL", "lat": "41.8492", "lng": "-87.8906"}, {"name": "Keensburg", "state": "IL", "lat": "38.3518", "lng": "-87.8683"}, {"name": "Long Point", "state": "IL", "lat": "41.0055", "lng": "-88.8931"}, {"name": "Glen Carbon", "state": "IL", "lat": "38.7579", "lng": "-89.9832"}, {"name": "Braidwood", "state": "IL", "lat": "41.2696", "lng": "-88.2234"}, {"name": "Cicero", "state": "IL", "lat": "41.8445", "lng": "-87.7593"}, {"name": "Wilmington", "state": "IL", "lat": "41.3203", "lng": "-88.1633"}, {"name": "Ripley", "state": "IL", "lat": "40.0252", "lng": "-90.6379"}, {"name": "Ohio", "state": "IL", "lat": "41.5560", "lng": "-89.4606"}, {"name": "Carpentersville", "state": "IL", "lat": "42.1227", "lng": "-88.2895"}, {"name": "Ingalls Park", "state": "IL", "lat": "41.5203", "lng": "-88.0346"}, {"name": "Rock Island", "state": "IL", "lat": "41.4699", "lng": "-90.5827"}, {"name": "German Valley", "state": "IL", "lat": "42.2143", "lng": "-89.4845"}, {"name": "Benton", "state": "IL", "lat": "38.0110", "lng": "-88.9179"}, {"name": "Andover", "state": "IL", "lat": "41.2949", "lng": "-90.2907"}, {"name": "Island Lake", "state": "IL", "lat": "42.2784", "lng": "-88.1999"}, {"name": "Mechanicsburg", "state": "IL", "lat": "39.8030", "lng": "-89.4066"}, {"name": "Walnut Hill", "state": "IL", "lat": "38.4777", "lng": "-89.0447"}, {"name": "Sibley", "state": "IL", "lat": "40.5874", "lng": "-88.3785"}, {"name": "Frankfort", "state": "IL", "lat": "41.4887", "lng": "-87.8360"}, {"name": "Herrick", "state": "IL", "lat": "39.2196", "lng": "-88.9848"}, {"name": "Homewood", "state": "IL", "lat": "41.5591", "lng": "-87.6610"}, {"name": "Calhoun", "state": "IL", "lat": "38.6511", "lng": "-88.0440"}, {"name": "Park Forest", "state": "IL", "lat": "41.4817", "lng": "-87.6868"}, {"name": "Joy", "state": "IL", "lat": "41.1969", "lng": "-90.8788"}, {"name": "Pecatonica", "state": "IL", "lat": "42.3085", "lng": "-89.3578"}, {"name": "Alto Pass", "state": "IL", "lat": "37.5737", "lng": "-89.3192"}, {"name": "Avon", "state": "IL", "lat": "40.6620", "lng": "-90.4352"}, {"name": "Frankfort Square", "state": "IL", "lat": "41.5221", "lng": "-87.8033"}, {"name": "Des Plaines", "state": "IL", "lat": "42.0344", "lng": "-87.9008"}, {"name": "Beckemeyer", "state": "IL", "lat": "38.6059", "lng": "-89.4322"}, {"name": "Mount Pulaski", "state": "IL", "lat": "40.0102", "lng": "-89.2839"}, {"name": "Highland", "state": "IL", "lat": "38.7602", "lng": "-89.6810"}, {"name": "LaSalle", "state": "IL", "lat": "41.3575", "lng": "-89.0718"}, {"name": "Batavia", "state": "IL", "lat": "41.8479", "lng": "-88.3109"}, {"name": "Kildeer", "state": "IL", "lat": "42.1831", "lng": "-88.0488"}, {"name": "Williamsville", "state": "IL", "lat": "39.9517", "lng": "-89.5507"}, {"name": "Oakland", "state": "IL", "lat": "39.6576", "lng": "-88.0273"}, {"name": "Ellsworth", "state": "IL", "lat": "40.4496", "lng": "-88.7161"}, {"name": "Royal Lakes", "state": "IL", "lat": "39.1117", "lng": "-89.9607"}, {"name": "Ruma", "state": "IL", "lat": "38.1306", "lng": "-90.0003"}, {"name": "Muddy", "state": "IL", "lat": "37.7655", "lng": "-88.5138"}, {"name": "Damiansville", "state": "IL", "lat": "38.5087", "lng": "-89.6149"}, {"name": "Rochelle", "state": "IL", "lat": "41.9194", "lng": "-89.0634"}, {"name": "Keithsburg", "state": "IL", "lat": "41.1004", "lng": "-90.9353"}, {"name": "The Galena Territory", "state": "IL", "lat": "42.3956", "lng": "-90.3159"}, {"name": "Silvis", "state": "IL", "lat": "41.4975", "lng": "-90.4101"}, {"name": "Naples", "state": "IL", "lat": "39.7534", "lng": "-90.6069"}, {"name": "Liverpool", "state": "IL", "lat": "40.3901", "lng": "-90.0026"}, {"name": "Scales Mound", "state": "IL", "lat": "42.4749", "lng": "-90.2526"}, {"name": "Cypress", "state": "IL", "lat": "37.3655", "lng": "-89.0187"}, {"name": "Grand Ridge", "state": "IL", "lat": "41.2362", "lng": "-88.8310"}, {"name": "Poplar Grove", "state": "IL", "lat": "42.3516", "lng": "-88.8353"}, {"name": "Elmhurst", "state": "IL", "lat": "41.8973", "lng": "-87.9432"}, {"name": "Hamburg", "state": "IL", "lat": "39.2328", "lng": "-90.7152"}, {"name": "Harwood Heights", "state": "IL", "lat": "41.9663", "lng": "-87.8057"}, {"name": "Atlanta", "state": "IL", "lat": "40.2637", "lng": "-89.2311"}, {"name": "Homer", "state": "IL", "lat": "40.0329", "lng": "-87.9578"}, {"name": "Mason City", "state": "IL", "lat": "40.2022", "lng": "-89.6973"}, {"name": "Bay View Gardens", "state": "IL", "lat": "40.8102", "lng": "-89.5272"}, {"name": "Freeport", "state": "IL", "lat": "42.2892", "lng": "-89.6348"}, {"name": "Augusta", "state": "IL", "lat": "40.2309", "lng": "-90.9498"}, {"name": "Grayville", "state": "IL", "lat": "38.2554", "lng": "-87.9970"}, {"name": "Romeoville", "state": "IL", "lat": "41.6319", "lng": "-88.0996"}, {"name": "Kewanee", "state": "IL", "lat": "41.2399", "lng": "-89.9264"}, {"name": "Lawrenceville", "state": "IL", "lat": "38.7263", "lng": "-87.6874"}, {"name": "Crystal Lake", "state": "IL", "lat": "42.2332", "lng": "-88.3349"}, {"name": "Belle Prairie City", "state": "IL", "lat": "38.2235", "lng": "-88.5559"}, {"name": "Winnetka", "state": "IL", "lat": "42.1064", "lng": "-87.7421"}, {"name": "Ava", "state": "IL", "lat": "37.8886", "lng": "-89.4965"}, {"name": "Ransom", "state": "IL", "lat": "41.1586", "lng": "-88.6542"}, {"name": "Palos Park", "state": "IL", "lat": "41.6682", "lng": "-87.8885"}, {"name": "Caseyville", "state": "IL", "lat": "38.6300", "lng": "-90.0342"}, {"name": "North Barrington", "state": "IL", "lat": "42.2065", "lng": "-88.1316"}, {"name": "Rockwood", "state": "IL", "lat": "37.8405", "lng": "-89.6968"}, {"name": "Little York", "state": "IL", "lat": "41.0108", "lng": "-90.7462"}, {"name": "Campus", "state": "IL", "lat": "41.0247", "lng": "-88.3072"}, {"name": "Stonington", "state": "IL", "lat": "39.6385", "lng": "-89.1921"}, {"name": "Columbia", "state": "IL", "lat": "38.4581", "lng": "-90.2156"}, {"name": "Raymond", "state": "IL", "lat": "39.3197", "lng": "-89.5751"}, {"name": "Windsor", "state": "IL", "lat": "39.4389", "lng": "-88.5953"}, {"name": "Adeline", "state": "IL", "lat": "42.1405", "lng": "-89.4919"}, {"name": "Grafton", "state": "IL", "lat": "38.9765", "lng": "-90.4259"}, {"name": "Oak Park", "state": "IL", "lat": "41.8872", "lng": "-87.7899"}, {"name": "Ashley", "state": "IL", "lat": "38.3289", "lng": "-89.1894"}, {"name": "Philo", "state": "IL", "lat": "40.0033", "lng": "-88.1564"}, {"name": "Oneida", "state": "IL", "lat": "41.0722", "lng": "-90.2247"}, {"name": "Willisville", "state": "IL", "lat": "37.9828", "lng": "-89.5898"}, {"name": "Sugar Grove", "state": "IL", "lat": "41.7758", "lng": "-88.4480"}, {"name": "Fox Lake Hills", "state": "IL", "lat": "42.4128", "lng": "-88.1271"}, {"name": "North City", "state": "IL", "lat": "37.9916", "lng": "-89.0635"}, {"name": "North Utica", "state": "IL", "lat": "41.3536", "lng": "-89.0108"}, {"name": "Geneseo", "state": "IL", "lat": "41.4507", "lng": "-90.1540"}, {"name": "Carbon Cliff", "state": "IL", "lat": "41.4983", "lng": "-90.3920"}, {"name": "Shiloh", "state": "IL", "lat": "38.5534", "lng": "-89.9160"}, {"name": "Grandview", "state": "IL", "lat": "39.8175", "lng": "-89.6181"}, {"name": "St. Joseph", "state": "IL", "lat": "40.1141", "lng": "-88.0355"}, {"name": "Aledo", "state": "IL", "lat": "41.1984", "lng": "-90.7459"}, {"name": "Winchester", "state": "IL", "lat": "39.6298", "lng": "-90.4559"}, {"name": "Eldorado", "state": "IL", "lat": "37.8113", "lng": "-88.4415"}, {"name": "Gridley", "state": "IL", "lat": "40.7438", "lng": "-88.8807"}, {"name": "Ullin", "state": "IL", "lat": "37.2777", "lng": "-89.1752"}, {"name": "Enfield", "state": "IL", "lat": "38.1019", "lng": "-88.3382"}, {"name": "Riverside", "state": "IL", "lat": "41.8310", "lng": "-87.8169"}, {"name": "Rock Falls", "state": "IL", "lat": "41.7724", "lng": "-89.6928"}, {"name": "Centreville", "state": "IL", "lat": "38.5798", "lng": "-90.1039"}, {"name": "Versailles", "state": "IL", "lat": "39.8842", "lng": "-90.6587"}, {"name": "Lake Camelot", "state": "IL", "lat": "40.6341", "lng": "-89.7509"}, {"name": "Grant Park", "state": "IL", "lat": "41.2429", "lng": "-87.6353"}, {"name": "Belgium", "state": "IL", "lat": "40.0607", "lng": "-87.6328"}, {"name": "Joliet", "state": "IL", "lat": "41.5189", "lng": "-88.1499"}, {"name": "Jewett", "state": "IL", "lat": "39.2077", "lng": "-88.2431"}, {"name": "Lincoln", "state": "IL", "lat": "40.1509", "lng": "-89.3721"}, {"name": "Rosewood Heights", "state": "IL", "lat": "38.8885", "lng": "-90.0722"}, {"name": "Cutler", "state": "IL", "lat": "38.0325", "lng": "-89.5676"}, {"name": "New Milford", "state": "IL", "lat": "42.1775", "lng": "-89.0650"}, {"name": "Plattville", "state": "IL", "lat": "41.5343", "lng": "-88.3835"}, {"name": "Arenzville", "state": "IL", "lat": "39.8805", "lng": "-90.3706"}, {"name": "Millbrook", "state": "IL", "lat": "41.6071", "lng": "-88.5454"}, {"name": "White Hall", "state": "IL", "lat": "39.4388", "lng": "-90.4019"}, {"name": "Mound Station", "state": "IL", "lat": "40.0066", "lng": "-90.8737"}, {"name": "West Chicago", "state": "IL", "lat": "41.8960", "lng": "-88.2252"}, {"name": "Minier", "state": "IL", "lat": "40.4336", "lng": "-89.3144"}, {"name": "Clifton", "state": "IL", "lat": "40.9346", "lng": "-87.9339"}, {"name": "Millington", "state": "IL", "lat": "41.5623", "lng": "-88.6023"}, {"name": "Mill Shoals", "state": "IL", "lat": "38.2496", "lng": "-88.3456"}, {"name": "Camden", "state": "IL", "lat": "40.1529", "lng": "-90.7733"}, {"name": "Bedford Park", "state": "IL", "lat": "41.7670", "lng": "-87.7915"}, {"name": "Atkinson", "state": "IL", "lat": "41.4167", "lng": "-90.0088"}, {"name": "Palatine", "state": "IL", "lat": "42.1181", "lng": "-88.0430"}, {"name": "Mount Prospect", "state": "IL", "lat": "42.0641", "lng": "-87.9375"}, {"name": "Findlay", "state": "IL", "lat": "39.5223", "lng": "-88.7546"}, {"name": "Williamson", "state": "IL", "lat": "38.9872", "lng": "-89.7644"}, {"name": "Illiopolis", "state": "IL", "lat": "39.8514", "lng": "-89.2477"}, {"name": "Evergreen Park", "state": "IL", "lat": "41.7213", "lng": "-87.7013"}, {"name": "Indian Head Park", "state": "IL", "lat": "41.7690", "lng": "-87.8977"}, {"name": "Washburn", "state": "IL", "lat": "40.9203", "lng": "-89.2916"}, {"name": "Old Mill Creek", "state": "IL", "lat": "42.4321", "lng": "-87.9786"}, {"name": "Hooppole", "state": "IL", "lat": "41.5218", "lng": "-89.9140"}, {"name": "Addison", "state": "IL", "lat": "41.9314", "lng": "-88.0085"}, {"name": "Prairie du Rocher", "state": "IL", "lat": "38.0817", "lng": "-90.0976"}, {"name": "Kingston", "state": "IL", "lat": "42.1008", "lng": "-88.7619"}, {"name": "Park Ridge", "state": "IL", "lat": "42.0125", "lng": "-87.8436"}, {"name": "Dawson", "state": "IL", "lat": "39.8533", "lng": "-89.4626"}, {"name": "Erie", "state": "IL", "lat": "41.6587", "lng": "-90.0815"}, {"name": "Ina", "state": "IL", "lat": "38.1499", "lng": "-88.9040"}, {"name": "Coffeen", "state": "IL", "lat": "39.0883", "lng": "-89.3898"}, {"name": "Arcola", "state": "IL", "lat": "39.6833", "lng": "-88.3013"}, {"name": "Leland Grove", "state": "IL", "lat": "39.7787", "lng": "-89.6839"}, {"name": "New Canton", "state": "IL", "lat": "39.6374", "lng": "-91.0982"}, {"name": "Lenzburg", "state": "IL", "lat": "38.2859", "lng": "-89.8179"}, {"name": "Kirkwood", "state": "IL", "lat": "40.8677", "lng": "-90.7485"}, {"name": "Westfield", "state": "IL", "lat": "39.4554", "lng": "-87.9967"}, {"name": "Maeystown", "state": "IL", "lat": "38.2267", "lng": "-90.2330"}, {"name": "Montrose", "state": "IL", "lat": "39.1659", "lng": "-88.3776"}, {"name": "Gorham", "state": "IL", "lat": "37.7151", "lng": "-89.4831"}, {"name": "Galesburg", "state": "IL", "lat": "40.9506", "lng": "-90.3763"}, {"name": "De Witt", "state": "IL", "lat": "40.1847", "lng": "-88.7853"}, {"name": "Simpson", "state": "IL", "lat": "37.4673", "lng": "-88.7556"}]