[{"name": "Crawfordsville", "state": "IN", "lat": "40.0428", "lng": "-86.8975"}, {"name": "Kent", "state": "IN", "lat": "38.7369", "lng": "-85.5387"}, {"name": "Aurora", "state": "IN", "lat": "39.0676", "lng": "-84.9053"}, {"name": "Collegeville", "state": "IN", "lat": "40.9059", "lng": "-87.1612"}, {"name": "St. Joe", "state": "IN", "lat": "41.3147", "lng": "-84.9012"}, {"name": "Seelyville", "state": "IN", "lat": "39.4936", "lng": "-87.2667"}, {"name": "North Terre Haute", "state": "IN", "lat": "39.5370", "lng": "-87.3653"}, {"name": "Wynnedale", "state": "IN", "lat": "39.8325", "lng": "-86.2002"}, {"name": "Liberty", "state": "IN", "lat": "39.6349", "lng": "-84.9260"}, {"name": "Griffin", "state": "IN", "lat": "38.2042", "lng": "-87.9151"}, {"name": "Wakarusa", "state": "IN", "lat": "41.5336", "lng": "-86.0138"}, {"name": "Whitewater", "state": "IN", "lat": "39.9447", "lng": "-84.8308"}, {"name": "New Paris", "state": "IN", "lat": "41.5005", "lng": "-85.8248"}, {"name": "Laketon", "state": "IN", "lat": "40.9807", "lng": "-85.8393"}, {"name": "Cannelburg", "state": "IN", "lat": "38.6679", "lng": "-86.9974"}, {"name": "St. Meinrad", "state": "IN", "lat": "38.1692", "lng": "-86.8257"}, {"name": "Michiana Shores", "state": "IN", "lat": "41.7563", "lng": "-86.8181"}, {"name": "Culver", "state": "IN", "lat": "41.2159", "lng": "-86.4236"}, {"name": "Warren Park", "state": "IN", "lat": "39.7832", "lng": "-86.0517"}, {"name": "Wolcottville", "state": "IN", "lat": "41.5256", "lng": "-85.3667"}, {"name": "Waterloo", "state": "IN", "lat": "41.4328", "lng": "-85.0347"}, {"name": "Flora", "state": "IN", "lat": "40.5452", "lng": "-86.5242"}, {"name": "Mooreland", "state": "IN", "lat": "39.9973", "lng": "-85.2512"}, {"name": "St. Paul", "state": "IN", "lat": "39.4279", "lng": "-85.6286"}, {"name": "Carmel", "state": "IN", "lat": "39.9658", "lng": "-86.1461"}, {"name": "Kingsbury", "state": "IN", "lat": "41.5303", "lng": "-86.6974"}, {"name": "Livonia", "state": "IN", "lat": "38.5549", "lng": "-86.2778"}, {"name": "Brookville", "state": "IN", "lat": "39.4233", "lng": "-85.0114"}, {"name": "Lake Santee", "state": "IN", "lat": "39.4078", "lng": "-85.3066"}, {"name": "Amboy", "state": "IN", "lat": "40.6020", "lng": "-85.9275"}, {"name": "St. John", "state": "IN", "lat": "41.4430", "lng": "-87.4702"}, {"name": "Brownsburg", "state": "IN", "lat": "39.8329", "lng": "-86.3824"}, {"name": "Harlan", "state": "IN", "lat": "41.1966", "lng": "-84.9245"}, {"name": "Winslow", "state": "IN", "lat": "38.3827", "lng": "-87.2129"}, {"name": "Hillsboro", "state": "IN", "lat": "40.1089", "lng": "-87.1577"}, {"name": "Sunman", "state": "IN", "lat": "39.2373", "lng": "-85.0931"}, {"name": "Elizabeth", "state": "IN", "lat": "38.1240", "lng": "-85.9736"}, {"name": "Scottsburg", "state": "IN", "lat": "38.6854", "lng": "-85.7831"}, {"name": "Beech Grove", "state": "IN", "lat": "39.7153", "lng": "-86.0870"}, {"name": "Schneider", "state": "IN", "lat": "41.1928", "lng": "-87.4462"}, {"name": "Landess", "state": "IN", "lat": "40.6126", "lng": "-85.5592"}, {"name": "Rockport", "state": "IN", "lat": "37.8901", "lng": "-87.0538"}, {"name": "Denver", "state": "IN", "lat": "40.8645", "lng": "-86.0771"}, {"name": "Osgood", "state": "IN", "lat": "39.1293", "lng": "-85.2920"}, {"name": "Churubusco", "state": "IN", "lat": "41.2308", "lng": "-85.3201"}, {"name": "Corydon", "state": "IN", "lat": "38.2132", "lng": "-86.1260"}, {"name": "Santa Claus", "state": "IN", "lat": "38.1168", "lng": "-86.9292"}, {"name": "Rockville", "state": "IN", "lat": "39.7665", "lng": "-87.2295"}, {"name": "New Amsterdam", "state": "IN", "lat": "38.1020", "lng": "-86.2759"}, {"name": "Bright", "state": "IN", "lat": "39.2254", "lng": "-84.8613"}, {"name": "Angola", "state": "IN", "lat": "41.6432", "lng": "-85.0050"}, {"name": "Dover Hill", "state": "IN", "lat": "38.7221", "lng": "-86.8002"}, {"name": "Poneto", "state": "IN", "lat": "40.6568", "lng": "-85.2225"}, {"name": "Elwood", "state": "IN", "lat": "40.2743", "lng": "-85.8371"}, {"name": "Galena", "state": "IN", "lat": "38.3513", "lng": "-85.9372"}, {"name": "Gentryville", "state": "IN", "lat": "38.1090", "lng": "-87.0315"}, {"name": "Grabill", "state": "IN", "lat": "41.2099", "lng": "-84.9681"}, {"name": "Rising Sun", "state": "IN", "lat": "38.9531", "lng": "-84.8546"}, {"name": "Winamac", "state": "IN", "lat": "41.0535", "lng": "-86.6037"}, {"name": "Markleville", "state": "IN", "lat": "39.9765", "lng": "-85.6171"}, {"name": "Danville", "state": "IN", "lat": "39.7607", "lng": "-86.5081"}, {"name": "Cloverdale", "state": "IN", "lat": "39.5211", "lng": "-86.7995"}, {"name": "Geneva", "state": "IN", "lat": "40.5975", "lng": "-84.9569"}, {"name": "Wilkinson", "state": "IN", "lat": "39.8857", "lng": "-85.6086"}, {"name": "Bethany", "state": "IN", "lat": "39.5337", "lng": "-86.3778"}, {"name": "Milroy", "state": "IN", "lat": "39.4981", "lng": "-85.4676"}, {"name": "Boston", "state": "IN", "lat": "39.7412", "lng": "-84.8517"}, {"name": "Shoals", "state": "IN", "lat": "38.6668", "lng": "-86.7939"}, {"name": "Mount Summit", "state": "IN", "lat": "40.0035", "lng": "-85.3861"}, {"name": "Emison", "state": "IN", "lat": "38.7991", "lng": "-87.4604"}, {"name": "Mount Ayr", "state": "IN", "lat": "40.9523", "lng": "-87.2990"}, {"name": "Simonton Lake", "state": "IN", "lat": "41.7478", "lng": "-85.9657"}, {"name": "Parker City", "state": "IN", "lat": "40.1898", "lng": "-85.2037"}, {"name": "Morristown", "state": "IN", "lat": "39.6738", "lng": "-85.7052"}, {"name": "Elkhart", "state": "IN", "lat": "41.6912", "lng": "-85.9620"}, {"name": "Hammond", "state": "IN", "lat": "41.6169", "lng": "-87.4909"}, {"name": "River Forest", "state": "IN", "lat": "40.1107", "lng": "-85.7294"}, {"name": "Hanna", "state": "IN", "lat": "41.4121", "lng": "-86.7795"}, {"name": "Point Isabel", "state": "IN", "lat": "40.4206", "lng": "-85.8218"}, {"name": "Boonville", "state": "IN", "lat": "38.0469", "lng": "-87.2847"}, {"name": "Oaktown", "state": "IN", "lat": "38.8717", "lng": "-87.4412"}, {"name": "Greencastle", "state": "IN", "lat": "39.6431", "lng": "-86.8419"}, {"name": "Cumberland", "state": "IN", "lat": "39.7844", "lng": "-85.9459"}, {"name": "Henryville", "state": "IN", "lat": "38.5395", "lng": "-85.7655"}, {"name": "Bloomingdale", "state": "IN", "lat": "39.8306", "lng": "-87.2502"}, {"name": "Fountain City", "state": "IN", "lat": "39.9549", "lng": "-84.9193"}, {"name": "Silver Lake", "state": "IN", "lat": "41.0743", "lng": "-85.8923"}, {"name": "Modoc", "state": "IN", "lat": "40.0454", "lng": "-85.1264"}, {"name": "Kewanna", "state": "IN", "lat": "41.0192", "lng": "-86.4125"}, {"name": "Montezuma", "state": "IN", "lat": "39.7911", "lng": "-87.3694"}, {"name": "Dupont", "state": "IN", "lat": "38.8914", "lng": "-85.5169"}, {"name": "Clay City", "state": "IN", "lat": "39.2769", "lng": "-87.1126"}, {"name": "Waldron", "state": "IN", "lat": "39.4535", "lng": "-85.6629"}, {"name": "Somerville", "state": "IN", "lat": "38.2786", "lng": "-87.3770"}, {"name": "Delphi", "state": "IN", "lat": "40.5831", "lng": "-86.6672"}, {"name": "Kennard", "state": "IN", "lat": "39.9055", "lng": "-85.5222"}, {"name": "Battle Ground", "state": "IN", "lat": "40.5076", "lng": "-86.8527"}, {"name": "West Terre Haute", "state": "IN", "lat": "39.4638", "lng": "-87.4506"}, {"name": "Loogootee", "state": "IN", "lat": "38.6759", "lng": "-86.9143"}, {"name": "Shadeland", "state": "IN", "lat": "40.3509", "lng": "-86.9622"}, {"name": "Vernon", "state": "IN", "lat": "38.9853", "lng": "-85.6106"}, {"name": "Bunker Hill", "state": "IN", "lat": "40.6599", "lng": "-86.1011"}, {"name": "Carbon", "state": "IN", "lat": "39.5991", "lng": "-87.1078"}, {"name": "Vera Cruz", "state": "IN", "lat": "40.7016", "lng": "-85.0795"}, {"name": "Coatesville", "state": "IN", "lat": "39.6881", "lng": "-86.6698"}, {"name": "Fillmore", "state": "IN", "lat": "39.6697", "lng": "-86.7532"}, {"name": "Sullivan", "state": "IN", "lat": "39.0973", "lng": "-87.4074"}, {"name": "St. Mary of the Woods", "state": "IN", "lat": "39.5120", "lng": "-87.4628"}, {"name": "Wheatland", "state": "IN", "lat": "38.6632", "lng": "-87.3062"}, {"name": "La Paz", "state": "IN", "lat": "41.4560", "lng": "-86.3083"}, {"name": "Americus", "state": "IN", "lat": "40.5254", "lng": "-86.7476"}, {"name": "Plainfield", "state": "IN", "lat": "39.6956", "lng": "-86.3708"}, {"name": "South Whitley", "state": "IN", "lat": "41.0838", "lng": "-85.6278"}, {"name": "Beverly Shores", "state": "IN", "lat": "41.6850", "lng": "-86.9804"}, {"name": "Pennville", "state": "IN", "lat": "40.4920", "lng": "-85.1468"}, {"name": "New Ross", "state": "IN", "lat": "39.9647", "lng": "-86.7145"}, {"name": "Medora", "state": "IN", "lat": "38.8247", "lng": "-86.1716"}, {"name": "State Line City", "state": "IN", "lat": "40.1973", "lng": "-87.5270"}, {"name": "Mexico", "state": "IN", "lat": "40.8143", "lng": "-86.1113"}, {"name": "Mauckport", "state": "IN", "lat": "38.0260", "lng": "-86.1994"}, {"name": "Tecumseh", "state": "IN", "lat": "39.5658", "lng": "-87.4327"}, {"name": "Zionsville", "state": "IN", "lat": "39.9990", "lng": "-86.2921"}, {"name": "Dunkirk", "state": "IN", "lat": "40.3745", "lng": "-85.2073"}, {"name": "Zanesville", "state": "IN", "lat": "40.9155", "lng": "-85.2807"}, {"name": "Chrisney", "state": "IN", "lat": "38.0100", "lng": "-87.0319"}, {"name": "Rome City", "state": "IN", "lat": "41.4893", "lng": "-85.3610"}, {"name": "Spencer", "state": "IN", "lat": "39.2861", "lng": "-86.7726"}, {"name": "Middletown", "state": "IN", "lat": "40.0595", "lng": "-85.5420"}, {"name": "Losantville", "state": "IN", "lat": "40.0237", "lng": "-85.1837"}, {"name": "Clarksville", "state": "IN", "lat": "38.3221", "lng": "-85.7673"}, {"name": "La Fontaine", "state": "IN", "lat": "40.6739", "lng": "-85.7221"}, {"name": "Hardinsburg", "state": "IN", "lat": "38.4620", "lng": "-86.2732"}, {"name": "Alamo", "state": "IN", "lat": "39.9835", "lng": "-87.0554"}, {"name": "Greenwood", "state": "IN", "lat": "39.6019", "lng": "-86.1073"}, {"name": "Pierceton", "state": "IN", "lat": "41.1992", "lng": "-85.7032"}, {"name": "Princes Lakes", "state": "IN", "lat": "39.3514", "lng": "-86.1094"}, {"name": "New Haven", "state": "IN", "lat": "41.0673", "lng": "-85.0233"}, {"name": "Corunna", "state": "IN", "lat": "41.4359", "lng": "-85.1440"}, {"name": "Hatfield", "state": "IN", "lat": "37.9030", "lng": "-87.2217"}, {"name": "Columbus", "state": "IN", "lat": "39.2094", "lng": "-85.9183"}, {"name": "West Lebanon", "state": "IN", "lat": "40.2724", "lng": "-87.3861"}, {"name": "Rosedale", "state": "IN", "lat": "39.6224", "lng": "-87.2818"}, {"name": "Warsaw", "state": "IN", "lat": "41.2443", "lng": "-85.8478"}, {"name": "Marshall", "state": "IN", "lat": "39.8475", "lng": "-87.1868"}, {"name": "Upland", "state": "IN", "lat": "40.4639", "lng": "-85.5008"}, {"name": "New Point", "state": "IN", "lat": "39.3097", "lng": "-85.3273"}, {"name": "Anderson", "state": "IN", "lat": "40.0874", "lng": "-85.6920"}, {"name": "Bloomington", "state": "IN", "lat": "39.1637", "lng": "-86.5257"}, {"name": "Converse", "state": "IN", "lat": "40.5771", "lng": "-85.8780"}, {"name": "Country Club Heights", "state": "IN", "lat": "40.1243", "lng": "-85.6878"}, {"name": "Whiteland", "state": "IN", "lat": "39.5507", "lng": "-86.0742"}, {"name": "South Haven", "state": "IN", "lat": "41.5438", "lng": "-87.1367"}, {"name": "Harmony", "state": "IN", "lat": "39.5335", "lng": "-87.0734"}, {"name": "Hartford City", "state": "IN", "lat": "40.4537", "lng": "-85.3736"}, {"name": "Merom", "state": "IN", "lat": "39.0559", "lng": "-87.5672"}, {"name": "Altona", "state": "IN", "lat": "41.3521", "lng": "-85.1525"}, {"name": "Sheridan", "state": "IN", "lat": "40.1318", "lng": "-86.2195"}, {"name": "Elberfeld", "state": "IN", "lat": "38.1617", "lng": "-87.4481"}, {"name": "Clarks Hill", "state": "IN", "lat": "40.2471", "lng": "-86.7244"}, {"name": "Fish Lake", "state": "IN", "lat": "41.5616", "lng": "-86.5513"}, {"name": "Kendallville", "state": "IN", "lat": "41.4441", "lng": "-85.2578"}, {"name": "Mount Etna", "state": "IN", "lat": "40.7410", "lng": "-85.5618"}, {"name": "Jonesville", "state": "IN", "lat": "39.0598", "lng": "-85.8877"}, {"name": "Swayzee", "state": "IN", "lat": "40.5066", "lng": "-85.8244"}, {"name": "Roanoke", "state": "IN", "lat": "40.9639", "lng": "-85.3761"}, {"name": "Avoca", "state": "IN", "lat": "38.9172", "lng": "-86.5557"}, {"name": "Burlington", "state": "IN", "lat": "40.4808", "lng": "-86.3944"}, {"name": "Fairland", "state": "IN", "lat": "39.5849", "lng": "-85.8627"}, {"name": "Otterbein", "state": "IN", "lat": "40.4882", "lng": "-87.0857"}, {"name": "La Porte", "state": "IN", "lat": "41.6077", "lng": "-86.7137"}, {"name": "North Vernon", "state": "IN", "lat": "39.0175", "lng": "-85.6314"}, {"name": "New Market", "state": "IN", "lat": "39.9527", "lng": "-86.9217"}, {"name": "Rolling Prairie", "state": "IN", "lat": "41.6743", "lng": "-86.6207"}, {"name": "Greentown", "state": "IN", "lat": "40.4765", "lng": "-85.9625"}, {"name": "Rocky Ripple", "state": "IN", "lat": "39.8484", "lng": "-86.1731"}, {"name": "Town of Pines", "state": "IN", "lat": "41.6882", "lng": "-86.9518"}, {"name": "Hoagland", "state": "IN", "lat": "40.9520", "lng": "-84.9955"}, {"name": "Mishawaka", "state": "IN", "lat": "41.6736", "lng": "-86.1669"}, {"name": "Grandview", "state": "IN", "lat": "37.9370", "lng": "-86.9842"}, {"name": "Wanatah", "state": "IN", "lat": "41.4303", "lng": "-86.8926"}, {"name": "Brooksburg", "state": "IN", "lat": "38.7350", "lng": "-85.2445"}, {"name": "Morgantown", "state": "IN", "lat": "39.3729", "lng": "-86.2585"}, {"name": "Arcadia", "state": "IN", "lat": "40.1742", "lng": "-86.0211"}, {"name": "Chalmers", "state": "IN", "lat": "40.6622", "lng": "-86.8678"}, {"name": "Dublin", "state": "IN", "lat": "39.8127", "lng": "-85.2055"}, {"name": "Chesterfield", "state": "IN", "lat": "40.1130", "lng": "-85.5942"}, {"name": "Fairmount", "state": "IN", "lat": "40.4173", "lng": "-85.6477"}, {"name": "Butlerville", "state": "IN", "lat": "39.0326", "lng": "-85.5131"}, {"name": "Paragon", "state": "IN", "lat": "39.3947", "lng": "-86.5629"}, {"name": "Pottawattamie Park", "state": "IN", "lat": "41.7233", "lng": "-86.8671"}, {"name": "New Albany", "state": "IN", "lat": "38.3076", "lng": "-85.8241"}, {"name": "Kouts", "state": "IN", "lat": "41.3172", "lng": "-87.0269"}, {"name": "Decatur", "state": "IN", "lat": "40.8286", "lng": "-84.9282"}, {"name": "New Richmond", "state": "IN", "lat": "40.1943", "lng": "-86.9778"}, {"name": "Peru", "state": "IN", "lat": "40.7585", "lng": "-86.0714"}, {"name": "Waynetown", "state": "IN", "lat": "40.0879", "lng": "-87.0661"}, {"name": "Cannelton", "state": "IN", "lat": "37.9106", "lng": "-86.7377"}, {"name": "Milford", "state": "IN", "lat": "41.4142", "lng": "-85.8446"}, {"name": "French Lick", "state": "IN", "lat": "38.5462", "lng": "-86.6202"}, {"name": "Hudson Lake", "state": "IN", "lat": "41.7174", "lng": "-86.5476"}, {"name": "Decker", "state": "IN", "lat": "38.5184", "lng": "-87.5240"}, {"name": "Fulton", "state": "IN", "lat": "40.9462", "lng": "-86.2641"}, {"name": "Gaston", "state": "IN", "lat": "40.3138", "lng": "-85.5009"}, {"name": "North Manchester", "state": "IN", "lat": "41.0044", "lng": "-85.7750"}, {"name": "Painted Hills", "state": "IN", "lat": "39.3963", "lng": "-86.3494"}, {"name": "Richland", "state": "IN", "lat": "37.9462", "lng": "-87.1690"}, {"name": "Sidney", "state": "IN", "lat": "41.1049", "lng": "-85.7425"}, {"name": "Mellott", "state": "IN", "lat": "40.1640", "lng": "-87.1489"}, {"name": "Economy", "state": "IN", "lat": "39.9775", "lng": "-85.0870"}, {"name": "Edinburgh", "state": "IN", "lat": "39.3509", "lng": "-85.9625"}, {"name": "Marengo", "state": "IN", "lat": "38.3714", "lng": "-86.3444"}, {"name": "Leesburg", "state": "IN", "lat": "41.3307", "lng": "-85.8489"}, {"name": "Tri-Lakes", "state": "IN", "lat": "41.2507", "lng": "-85.4433"}, {"name": "Spring Hill", "state": "IN", "lat": "39.8346", "lng": "-86.1926"}, {"name": "Lake Station", "state": "IN", "lat": "41.5729", "lng": "-87.2599"}, {"name": "Wallace", "state": "IN", "lat": "39.9878", "lng": "-87.1484"}, {"name": "Norway", "state": "IN", "lat": "40.7797", "lng": "-86.7719"}, {"name": "Spring Grove", "state": "IN", "lat": "39.8472", "lng": "-84.8912"}, {"name": "Akron", "state": "IN", "lat": "41.0388", "lng": "-86.0249"}, {"name": "Brownstown", "state": "IN", "lat": "38.8791", "lng": "-86.0466"}, {"name": "West Baden Springs", "state": "IN", "lat": "38.5675", "lng": "-86.6120"}, {"name": "Noblesville", "state": "IN", "lat": "40.0356", "lng": "-86.0066"}, {"name": "Shelbyville", "state": "IN", "lat": "39.5325", "lng": "-85.7762"}, {"name": "Carlisle", "state": "IN", "lat": "38.9608", "lng": "-87.4015"}, {"name": "Summitville", "state": "IN", "lat": "40.3361", "lng": "-85.6435"}, {"name": "Notre Dame", "state": "IN", "lat": "41.7012", "lng": "-86.2379"}, {"name": "Advance", "state": "IN", "lat": "39.9954", "lng": "-86.6204"}, {"name": "Sharpsville", "state": "IN", "lat": "40.3795", "lng": "-86.0868"}, {"name": "Daleville", "state": "IN", "lat": "40.1186", "lng": "-85.5576"}, {"name": "Ladoga", "state": "IN", "lat": "39.9167", "lng": "-86.7990"}, {"name": "Lyons", "state": "IN", "lat": "38.9879", "lng": "-87.0813"}, {"name": "Patoka", "state": "IN", "lat": "38.4015", "lng": "-87.5875"}, {"name": "Metamora", "state": "IN", "lat": "39.4481", "lng": "-85.1378"}, {"name": "Muncie", "state": "IN", "lat": "40.1989", "lng": "-85.3950"}, {"name": "Merrillville", "state": "IN", "lat": "41.4728", "lng": "-87.3197"}, {"name": "Williams", "state": "IN", "lat": "38.8147", "lng": "-86.6446"}, {"name": "Newberry", "state": "IN", "lat": "38.9237", "lng": "-87.0191"}, {"name": "Shirley", "state": "IN", "lat": "39.8911", "lng": "-85.5801"}, {"name": "Milton", "state": "IN", "lat": "39.7862", "lng": "-85.1563"}, {"name": "Orland", "state": "IN", "lat": "41.7305", "lng": "-85.1722"}, {"name": "Royal Center", "state": "IN", "lat": "40.8644", "lng": "-86.5000"}, {"name": "Berne", "state": "IN", "lat": "40.6567", "lng": "-84.9555"}, {"name": "Walton", "state": "IN", "lat": "40.6624", "lng": "-86.2443"}, {"name": "Indian Village", "state": "IN", "lat": "41.7143", "lng": "-86.2322"}, {"name": "Madison", "state": "IN", "lat": "38.7580", "lng": "-85.3971"}, {"name": "Orleans", "state": "IN", "lat": "38.6615", "lng": "-86.4517"}, {"name": "Granger", "state": "IN", "lat": "41.7373", "lng": "-86.1350"}, {"name": "Herbst", "state": "IN", "lat": "40.5145", "lng": "-85.7815"}, {"name": "Troy", "state": "IN", "lat": "38.0018", "lng": "-86.7991"}, {"name": "Connersville", "state": "IN", "lat": "39.6582", "lng": "-85.1410"}, {"name": "Trail Creek", "state": "IN", "lat": "41.6963", "lng": "-86.8555"}, {"name": "Pittsboro", "state": "IN", "lat": "39.8676", "lng": "-86.4647"}, {"name": "Ossian", "state": "IN", "lat": "40.8769", "lng": "-85.1683"}, {"name": "Woodburn", "state": "IN", "lat": "41.1287", "lng": "-84.8503"}, {"name": "Osceola", "state": "IN", "lat": "41.6647", "lng": "-86.0787"}, {"name": "Star City", "state": "IN", "lat": "40.9746", "lng": "-86.5613"}, {"name": "Jasonville", "state": "IN", "lat": "39.1619", "lng": "-87.1995"}, {"name": "Melody Hill", "state": "IN", "lat": "38.0240", "lng": "-87.5120"}, {"name": "Blanford", "state": "IN", "lat": "39.6670", "lng": "-87.5203"}, {"name": "Owensburg", "state": "IN", "lat": "38.9305", "lng": "-86.7292"}, {"name": "Yorktown", "state": "IN", "lat": "40.1830", "lng": "-85.5123"}, {"name": "Mecca", "state": "IN", "lat": "39.7271", "lng": "-87.3317"}, {"name": "Redkey", "state": "IN", "lat": "40.3481", "lng": "-85.1524"}, {"name": "Plymouth", "state": "IN", "lat": "41.3482", "lng": "-86.3187"}, {"name": "Fort Branch", "state": "IN", "lat": "38.2461", "lng": "-87.5734"}, {"name": "Hazleton", "state": "IN", "lat": "38.4893", "lng": "-87.5404"}, {"name": "Lake Dalecarlia", "state": "IN", "lat": "41.3370", "lng": "-87.4037"}, {"name": "Clayton", "state": "IN", "lat": "39.6883", "lng": "-86.5231"}, {"name": "Campbellsburg", "state": "IN", "lat": "38.6514", "lng": "-86.2613"}, {"name": "Monroe City", "state": "IN", "lat": "38.6145", "lng": "-87.3531"}, {"name": "Saratoga", "state": "IN", "lat": "40.2368", "lng": "-84.9159"}, {"name": "Cedar Grove", "state": "IN", "lat": "39.3561", "lng": "-84.9371"}, {"name": "Tell City", "state": "IN", "lat": "37.9528", "lng": "-86.7597"}, {"name": "Meridian Hills", "state": "IN", "lat": "39.8873", "lng": "-86.1567"}, {"name": "Lizton", "state": "IN", "lat": "39.8840", "lng": "-86.5421"}, {"name": "New Washington", "state": "IN", "lat": "38.5657", "lng": "-85.5461"}, {"name": "Speedway", "state": "IN", "lat": "39.7937", "lng": "-86.2479"}, {"name": "Logansport", "state": "IN", "lat": "40.7472", "lng": "-86.3519"}, {"name": "Lakeville", "state": "IN", "lat": "41.5285", "lng": "-86.2744"}, {"name": "Michigan City", "state": "IN", "lat": "41.7098", "lng": "-86.8705"}, {"name": "Russellville", "state": "IN", "lat": "39.8569", "lng": "-86.9832"}, {"name": "McCordsville", "state": "IN", "lat": "39.8967", "lng": "-85.9208"}, {"name": "Millersburg", "state": "IN", "lat": "41.5277", "lng": "-85.6964"}, {"name": "Lewisville", "state": "IN", "lat": "39.8068", "lng": "-85.3529"}, {"name": "South Bend", "state": "IN", "lat": "41.6771", "lng": "-86.2692"}, {"name": "Uniondale", "state": "IN", "lat": "40.8299", "lng": "-85.2415"}, {"name": "Grissom AFB", "state": "IN", "lat": "40.6585", "lng": "-86.1480"}, {"name": "Franklin", "state": "IN", "lat": "39.4931", "lng": "-86.0542"}, {"name": "Buck Creek", "state": "IN", "lat": "40.4874", "lng": "-86.7622"}, {"name": "Stockwell", "state": "IN", "lat": "40.2823", "lng": "-86.7687"}, {"name": "Lawrenceburg", "state": "IN", "lat": "39.0986", "lng": "-84.8712"}, {"name": "San Pierre", "state": "IN", "lat": "41.1989", "lng": "-86.8922"}, {"name": "Sulphur Springs", "state": "IN", "lat": "39.9991", "lng": "-85.4393"}, {"name": "Amo", "state": "IN", "lat": "39.6889", "lng": "-86.6125"}, {"name": "Selma", "state": "IN", "lat": "40.1888", "lng": "-85.2755"}, {"name": "Kimmell", "state": "IN", "lat": "41.3950", "lng": "-85.5487"}, {"name": "Lagrange", "state": "IN", "lat": "41.6480", "lng": "-85.4179"}, {"name": "Lebanon", "state": "IN", "lat": "40.0318", "lng": "-86.4550"}, {"name": "Shamrock Lakes", "state": "IN", "lat": "40.4117", "lng": "-85.4262"}, {"name": "Glenwood", "state": "IN", "lat": "39.6261", "lng": "-85.3020"}, {"name": "Colfax", "state": "IN", "lat": "40.1944", "lng": "-86.6671"}, {"name": "Fort Wayne", "state": "IN", "lat": "41.0885", "lng": "-85.1436"}, {"name": "Newport", "state": "IN", "lat": "39.8841", "lng": "-87.4070"}, {"name": "Porter", "state": "IN", "lat": "41.6257", "lng": "-87.0801"}, {"name": "Bass Lake", "state": "IN", "lat": "41.2304", "lng": "-86.5845"}, {"name": "Whitestown", "state": "IN", "lat": "39.9706", "lng": "-86.3609"}, {"name": "North Webster", "state": "IN", "lat": "41.3240", "lng": "-85.6979"}, {"name": "Brookston", "state": "IN", "lat": "40.6010", "lng": "-86.8663"}, {"name": "St. Leon", "state": "IN", "lat": "39.2935", "lng": "-84.9641"}, {"name": "Topeka", "state": "IN", "lat": "41.5395", "lng": "-85.5474"}, {"name": "Jasper", "state": "IN", "lat": "38.3934", "lng": "-86.9404"}, {"name": "Gary", "state": "IN", "lat": "41.5906", "lng": "-87.3472"}, {"name": "Switz City", "state": "IN", "lat": "39.0350", "lng": "-87.0534"}, {"name": "Westphalia", "state": "IN", "lat": "38.8665", "lng": "-87.2277"}, {"name": "Lake Village", "state": "IN", "lat": "41.1308", "lng": "-87.4390"}, {"name": "Roachdale", "state": "IN", "lat": "39.8491", "lng": "-86.8004"}, {"name": "Charlestown", "state": "IN", "lat": "38.4270", "lng": "-85.6677"}, {"name": "Tipton", "state": "IN", "lat": "40.2818", "lng": "-86.0424"}, {"name": "Milan", "state": "IN", "lat": "39.1255", "lng": "-85.1270"}, {"name": "New Middletown", "state": "IN", "lat": "38.1645", "lng": "-86.0511"}, {"name": "Thorntown", "state": "IN", "lat": "40.1293", "lng": "-86.6100"}, {"name": "Lake Holiday", "state": "IN", "lat": "39.9642", "lng": "-86.9607"}, {"name": "Middlebury", "state": "IN", "lat": "41.6696", "lng": "-85.7076"}, {"name": "Bremen", "state": "IN", "lat": "41.4480", "lng": "-86.1507"}, {"name": "Heritage Lake", "state": "IN", "lat": "39.7288", "lng": "-86.7123"}, {"name": "Lapel", "state": "IN", "lat": "40.0335", "lng": "-85.8407"}, {"name": "West Point", "state": "IN", "lat": "40.3412", "lng": "-87.0432"}, {"name": "Salt Creek Commons", "state": "IN", "lat": "41.5112", "lng": "-87.1411"}, {"name": "Gosport", "state": "IN", "lat": "39.3507", "lng": "-86.6656"}, {"name": "Dunlap", "state": "IN", "lat": "41.6346", "lng": "-85.9235"}, {"name": "Dyer", "state": "IN", "lat": "41.4978", "lng": "-87.5090"}, {"name": "Vevay", "state": "IN", "lat": "38.7427", "lng": "-85.0783"}, {"name": "Country Squire Lakes", "state": "IN", "lat": "39.0380", "lng": "-85.6849"}, {"name": "Monterey", "state": "IN", "lat": "41.1561", "lng": "-86.4823"}, {"name": "Newburgh", "state": "IN", "lat": "37.9494", "lng": "-87.4053"}, {"name": "De Motte", "state": "IN", "lat": "41.1987", "lng": "-87.1974"}, {"name": "Hayden", "state": "IN", "lat": "38.9714", "lng": "-85.7390"}, {"name": "Napoleon", "state": "IN", "lat": "39.2041", "lng": "-85.3273"}, {"name": "Cynthiana", "state": "IN", "lat": "38.1873", "lng": "-87.7085"}, {"name": "New Chicago", "state": "IN", "lat": "41.5587", "lng": "-87.2718"}, {"name": "Dugger", "state": "IN", "lat": "39.0704", "lng": "-87.2590"}, {"name": "Jalapa", "state": "IN", "lat": "40.6263", "lng": "-85.7464"}, {"name": "West Harrison", "state": "IN", "lat": "39.2582", "lng": "-84.8225"}, {"name": "Syracuse", "state": "IN", "lat": "41.4226", "lng": "-85.7492"}, {"name": "West College Corner", "state": "IN", "lat": "39.5694", "lng": "-84.8190"}, {"name": "Marion", "state": "IN", "lat": "40.5496", "lng": "-85.6600"}, {"name": "Center Point", "state": "IN", "lat": "39.4154", "lng": "-87.0752"}, {"name": "Hidden Valley", "state": "IN", "lat": "39.1673", "lng": "-84.8444"}, {"name": "Monrovia", "state": "IN", "lat": "39.5842", "lng": "-86.4792"}, {"name": "Greenville", "state": "IN", "lat": "38.3717", "lng": "-85.9847"}, {"name": "Milltown", "state": "IN", "lat": "38.3425", "lng": "-86.2749"}, {"name": "Ligonier", "state": "IN", "lat": "41.4638", "lng": "-85.5943"}, {"name": "Andrews", "state": "IN", "lat": "40.8605", "lng": "-85.6022"}, {"name": "Birdseye", "state": "IN", "lat": "38.3150", "lng": "-86.6961"}, {"name": "Stinesville", "state": "IN", "lat": "39.2996", "lng": "-86.6498"}, {"name": "Michigantown", "state": "IN", "lat": "40.3279", "lng": "-86.3917"}, {"name": "Haubstadt", "state": "IN", "lat": "38.2039", "lng": "-87.5752"}, {"name": "Alexandria", "state": "IN", "lat": "40.2583", "lng": "-85.6760"}, {"name": "Florence", "state": "IN", "lat": "38.7837", "lng": "-84.9235"}, {"name": "Clifford", "state": "IN", "lat": "39.2826", "lng": "-85.8691"}, {"name": "Smithville-Sanders", "state": "IN", "lat": "39.0597", "lng": "-86.5108"}, {"name": "Petersburg", "state": "IN", "lat": "38.4919", "lng": "-87.2810"}, {"name": "Linden", "state": "IN", "lat": "40.1889", "lng": "-86.9028"}, {"name": "Van Buren", "state": "IN", "lat": "40.6157", "lng": "-85.5039"}, {"name": "Long Beach", "state": "IN", "lat": "41.7432", "lng": "-86.8526"}, {"name": "Valparaiso", "state": "IN", "lat": "41.4782", "lng": "-87.0507"}, {"name": "Centerville", "state": "IN", "lat": "39.8298", "lng": "-84.9935"}, {"name": "New Castle", "state": "IN", "lat": "39.9190", "lng": "-85.3697"}, {"name": "Spurgeon", "state": "IN", "lat": "38.2555", "lng": "-87.2588"}, {"name": "Vincennes", "state": "IN", "lat": "38.6759", "lng": "-87.5102"}, {"name": "Claypool", "state": "IN", "lat": "41.1306", "lng": "-85.8825"}, {"name": "East Enterprise", "state": "IN", "lat": "38.8702", "lng": "-84.9889"}, {"name": "Auburn", "state": "IN", "lat": "41.3666", "lng": "-85.0559"}, {"name": "Manilla", "state": "IN", "lat": "39.5727", "lng": "-85.6220"}, {"name": "Darlington", "state": "IN", "lat": "40.1072", "lng": "-86.7766"}, {"name": "Vallonia", "state": "IN", "lat": "38.8462", "lng": "-86.0992"}, {"name": "Lowell", "state": "IN", "lat": "41.2928", "lng": "-87.4206"}, {"name": "Oxford", "state": "IN", "lat": "40.5221", "lng": "-87.2484"}, {"name": "Idaville", "state": "IN", "lat": "40.7588", "lng": "-86.6505"}, {"name": "Darmstadt", "state": "IN", "lat": "38.0938", "lng": "-87.5793"}, {"name": "Portland", "state": "IN", "lat": "40.4377", "lng": "-84.9835"}, {"name": "Shorewood Forest", "state": "IN", "lat": "41.4598", "lng": "-87.1497"}, {"name": "Cordry Sweetwater Lakes", "state": "IN", "lat": "39.3085", "lng": "-86.1227"}, {"name": "Woodlawn Heights", "state": "IN", "lat": "40.1184", "lng": "-85.6972"}, {"name": "Lawrence", "state": "IN", "lat": "39.8674", "lng": "-85.9904"}, {"name": "Matthews", "state": "IN", "lat": "40.3875", "lng": "-85.4976"}, {"name": "Gas City", "state": "IN", "lat": "40.4897", "lng": "-85.5984"}, {"name": "Knightstown", "state": "IN", "lat": "39.7960", "lng": "-85.5312"}, {"name": "Hebron", "state": "IN", "lat": "41.3247", "lng": "-87.2016"}, {"name": "Ulen", "state": "IN", "lat": "40.0662", "lng": "-86.4652"}, {"name": "Arlington", "state": "IN", "lat": "39.6458", "lng": "-85.5796"}, {"name": "Leo-Cedarville", "state": "IN", "lat": "41.2198", "lng": "-85.0192"}, {"name": "Saltillo", "state": "IN", "lat": "38.6662", "lng": "-86.2975"}, {"name": "Farmersburg", "state": "IN", "lat": "39.2526", "lng": "-87.3807"}, {"name": "Rensselaer", "state": "IN", "lat": "40.9381", "lng": "-87.1683"}, {"name": "Dana", "state": "IN", "lat": "39.8072", "lng": "-87.4945"}, {"name": "Lagro", "state": "IN", "lat": "40.8392", "lng": "-85.7276"}, {"name": "Rochester", "state": "IN", "lat": "41.0590", "lng": "-86.1960"}, {"name": "Roseland", "state": "IN", "lat": "41.7177", "lng": "-86.2506"}, {"name": "Scotland", "state": "IN", "lat": "38.9090", "lng": "-86.9047"}, {"name": "New Trenton", "state": "IN", "lat": "39.3088", "lng": "-84.8967"}, {"name": "Dayton", "state": "IN", "lat": "40.3752", "lng": "-86.7739"}, {"name": "New Pekin", "state": "IN", "lat": "38.5029", "lng": "-86.0152"}, {"name": "Macy", "state": "IN", "lat": "40.9582", "lng": "-86.1296"}, {"name": "Brooklyn", "state": "IN", "lat": "39.5436", "lng": "-86.3674"}, {"name": "Southport", "state": "IN", "lat": "39.6600", "lng": "-86.1171"}, {"name": "New Harmony", "state": "IN", "lat": "38.1291", "lng": "-87.9308"}, {"name": "Jeffersonville", "state": "IN", "lat": "38.3375", "lng": "-85.7026"}, {"name": "Ambia", "state": "IN", "lat": "40.4894", "lng": "-87.5165"}, {"name": "Scipio", "state": "IN", "lat": "39.0771", "lng": "-85.7160"}, {"name": "Ingalls", "state": "IN", "lat": "39.9746", "lng": "-85.8148"}, {"name": "Trafalgar", "state": "IN", "lat": "39.4124", "lng": "-86.1499"}, {"name": "Roann", "state": "IN", "lat": "40.9111", "lng": "-85.9246"}, {"name": "Montmorenci", "state": "IN", "lat": "40.4704", "lng": "-87.0354"}, {"name": "Burket", "state": "IN", "lat": "41.1549", "lng": "-85.9687"}, {"name": "Elnora", "state": "IN", "lat": "38.8762", "lng": "-87.0849"}, {"name": "Aberdeen", "state": "IN", "lat": "41.4418", "lng": "-87.1166"}, {"name": "Bruceville", "state": "IN", "lat": "38.7580", "lng": "-87.4154"}, {"name": "St. Bernice", "state": "IN", "lat": "39.7119", "lng": "-87.5200"}, {"name": "Bluffton", "state": "IN", "lat": "40.7426", "lng": "-85.1730"}, {"name": "Nashville", "state": "IN", "lat": "39.2075", "lng": "-86.2372"}, {"name": "Greensburg", "state": "IN", "lat": "39.3515", "lng": "-85.5024"}, {"name": "Ridgeville", "state": "IN", "lat": "40.2920", "lng": "-85.0285"}, {"name": "Pendleton", "state": "IN", "lat": "40.0051", "lng": "-85.7692"}, {"name": "Toad Hop", "state": "IN", "lat": "39.4568", "lng": "-87.4639"}, {"name": "Kingsford Heights", "state": "IN", "lat": "41.4785", "lng": "-86.6927"}, {"name": "Chandler", "state": "IN", "lat": "38.0368", "lng": "-87.3747"}, {"name": "Wheeler", "state": "IN", "lat": "41.5105", "lng": "-87.1712"}, {"name": "Williamsport", "state": "IN", "lat": "40.2884", "lng": "-87.2922"}, {"name": "Freetown", "state": "IN", "lat": "38.9773", "lng": "-86.1270"}, {"name": "Martinsville", "state": "IN", "lat": "39.4227", "lng": "-86.4208"}, {"name": "Versailles", "state": "IN", "lat": "39.0636", "lng": "-85.2564"}, {"name": "Mitchell", "state": "IN", "lat": "38.7364", "lng": "-86.4746"}, {"name": "Monroe", "state": "IN", "lat": "40.7452", "lng": "-84.9413"}, {"name": "Albany", "state": "IN", "lat": "40.3057", "lng": "-85.2332"}, {"name": "Holton", "state": "IN", "lat": "39.0752", "lng": "-85.3847"}, {"name": "Cayuga", "state": "IN", "lat": "39.9474", "lng": "-87.4646"}, {"name": "Frankton", "state": "IN", "lat": "40.2211", "lng": "-85.7720"}, {"name": "Chesterton", "state": "IN", "lat": "41.5994", "lng": "-87.0549"}, {"name": "Lakes of the Four Seasons", "state": "IN", "lat": "41.4074", "lng": "-87.2203"}, {"name": "Indianapolis", "state": "IN", "lat": "39.7771", "lng": "-86.1458"}, {"name": "Monticello", "state": "IN", "lat": "40.7455", "lng": "-86.7669"}, {"name": "North Judson", "state": "IN", "lat": "41.2161", "lng": "-86.7769"}, {"name": "Monroeville", "state": "IN", "lat": "40.9733", "lng": "-84.8682"}, {"name": "Walkerton", "state": "IN", "lat": "41.4656", "lng": "-86.4824"}, {"name": "Clermont", "state": "IN", "lat": "39.8167", "lng": "-86.3207"}, {"name": "East Chicago", "state": "IN", "lat": "41.6484", "lng": "-87.4536"}, {"name": "Bedford", "state": "IN", "lat": "38.8602", "lng": "-86.4895"}, {"name": "Howe", "state": "IN", "lat": "41.7228", "lng": "-85.4255"}, {"name": "Bicknell", "state": "IN", "lat": "38.7744", "lng": "-87.3079"}, {"name": "Sims", "state": "IN", "lat": "40.5006", "lng": "-85.8540"}, {"name": "Rushville", "state": "IN", "lat": "39.6156", "lng": "-85.4466"}, {"name": "Elizabethtown", "state": "IN", "lat": "39.1351", "lng": "-85.8125"}, {"name": "Fowlerton", "state": "IN", "lat": "40.4095", "lng": "-85.5728"}, {"name": "Deputy", "state": "IN", "lat": "38.7952", "lng": "-85.6528"}, {"name": "Clarksburg", "state": "IN", "lat": "39.4353", "lng": "-85.3472"}, {"name": "Kokomo", "state": "IN", "lat": "40.4640", "lng": "-86.1277"}, {"name": "Sellersburg", "state": "IN", "lat": "38.4028", "lng": "-85.7706"}, {"name": "Coalmont", "state": "IN", "lat": "39.1931", "lng": "-87.2265"}, {"name": "Fremont", "state": "IN", "lat": "41.7280", "lng": "-84.9396"}, {"name": "Earl Park", "state": "IN", "lat": "40.6855", "lng": "-87.4199"}, {"name": "Ellettsville", "state": "IN", "lat": "39.2324", "lng": "-86.6233"}, {"name": "Jonesboro", "state": "IN", "lat": "40.4796", "lng": "-85.6302"}, {"name": "Lynnville", "state": "IN", "lat": "38.1988", "lng": "-87.3141"}, {"name": "Attica", "state": "IN", "lat": "40.2876", "lng": "-87.2449"}, {"name": "Straughn", "state": "IN", "lat": "39.8082", "lng": "-85.2907"}, {"name": "La Crosse", "state": "IN", "lat": "41.3177", "lng": "-86.8899"}, {"name": "Etna Green", "state": "IN", "lat": "41.2755", "lng": "-86.0461"}, {"name": "Crown Point", "state": "IN", "lat": "41.4141", "lng": "-87.3456"}, {"name": "Odon", "state": "IN", "lat": "38.8424", "lng": "-86.9891"}, {"name": "Mount Carmel", "state": "IN", "lat": "39.4076", "lng": "-84.8755"}, {"name": "Spiceland", "state": "IN", "lat": "39.8374", "lng": "-85.4378"}, {"name": "Dillsboro", "state": "IN", "lat": "39.0185", "lng": "-85.0531"}, {"name": "Clinton", "state": "IN", "lat": "39.6608", "lng": "-87.4045"}, {"name": "Greenfield", "state": "IN", "lat": "39.7937", "lng": "-85.7738"}, {"name": "Shipshewana", "state": "IN", "lat": "41.6743", "lng": "-85.5765"}, {"name": "Fredericksburg", "state": "IN", "lat": "38.4353", "lng": "-86.1970"}, {"name": "Montpelier", "state": "IN", "lat": "40.5494", "lng": "-85.2874"}, {"name": "Greendale", "state": "IN", "lat": "39.1316", "lng": "-84.8510"}, {"name": "Homecroft", "state": "IN", "lat": "39.6696", "lng": "-86.1312"}, {"name": "Spring Lake", "state": "IN", "lat": "39.7767", "lng": "-85.8536"}, {"name": "Millhousen", "state": "IN", "lat": "39.2114", "lng": "-85.4350"}, {"name": "Taylorsville", "state": "IN", "lat": "39.2964", "lng": "-85.9503"}, {"name": "Mulberry", "state": "IN", "lat": "40.3458", "lng": "-86.6674"}, {"name": "Crane", "state": "IN", "lat": "38.8943", "lng": "-86.9012"}, {"name": "Windfall City", "state": "IN", "lat": "40.3626", "lng": "-85.9571"}, {"name": "Patriot", "state": "IN", "lat": "38.8366", "lng": "-84.8293"}, {"name": "Paoli", "state": "IN", "lat": "38.5572", "lng": "-86.4699"}, {"name": "Owensville", "state": "IN", "lat": "38.2718", "lng": "-87.6918"}, {"name": "Morocco", "state": "IN", "lat": "40.9445", "lng": "-87.4503"}, {"name": "North Salem", "state": "IN", "lat": "39.8596", "lng": "-86.6445"}, {"name": "Winfield", "state": "IN", "lat": "41.4097", "lng": "-87.2623"}, {"name": "Mount Auburn", "state": "IN", "lat": "39.8123", "lng": "-85.1905"}, {"name": "Shelburn", "state": "IN", "lat": "39.1791", "lng": "-87.3972"}, {"name": "Columbia City", "state": "IN", "lat": "41.1612", "lng": "-85.4855"}, {"name": "Dale", "state": "IN", "lat": "38.1733", "lng": "-86.9849"}, {"name": "Kirklin", "state": "IN", "lat": "40.1929", "lng": "-86.3593"}, {"name": "Hanover", "state": "IN", "lat": "38.7137", "lng": "-85.4724"}, {"name": "Roselawn", "state": "IN", "lat": "41.1535", "lng": "-87.2881"}, {"name": "Hagerstown", "state": "IN", "lat": "39.9115", "lng": "-85.1554"}, {"name": "Lafayette", "state": "IN", "lat": "40.3990", "lng": "-86.8593"}, {"name": "Buffalo", "state": "IN", "lat": "40.8880", "lng": "-86.7374"}, {"name": "Garrett", "state": "IN", "lat": "41.3526", "lng": "-85.1238"}, {"name": "Albion", "state": "IN", "lat": "41.3966", "lng": "-85.4186"}, {"name": "Whiting", "state": "IN", "lat": "41.6731", "lng": "-87.4843"}, {"name": "Burns Harbor", "state": "IN", "lat": "41.6189", "lng": "-87.1258"}, {"name": "Kentland", "state": "IN", "lat": "40.7739", "lng": "-87.4466"}, {"name": "Staunton", "state": "IN", "lat": "39.4864", "lng": "-87.1888"}, {"name": "Poseyville", "state": "IN", "lat": "38.1699", "lng": "-87.7834"}, {"name": "Kempton", "state": "IN", "lat": "40.2880", "lng": "-86.2293"}, {"name": "Waveland", "state": "IN", "lat": "39.8773", "lng": "-87.0452"}, {"name": "Bryant", "state": "IN", "lat": "40.5358", "lng": "-84.9633"}, {"name": "Wheatfield", "state": "IN", "lat": "41.1910", "lng": "-87.0526"}, {"name": "Alfordsville", "state": "IN", "lat": "38.5606", "lng": "-86.9481"}, {"name": "Cambridge City", "state": "IN", "lat": "39.8125", "lng": "-85.1703"}, {"name": "Hymera", "state": "IN", "lat": "39.1859", "lng": "-87.2989"}, {"name": "Carthage", "state": "IN", "lat": "39.7366", "lng": "-85.5715"}, {"name": "Richmond", "state": "IN", "lat": "39.8318", "lng": "-84.8904"}, {"name": "Plainville", "state": "IN", "lat": "38.8047", "lng": "-87.1517"}, {"name": "Avilla", "state": "IN", "lat": "41.3638", "lng": "-85.2317"}, {"name": "Hobart", "state": "IN", "lat": "41.5139", "lng": "-87.2729"}, {"name": "Freelandville", "state": "IN", "lat": "38.8653", "lng": "-87.3102"}, {"name": "Fortville", "state": "IN", "lat": "39.9240", "lng": "-85.8465"}, {"name": "Leavenworth", "state": "IN", "lat": "38.1994", "lng": "-86.3451"}, {"name": "Burnettsville", "state": "IN", "lat": "40.7611", "lng": "-86.5947"}, {"name": "Hudson", "state": "IN", "lat": "41.5318", "lng": "-85.0840"}, {"name": "Covington", "state": "IN", "lat": "40.1404", "lng": "-87.3911"}, {"name": "Butler", "state": "IN", "lat": "41.4274", "lng": "-84.8721"}, {"name": "Edgewood", "state": "IN", "lat": "40.1032", "lng": "-85.7374"}, {"name": "Orestes", "state": "IN", "lat": "40.2694", "lng": "-85.7277"}, {"name": "Greens Fork", "state": "IN", "lat": "39.8917", "lng": "-85.0411"}, {"name": "Harrodsburg", "state": "IN", "lat": "39.0180", "lng": "-86.5532"}, {"name": "East Germantown", "state": "IN", "lat": "39.8133", "lng": "-85.1370"}, {"name": "Reynolds", "state": "IN", "lat": "40.7492", "lng": "-86.8743"}, {"name": "Wingate", "state": "IN", "lat": "40.1723", "lng": "-87.0725"}, {"name": "Crandall", "state": "IN", "lat": "38.2880", "lng": "-86.0660"}, {"name": "Ferdinand", "state": "IN", "lat": "38.2265", "lng": "-86.8626"}, {"name": "Mount Vernon", "state": "IN", "lat": "37.9364", "lng": "-87.8955"}, {"name": "Shepardsville", "state": "IN", "lat": "39.6017", "lng": "-87.4264"}, {"name": "Parkers Settlement", "state": "IN", "lat": "38.0441", "lng": "-87.7146"}, {"name": "Portage", "state": "IN", "lat": "41.5866", "lng": "-87.1792"}, {"name": "Goshen", "state": "IN", "lat": "41.5740", "lng": "-85.8304"}, {"name": "West Lafayette", "state": "IN", "lat": "40.4433", "lng": "-86.9238"}, {"name": "Bainbridge", "state": "IN", "lat": "39.7615", "lng": "-86.8116"}, {"name": "Worthington", "state": "IN", "lat": "39.1185", "lng": "-86.9793"}, {"name": "Warren", "state": "IN", "lat": "40.6878", "lng": "-85.4249"}, {"name": "Crothersville", "state": "IN", "lat": "38.7946", "lng": "-85.8397"}, {"name": "Brook", "state": "IN", "lat": "40.8664", "lng": "-87.3653"}, {"name": "Yeoman", "state": "IN", "lat": "40.6677", "lng": "-86.7236"}, {"name": "Washington", "state": "IN", "lat": "38.6592", "lng": "-87.1721"}, {"name": "Stilesville", "state": "IN", "lat": "39.6370", "lng": "-86.6342"}, {"name": "Huntingburg", "state": "IN", "lat": "38.3009", "lng": "-86.9625"}, {"name": "Remington", "state": "IN", "lat": "40.7651", "lng": "-87.1552"}, {"name": "Laconia", "state": "IN", "lat": "38.0318", "lng": "-86.0856"}, {"name": "Ogden Dunes", "state": "IN", "lat": "41.6229", "lng": "-87.1932"}, {"name": "Terre Haute", "state": "IN", "lat": "39.4654", "lng": "-87.3763"}, {"name": "Huntington", "state": "IN", "lat": "40.8816", "lng": "-85.5054"}, {"name": "Medaryville", "state": "IN", "lat": "41.0803", "lng": "-86.8905"}, {"name": "Jamestown", "state": "IN", "lat": "39.9285", "lng": "-86.6263"}, {"name": "Cromwell", "state": "IN", "lat": "41.4033", "lng": "-85.6141"}, {"name": "Lanesville", "state": "IN", "lat": "38.2351", "lng": "-85.9859"}, {"name": "Moores Hill", "state": "IN", "lat": "39.1136", "lng": "-85.0885"}, {"name": "Koontz Lake", "state": "IN", "lat": "41.4169", "lng": "-86.4827"}, {"name": "Farmland", "state": "IN", "lat": "40.1895", "lng": "-85.1273"}, {"name": "Cadiz", "state": "IN", "lat": "39.9509", "lng": "-85.4869"}, {"name": "Austin", "state": "IN", "lat": "38.7417", "lng": "-85.8118"}, {"name": "Kingman", "state": "IN", "lat": "39.9665", "lng": "-87.2786"}, {"name": "Evansville", "state": "IN", "lat": "37.9881", "lng": "-87.5341"}, {"name": "Georgetown", "state": "IN", "lat": "38.2958", "lng": "-85.9628"}, {"name": "Seymour", "state": "IN", "lat": "38.9477", "lng": "-85.8912"}, {"name": "Argos", "state": "IN", "lat": "41.2379", "lng": "-86.2521"}, {"name": "New Whiteland", "state": "IN", "lat": "39.5617", "lng": "-86.0996"}, {"name": "Somerset", "state": "IN", "lat": "40.6695", "lng": "-85.8319"}, {"name": "Holland", "state": "IN", "lat": "38.2462", "lng": "-87.0380"}, {"name": "Westville", "state": "IN", "lat": "41.5381", "lng": "-86.9055"}, {"name": "Veedersburg", "state": "IN", "lat": "40.1128", "lng": "-87.2566"}, {"name": "Mackey", "state": "IN", "lat": "38.2520", "lng": "-87.3910"}, {"name": "Perrysville", "state": "IN", "lat": "40.0532", "lng": "-87.4360"}, {"name": "Borden", "state": "IN", "lat": "38.4699", "lng": "-85.9491"}, {"name": "North Liberty", "state": "IN", "lat": "41.5326", "lng": "-86.4279"}, {"name": "Clear Lake", "state": "IN", "lat": "41.7388", "lng": "-84.8391"}, {"name": "North Crows Nest", "state": "IN", "lat": "39.8661", "lng": "-86.1623"}, {"name": "Dune Acres", "state": "IN", "lat": "41.6448", "lng": "-87.0960"}, {"name": "Raglesville", "state": "IN", "lat": "38.8022", "lng": "-86.9622"}, {"name": "Colburn", "state": "IN", "lat": "40.5188", "lng": "-86.7125"}, {"name": "Linton", "state": "IN", "lat": "39.0357", "lng": "-87.1587"}, {"name": "Montgomery", "state": "IN", "lat": "38.6650", "lng": "-87.0473"}, {"name": "Brazil", "state": "IN", "lat": "39.5232", "lng": "-87.1243"}, {"name": "Alton", "state": "IN", "lat": "38.1211", "lng": "-86.4195"}, {"name": "Sandborn", "state": "IN", "lat": "38.8967", "lng": "-87.1849"}, {"name": "Batesville", "state": "IN", "lat": "39.2974", "lng": "-85.2139"}, {"name": "Oolitic", "state": "IN", "lat": "38.8925", "lng": "-86.5252"}, {"name": "Fowler", "state": "IN", "lat": "40.6171", "lng": "-87.3185"}, {"name": "Dunreith", "state": "IN", "lat": "39.8028", "lng": "-85.4367"}, {"name": "New Goshen", "state": "IN", "lat": "39.5830", "lng": "-87.4646"}, {"name": "Galveston", "state": "IN", "lat": "40.5772", "lng": "-86.1913"}, {"name": "Blountsville", "state": "IN", "lat": "40.0600", "lng": "-85.2383"}, {"name": "Hamlet", "state": "IN", "lat": "41.3792", "lng": "-86.5832"}, {"name": "Wolcott", "state": "IN", "lat": "40.7589", "lng": "-87.0420"}, {"name": "Springport", "state": "IN", "lat": "40.0470", "lng": "-85.3926"}, {"name": "Princeton", "state": "IN", "lat": "38.3552", "lng": "-87.5784"}, {"name": "Shelby", "state": "IN", "lat": "41.1934", "lng": "-87.3427"}, {"name": "Bourbon", "state": "IN", "lat": "41.2993", "lng": "-86.1168"}, {"name": "Hope", "state": "IN", "lat": "39.2993", "lng": "-85.7660"}, {"name": "Rossville", "state": "IN", "lat": "40.4199", "lng": "-86.5955"}, {"name": "Cicero", "state": "IN", "lat": "40.1248", "lng": "-86.0244"}, {"name": "Monon", "state": "IN", "lat": "40.8642", "lng": "-86.8787"}, {"name": "New Palestine", "state": "IN", "lat": "39.7255", "lng": "-85.8961"}, {"name": "Oldenburg", "state": "IN", "lat": "39.3387", "lng": "-85.2039"}, {"name": "Frankfort", "state": "IN", "lat": "40.2799", "lng": "-86.5180"}, {"name": "Wabash", "state": "IN", "lat": "40.8034", "lng": "-85.8301"}, {"name": "Mier", "state": "IN", "lat": "40.5748", "lng": "-85.8233"}, {"name": "Cedar Lake", "state": "IN", "lat": "41.3694", "lng": "-87.4380"}, {"name": "Francesville", "state": "IN", "lat": "40.9854", "lng": "-86.8836"}, {"name": "Salamonia", "state": "IN", "lat": "40.3818", "lng": "-84.8659"}, {"name": "Otwell", "state": "IN", "lat": "38.4565", "lng": "-87.0959"}, {"name": "Avon", "state": "IN", "lat": "39.7599", "lng": "-86.3910"}, {"name": "Burns City", "state": "IN", "lat": "38.8204", "lng": "-86.8927"}, {"name": "Huntertown", "state": "IN", "lat": "41.2157", "lng": "-85.1715"}, {"name": "Mentone", "state": "IN", "lat": "41.1740", "lng": "-86.0382"}, {"name": "Bristol", "state": "IN", "lat": "41.7184", "lng": "-85.8227"}, {"name": "Highland", "state": "IN", "lat": "41.5484", "lng": "-87.4588"}, {"name": "Union City", "state": "IN", "lat": "40.1995", "lng": "-84.8206"}, {"name": "Bargersville", "state": "IN", "lat": "39.5412", "lng": "-86.2004"}, {"name": "Fishers", "state": "IN", "lat": "39.9589", "lng": "-85.9665"}, {"name": "Atlanta", "state": "IN", "lat": "40.2134", "lng": "-86.0264"}, {"name": "Salem", "state": "IN", "lat": "38.6048", "lng": "-86.0977"}, {"name": "Eaton", "state": "IN", "lat": "40.3220", "lng": "-85.3590"}, {"name": "Boswell", "state": "IN", "lat": "40.5173", "lng": "-87.3759"}, {"name": "Van Bibber Lake", "state": "IN", "lat": "39.7292", "lng": "-86.9296"}, {"name": "Sweetser", "state": "IN", "lat": "40.5687", "lng": "-85.7663"}, {"name": "Markle", "state": "IN", "lat": "40.8274", "lng": "-85.3393"}, {"name": "Little York", "state": "IN", "lat": "38.6993", "lng": "-85.9045"}, {"name": "Utica", "state": "IN", "lat": "38.3381", "lng": "-85.6558"}, {"name": "Schererville", "state": "IN", "lat": "41.4870", "lng": "-87.4444"}, {"name": "Fairview Park", "state": "IN", "lat": "39.6821", "lng": "-87.4143"}, {"name": "Ashley", "state": "IN", "lat": "41.5214", "lng": "-85.0614"}, {"name": "English", "state": "IN", "lat": "38.3408", "lng": "-86.4592"}, {"name": "Hamilton", "state": "IN", "lat": "41.5409", "lng": "-84.9204"}, {"name": "Crows Nest", "state": "IN", "lat": "39.8566", "lng": "-86.1691"}, {"name": "Bloomfield", "state": "IN", "lat": "39.0262", "lng": "-86.9373"}, {"name": "Laurel", "state": "IN", "lat": "39.5020", "lng": "-85.1880"}, {"name": "Griffith", "state": "IN", "lat": "41.5279", "lng": "-87.4240"}, {"name": "Winchester", "state": "IN", "lat": "40.1720", "lng": "-84.9765"}, {"name": "Onward", "state": "IN", "lat": "40.6946", "lng": "-86.1952"}, {"name": "Edwardsport", "state": "IN", "lat": "38.8128", "lng": "-87.2512"}, {"name": "Knox", "state": "IN", "lat": "41.2910", "lng": "-86.6210"}, {"name": "Tennyson", "state": "IN", "lat": "38.0815", "lng": "-87.1187"}, {"name": "Hartsville", "state": "IN", "lat": "39.2669", "lng": "-85.6992"}, {"name": "Williams Creek", "state": "IN", "lat": "39.9001", "lng": "-86.1502"}, {"name": "Fontanet", "state": "IN", "lat": "39.5713", "lng": "-87.2434"}, {"name": "Ragsdale", "state": "IN", "lat": "38.7467", "lng": "-87.3241"}, {"name": "Goodland", "state": "IN", "lat": "40.7637", "lng": "-87.2952"}, {"name": "Greensboro", "state": "IN", "lat": "39.8787", "lng": "-85.4638"}, {"name": "Dubois", "state": "IN", "lat": "38.4458", "lng": "-86.7978"}, {"name": "Canaan", "state": "IN", "lat": "38.8662", "lng": "-85.2996"}, {"name": "Camden", "state": "IN", "lat": "40.6099", "lng": "-86.5392"}, {"name": "Pine Village", "state": "IN", "lat": "40.4495", "lng": "-87.2534"}, {"name": "Munster", "state": "IN", "lat": "41.5469", "lng": "-87.5040"}, {"name": "Winona Lake", "state": "IN", "lat": "41.2166", "lng": "-85.8106"}, {"name": "Knightsville", "state": "IN", "lat": "39.5253", "lng": "-87.0891"}, {"name": "Westport", "state": "IN", "lat": "39.1772", "lng": "-85.5751"}, {"name": "Newtown", "state": "IN", "lat": "40.2044", "lng": "-87.1482"}, {"name": "Memphis", "state": "IN", "lat": "38.4892", "lng": "-85.7679"}, {"name": "Lynn", "state": "IN", "lat": "40.0488", "lng": "-84.9424"}, {"name": "Riley", "state": "IN", "lat": "39.3897", "lng": "-87.3002"}, {"name": "Nappanee", "state": "IN", "lat": "41.4451", "lng": "-85.9942"}, {"name": "Russiaville", "state": "IN", "lat": "40.4185", "lng": "-86.2731"}, {"name": "Universal", "state": "IN", "lat": "39.6226", "lng": "-87.4554"}, {"name": "Larwill", "state": "IN", "lat": "41.1793", "lng": "-85.6239"}, {"name": "Palmyra", "state": "IN", "lat": "38.4081", "lng": "-86.1086"}, {"name": "Oakland City", "state": "IN", "lat": "38.3378", "lng": "-87.3493"}, {"name": "Dresser", "state": "IN", "lat": "39.4633", "lng": "-87.4240"}, {"name": "Francisco", "state": "IN", "lat": "38.3331", "lng": "-87.4475"}, {"name": "New Salisbury", "state": "IN", "lat": "38.3140", "lng": "-86.1000"}, {"name": "New Carlisle", "state": "IN", "lat": "41.7018", "lng": "-86.4917"}, {"name": "Mooresville", "state": "IN", "lat": "39.6038", "lng": "-86.3674"}, {"name": "Westfield", "state": "IN", "lat": "40.0333", "lng": "-86.1532"}]