[{"name": "Holyrood", "state": "KS", "lat": "38.5876", "lng": "-98.4120"}, {"name": "Parkerfield", "state": "KS", "lat": "37.0679", "lng": "-96.9958"}, {"name": "Caney", "state": "KS", "lat": "37.0140", "lng": "-95.9316"}, {"name": "Council Grove", "state": "KS", "lat": "38.6623", "lng": "-96.4917"}, {"name": "Mission Hills", "state": "KS", "lat": "39.0141", "lng": "-94.6172"}, {"name": "Aurora", "state": "KS", "lat": "39.4519", "lng": "-97.5297"}, {"name": "Rantoul", "state": "KS", "lat": "38.5482", "lng": "-95.1011"}, {"name": "Miltonvale", "state": "KS", "lat": "39.3497", "lng": "-97.4524"}, {"name": "Waldo", "state": "KS", "lat": "39.1200", "lng": "-98.7983"}, {"name": "Morrill", "state": "KS", "lat": "39.9293", "lng": "-95.6944"}, {"name": "Lehigh", "state": "KS", "lat": "38.3744", "lng": "-97.3024"}, {"name": "Liberty", "state": "KS", "lat": "37.1564", "lng": "-95.5977"}, {"name": "Pratt", "state": "KS", "lat": "37.6777", "lng": "-98.7465"}, {"name": "Protection", "state": "KS", "lat": "37.2004", "lng": "-99.4808"}, {"name": "Wakarusa", "state": "KS", "lat": "38.8911", "lng": "-95.6999"}, {"name": "Summerfield", "state": "KS", "lat": "39.9968", "lng": "-96.3493"}, {"name": "Paxico", "state": "KS", "lat": "39.0689", "lng": "-96.1670"}, {"name": "Whitewater", "state": "KS", "lat": "37.9636", "lng": "-97.1460"}, {"name": "Peabody", "state": "KS", "lat": "38.1683", "lng": "-97.1043"}, {"name": "Moran", "state": "KS", "lat": "37.9165", "lng": "-95.1715"}, {"name": "Burdett", "state": "KS", "lat": "38.1935", "lng": "-99.5264"}, {"name": "Hamlin", "state": "KS", "lat": "39.9155", "lng": "-95.6275"}, {"name": "Arma", "state": "KS", "lat": "37.5430", "lng": "-94.7024"}, {"name": "Labette", "state": "KS", "lat": "37.2300", "lng": "-95.1836"}, {"name": "Culver", "state": "KS", "lat": "38.9692", "lng": "-97.7591"}, {"name": "Willowbrook", "state": "KS", "lat": "38.1011", "lng": "-97.9920"}, {"name": "Tampa", "state": "KS", "lat": "38.5481", "lng": "-97.1543"}, {"name": "Kirwin", "state": "KS", "lat": "39.6694", "lng": "-99.1225"}, {"name": "Centralia", "state": "KS", "lat": "39.7242", "lng": "-96.1304"}, {"name": "Goessel", "state": "KS", "lat": "38.2470", "lng": "-97.3456"}, {"name": "St. Paul", "state": "KS", "lat": "37.5186", "lng": "-95.1742"}, {"name": "Climax", "state": "KS", "lat": "37.7191", "lng": "-96.2240"}, {"name": "Norcatur", "state": "KS", "lat": "39.8347", "lng": "-100.1888"}, {"name": "Brookville", "state": "KS", "lat": "38.7736", "lng": "-97.8645"}, {"name": "Goff", "state": "KS", "lat": "39.6643", "lng": "-95.9319"}, {"name": "Rose Hill", "state": "KS", "lat": "37.5702", "lng": "-97.1361"}, {"name": "Cawker City", "state": "KS", "lat": "39.5096", "lng": "-98.4331"}, {"name": "St. John", "state": "KS", "lat": "38.0000", "lng": "-98.7611"}, {"name": "Louisville", "state": "KS", "lat": "39.2499", "lng": "-96.3145"}, {"name": "Hillsboro", "state": "KS", "lat": "38.3527", "lng": "-97.1992"}, {"name": "Pretty Prairie", "state": "KS", "lat": "37.7800", "lng": "-98.0224"}, {"name": "Rush Center", "state": "KS", "lat": "38.4648", "lng": "-99.3108"}, {"name": "Green", "state": "KS", "lat": "39.4301", "lng": "-96.9997"}, {"name": "Menlo", "state": "KS", "lat": "39.3561", "lng": "-100.7242"}, {"name": "Westphalia", "state": "KS", "lat": "38.1818", "lng": "-95.4905"}, {"name": "Claflin", "state": "KS", "lat": "38.5245", "lng": "-98.5369"}, {"name": "Shawnee", "state": "KS", "lat": "39.0158", "lng": "-94.8076"}, {"name": "Fairway", "state": "KS", "lat": "39.0245", "lng": "-94.6287"}, {"name": "Redfield", "state": "KS", "lat": "37.8365", "lng": "-94.8820"}, {"name": "Hanston", "state": "KS", "lat": "38.1229", "lng": "-99.7126"}, {"name": "Downs", "state": "KS", "lat": "39.5046", "lng": "-98.5475"}, {"name": "Hardtner", "state": "KS", "lat": "37.0144", "lng": "-98.6492"}, {"name": "Detroit", "state": "KS", "lat": "38.9358", "lng": "-97.1246"}, {"name": "McFarland", "state": "KS", "lat": "39.0545", "lng": "-96.2381"}, {"name": "Haysville", "state": "KS", "lat": "37.5649", "lng": "-97.3527"}, {"name": "Webber", "state": "KS", "lat": "39.9343", "lng": "-98.0351"}, {"name": "Elwood", "state": "KS", "lat": "39.7518", "lng": "-94.8889"}, {"name": "Galena", "state": "KS", "lat": "37.0752", "lng": "-94.6353"}, {"name": "Independence", "state": "KS", "lat": "37.2118", "lng": "-95.7328"}, {"name": "Conway Springs", "state": "KS", "lat": "37.3899", "lng": "-97.6430"}, {"name": "Uniontown", "state": "KS", "lat": "37.8471", "lng": "-94.9757"}, {"name": "Long Island", "state": "KS", "lat": "39.9462", "lng": "-99.5341"}, {"name": "Longton", "state": "KS", "lat": "37.3779", "lng": "-96.0821"}, {"name": "Belvue", "state": "KS", "lat": "39.2164", "lng": "-96.1789"}, {"name": "Agra", "state": "KS", "lat": "39.7616", "lng": "-99.1197"}, {"name": "Emporia", "state": "KS", "lat": "38.4028", "lng": "-96.1924"}, {"name": "Danville", "state": "KS", "lat": "37.2860", "lng": "-97.8921"}, {"name": "Albert", "state": "KS", "lat": "38.4540", "lng": "-99.0112"}, {"name": "Eastborough", "state": "KS", "lat": "37.6856", "lng": "-97.2592"}, {"name": "Leoti", "state": "KS", "lat": "38.4834", "lng": "-101.3578"}, {"name": "Hays", "state": "KS", "lat": "38.8816", "lng": "-99.3219"}, {"name": "Roxbury", "state": "KS", "lat": "38.5511", "lng": "-97.4274"}, {"name": "Iuka", "state": "KS", "lat": "37.7290", "lng": "-98.7327"}, {"name": "Princeton", "state": "KS", "lat": "38.4875", "lng": "-95.2704"}, {"name": "Solomon", "state": "KS", "lat": "38.9215", "lng": "-97.3692"}, {"name": "Fort Dodge", "state": "KS", "lat": "37.7304", "lng": "-99.9370"}, {"name": "Lincolnville", "state": "KS", "lat": "38.4943", "lng": "-96.9616"}, {"name": "Concordia", "state": "KS", "lat": "39.5669", "lng": "-97.6466"}, {"name": "Harper", "state": "KS", "lat": "37.2850", "lng": "-98.0277"}, {"name": "Meade", "state": "KS", "lat": "37.2836", "lng": "-100.3430"}, {"name": "Nortonville", "state": "KS", "lat": "39.4159", "lng": "-95.3304"}, {"name": "Victoria", "state": "KS", "lat": "38.8538", "lng": "-99.1473"}, {"name": "South Hutchinson", "state": "KS", "lat": "38.0278", "lng": "-97.9428"}, {"name": "Mayfield", "state": "KS", "lat": "37.2632", "lng": "-97.5401"}, {"name": "Enterprise", "state": "KS", "lat": "38.9029", "lng": "-97.1165"}, {"name": "Mildred", "state": "KS", "lat": "38.0248", "lng": "-95.1740"}, {"name": "Reserve", "state": "KS", "lat": "39.9770", "lng": "-95.5654"}, {"name": "Dighton", "state": "KS", "lat": "38.4811", "lng": "-100.4664"}, {"name": "Lewis", "state": "KS", "lat": "37.9370", "lng": "-99.2547"}, {"name": "Pleasanton", "state": "KS", "lat": "38.1790", "lng": "-94.7053"}, {"name": "Waterville", "state": "KS", "lat": "39.6918", "lng": "-96.7470"}, {"name": "Deerfield", "state": "KS", "lat": "37.9820", "lng": "-101.1333"}, {"name": "Tonganoxie", "state": "KS", "lat": "39.1084", "lng": "-95.0829"}, {"name": "Silver Lake", "state": "KS", "lat": "39.0993", "lng": "-95.8564"}, {"name": "New Strawn", "state": "KS", "lat": "38.2622", "lng": "-95.7423"}, {"name": "Argonia", "state": "KS", "lat": "37.2679", "lng": "-97.7629"}, {"name": "Montezuma", "state": "KS", "lat": "37.5925", "lng": "-100.4502"}, {"name": "Chanute", "state": "KS", "lat": "37.6695", "lng": "-95.4621"}, {"name": "Radium", "state": "KS", "lat": "38.1738", "lng": "-98.8944"}, {"name": "Waldron", "state": "KS", "lat": "37.0018", "lng": "-98.1826"}, {"name": "Lancaster", "state": "KS", "lat": "39.5710", "lng": "-95.3037"}, {"name": "Bird City", "state": "KS", "lat": "39.7495", "lng": "-101.5328"}, {"name": "Eudora", "state": "KS", "lat": "38.9344", "lng": "-95.0956"}, {"name": "Brewster", "state": "KS", "lat": "39.3631", "lng": "-101.3771"}, {"name": "Overbrook", "state": "KS", "lat": "38.7793", "lng": "-95.5570"}, {"name": "Bunker Hill", "state": "KS", "lat": "38.8753", "lng": "-98.6989"}, {"name": "Hillsdale", "state": "KS", "lat": "38.6597", "lng": "-94.8569"}, {"name": "Courtland", "state": "KS", "lat": "39.7832", "lng": "-97.8961"}, {"name": "St. George", "state": "KS", "lat": "39.1917", "lng": "-96.4186"}, {"name": "Bucklin", "state": "KS", "lat": "37.5488", "lng": "-99.6346"}, {"name": "Greenleaf", "state": "KS", "lat": "39.7273", "lng": "-96.9800"}, {"name": "Healy", "state": "KS", "lat": "38.6030", "lng": "-100.6176"}, {"name": "Wright", "state": "KS", "lat": "37.7753", "lng": "-99.8905"}, {"name": "Junction City", "state": "KS", "lat": "39.0271", "lng": "-96.8497"}, {"name": "Riley", "state": "KS", "lat": "39.2990", "lng": "-96.8276"}, {"name": "Athol", "state": "KS", "lat": "39.7665", "lng": "-98.9198"}, {"name": "Scottsville", "state": "KS", "lat": "39.5426", "lng": "-97.9523"}, {"name": "Coldwater", "state": "KS", "lat": "37.2583", "lng": "-99.3378"}, {"name": "Bushong", "state": "KS", "lat": "38.6428", "lng": "-96.2567"}, {"name": "Oswego", "state": "KS", "lat": "37.1674", "lng": "-95.1127"}, {"name": "Sabetha", "state": "KS", "lat": "39.9137", "lng": "-95.7916"}, {"name": "Powhattan", "state": "KS", "lat": "39.7618", "lng": "-95.6341"}, {"name": "Scott City", "state": "KS", "lat": "38.4791", "lng": "-100.9023"}, {"name": "Turon", "state": "KS", "lat": "37.8075", "lng": "-98.4277"}, {"name": "Burr Oak", "state": "KS", "lat": "39.8700", "lng": "-98.3055"}, {"name": "Kansas City", "state": "KS", "lat": "39.1234", "lng": "-94.7443"}, {"name": "Lyndon", "state": "KS", "lat": "38.6118", "lng": "-95.6843"}, {"name": "Ozawkie", "state": "KS", "lat": "39.2354", "lng": "-95.4659"}, {"name": "Lucas", "state": "KS", "lat": "39.0586", "lng": "-98.5380"}, {"name": "Grandview Plaza", "state": "KS", "lat": "39.0327", "lng": "-96.7930"}, {"name": "Medicine Lodge", "state": "KS", "lat": "37.2851", "lng": "-98.5812"}, {"name": "Newton", "state": "KS", "lat": "38.0364", "lng": "-97.3463"}, {"name": "Bel Aire", "state": "KS", "lat": "37.7749", "lng": "-97.2457"}, {"name": "Denton", "state": "KS", "lat": "39.7319", "lng": "-95.2696"}, {"name": "Clay Center", "state": "KS", "lat": "39.3812", "lng": "-97.1278"}, {"name": "Altamont", "state": "KS", "lat": "37.1874", "lng": "-95.2898"}, {"name": "Herington", "state": "KS", "lat": "38.6863", "lng": "-96.8669"}, {"name": "Partridge", "state": "KS", "lat": "37.9668", "lng": "-98.0922"}, {"name": "Burns", "state": "KS", "lat": "38.0897", "lng": "-96.8877"}, {"name": "Dodge City", "state": "KS", "lat": "37.7610", "lng": "-100.0182"}, {"name": "Bluff City", "state": "KS", "lat": "37.0761", "lng": "-97.8747"}, {"name": "Basehor", "state": "KS", "lat": "39.1342", "lng": "-94.9324"}, {"name": "Blue Mound", "state": "KS", "lat": "38.0889", "lng": "-95.0100"}, {"name": "Altoona", "state": "KS", "lat": "37.5250", "lng": "-95.6614"}, {"name": "Mahaska", "state": "KS", "lat": "39.9873", "lng": "-97.3537"}, {"name": "Columbus", "state": "KS", "lat": "37.1714", "lng": "-94.8442"}, {"name": "Hutchinson", "state": "KS", "lat": "38.0671", "lng": "-97.9081"}, {"name": "Tribune", "state": "KS", "lat": "38.4720", "lng": "-101.7545"}, {"name": "Palco", "state": "KS", "lat": "39.2532", "lng": "-99.5634"}, {"name": "Virgil", "state": "KS", "lat": "37.9807", "lng": "-96.0117"}, {"name": "Ford", "state": "KS", "lat": "37.6366", "lng": "-99.7539"}, {"name": "Scammon", "state": "KS", "lat": "37.2780", "lng": "-94.8230"}, {"name": "South Haven", "state": "KS", "lat": "37.0496", "lng": "-97.4013"}, {"name": "Sun City", "state": "KS", "lat": "37.3785", "lng": "-98.9167"}, {"name": "Seneca", "state": "KS", "lat": "39.8376", "lng": "-96.0689"}, {"name": "Liberal", "state": "KS", "lat": "37.0466", "lng": "-100.9295"}, {"name": "Elkhart", "state": "KS", "lat": "37.0038", "lng": "-101.8944"}, {"name": "Everest", "state": "KS", "lat": "39.6768", "lng": "-95.4249"}, {"name": "Mount Hope", "state": "KS", "lat": "37.8735", "lng": "-97.6619"}, {"name": "Republic", "state": "KS", "lat": "39.9239", "lng": "-97.8245"}, {"name": "Liebenthal", "state": "KS", "lat": "38.6545", "lng": "-99.3202"}, {"name": "Collyer", "state": "KS", "lat": "39.0373", "lng": "-100.1186"}, {"name": "Munjor", "state": "KS", "lat": "38.8089", "lng": "-99.2674"}, {"name": "Walton", "state": "KS", "lat": "38.1193", "lng": "-97.2582"}, {"name": "Ogden", "state": "KS", "lat": "39.1127", "lng": "-96.7028"}, {"name": "Smolan", "state": "KS", "lat": "38.7381", "lng": "-97.6843"}, {"name": "Harveyville", "state": "KS", "lat": "38.7895", "lng": "-95.9626"}, {"name": "Elk City", "state": "KS", "lat": "37.2896", "lng": "-95.9099"}, {"name": "Tescott", "state": "KS", "lat": "39.0130", "lng": "-97.8781"}, {"name": "Mound Valley", "state": "KS", "lat": "37.2070", "lng": "-95.4048"}, {"name": "Marion", "state": "KS", "lat": "38.3550", "lng": "-97.0088"}, {"name": "Caldwell", "state": "KS", "lat": "37.0349", "lng": "-97.6089"}, {"name": "Burlington", "state": "KS", "lat": "38.1931", "lng": "-95.7452"}, {"name": "Edgerton", "state": "KS", "lat": "38.7749", "lng": "-94.9731"}, {"name": "Cunningham", "state": "KS", "lat": "37.6447", "lng": "-98.4311"}, {"name": "Wakefield", "state": "KS", "lat": "39.2164", "lng": "-97.0189"}, {"name": "Galva", "state": "KS", "lat": "38.3835", "lng": "-97.5381"}, {"name": "Elmdale", "state": "KS", "lat": "38.3732", "lng": "-96.6459"}, {"name": "Milton", "state": "KS", "lat": "37.4432", "lng": "-97.7694"}, {"name": "Dorrance", "state": "KS", "lat": "38.8468", "lng": "-98.5901"}, {"name": "Garden Plain", "state": "KS", "lat": "37.6631", "lng": "-97.6788"}, {"name": "Oberlin", "state": "KS", "lat": "39.8230", "lng": "-100.5308"}, {"name": "Olathe", "state": "KS", "lat": "38.8832", "lng": "-94.8198"}, {"name": "Easton", "state": "KS", "lat": "39.3451", "lng": "-95.1171"}, {"name": "Winona", "state": "KS", "lat": "39.0619", "lng": "-101.2450"}, {"name": "Arcadia", "state": "KS", "lat": "37.6409", "lng": "-94.6239"}, {"name": "Edwardsville", "state": "KS", "lat": "39.0765", "lng": "-94.8166"}, {"name": "Franklin", "state": "KS", "lat": "37.5230", "lng": "-94.6994"}, {"name": "Seward", "state": "KS", "lat": "38.1778", "lng": "-98.7943"}, {"name": "Yates Center", "state": "KS", "lat": "37.8682", "lng": "-95.7533"}, {"name": "Assaria", "state": "KS", "lat": "38.6801", "lng": "-97.6039"}, {"name": "Stockton", "state": "KS", "lat": "39.4251", "lng": "-99.2764"}, {"name": "Durham", "state": "KS", "lat": "38.4846", "lng": "-97.2269"}, {"name": "New Albany", "state": "KS", "lat": "37.5678", "lng": "-95.9363"}, {"name": "Russell", "state": "KS", "lat": "38.8878", "lng": "-98.8513"}, {"name": "Meriden", "state": "KS", "lat": "39.1897", "lng": "-95.5679"}, {"name": "Peru", "state": "KS", "lat": "37.0803", "lng": "-96.0962"}, {"name": "Milford", "state": "KS", "lat": "39.1730", "lng": "-96.9106"}, {"name": "Gove City", "state": "KS", "lat": "38.9593", "lng": "-100.4870"}, {"name": "McCune", "state": "KS", "lat": "37.3539", "lng": "-95.0193"}, {"name": "Jetmore", "state": "KS", "lat": "38.0247", "lng": "-99.9077"}, {"name": "Fulton", "state": "KS", "lat": "38.0097", "lng": "-94.7196"}, {"name": "Edna", "state": "KS", "lat": "37.0587", "lng": "-95.3592"}, {"name": "Linn Valley", "state": "KS", "lat": "38.3758", "lng": "-94.7120"}, {"name": "North Newton", "state": "KS", "lat": "38.0765", "lng": "-97.3474"}, {"name": "Holcomb", "state": "KS", "lat": "37.9864", "lng": "-100.9937"}, {"name": "Lost Springs", "state": "KS", "lat": "38.5665", "lng": "-96.9658"}, {"name": "Neosho Rapids", "state": "KS", "lat": "38.3684", "lng": "-95.9916"}, {"name": "Osborne", "state": "KS", "lat": "39.4407", "lng": "-98.6993"}, {"name": "Cassoday", "state": "KS", "lat": "38.0385", "lng": "-96.6386"}, {"name": "Spring Hill", "state": "KS", "lat": "38.7565", "lng": "-94.8200"}, {"name": "Beloit", "state": "KS", "lat": "39.4645", "lng": "-98.1083"}, {"name": "Wallace", "state": "KS", "lat": "38.9127", "lng": "-101.5930"}, {"name": "Windom", "state": "KS", "lat": "38.3842", "lng": "-97.9102"}, {"name": "Edmond", "state": "KS", "lat": "39.6271", "lng": "-99.8197"}, {"name": "Hamilton", "state": "KS", "lat": "37.9805", "lng": "-96.1639"}, {"name": "Belpre", "state": "KS", "lat": "37.9507", "lng": "-99.0998"}, {"name": "Elbing", "state": "KS", "lat": "38.0534", "lng": "-97.1283"}, {"name": "Zenda", "state": "KS", "lat": "37.4440", "lng": "-98.2819"}, {"name": "Burlingame", "state": "KS", "lat": "38.7518", "lng": "-95.8349"}, {"name": "Glen Elder", "state": "KS", "lat": "39.5002", "lng": "-98.3066"}, {"name": "Lyons", "state": "KS", "lat": "38.3462", "lng": "-98.2045"}, {"name": "Haviland", "state": "KS", "lat": "37.6175", "lng": "-99.1058"}, {"name": "Towanda", "state": "KS", "lat": "37.7954", "lng": "-96.9963"}, {"name": "Grantville", "state": "KS", "lat": "39.0807", "lng": "-95.5569"}, {"name": "Bennington", "state": "KS", "lat": "39.0333", "lng": "-97.5931"}, {"name": "Plains", "state": "KS", "lat": "37.2642", "lng": "-100.5898"}, {"name": "Moscow", "state": "KS", "lat": "37.3252", "lng": "-101.2065"}, {"name": "Hartford", "state": "KS", "lat": "38.3084", "lng": "-95.9566"}, {"name": "Corning", "state": "KS", "lat": "39.6566", "lng": "-96.0289"}, {"name": "Coats", "state": "KS", "lat": "37.5108", "lng": "-98.8253"}, {"name": "Delia", "state": "KS", "lat": "39.2395", "lng": "-95.9651"}, {"name": "Roeland Park", "state": "KS", "lat": "39.0358", "lng": "-94.6374"}, {"name": "Preston", "state": "KS", "lat": "37.7584", "lng": "-98.5578"}, {"name": "Jewell", "state": "KS", "lat": "39.6715", "lng": "-98.1525"}, {"name": "Wellsville", "state": "KS", "lat": "38.7166", "lng": "-95.0806"}, {"name": "Allen", "state": "KS", "lat": "38.6550", "lng": "-96.1696"}, {"name": "Effingham", "state": "KS", "lat": "39.5227", "lng": "-95.3969"}, {"name": "Rozel", "state": "KS", "lat": "38.1954", "lng": "-99.4032"}, {"name": "Canton", "state": "KS", "lat": "38.3857", "lng": "-97.4303"}, {"name": "Clearwater", "state": "KS", "lat": "37.5094", "lng": "-97.4975"}, {"name": "Larned", "state": "KS", "lat": "38.1834", "lng": "-99.1014"}, {"name": "Marysville", "state": "KS", "lat": "39.8431", "lng": "-96.6386"}, {"name": "Abbyville", "state": "KS", "lat": "37.9705", "lng": "-98.2029"}, {"name": "Rosalia", "state": "KS", "lat": "37.8158", "lng": "-96.6250"}, {"name": "Scandia", "state": "KS", "lat": "39.7970", "lng": "-97.7840"}, {"name": "Madison", "state": "KS", "lat": "38.1339", "lng": "-96.1372"}, {"name": "Phillipsburg", "state": "KS", "lat": "39.7512", "lng": "-99.3210"}, {"name": "Delphos", "state": "KS", "lat": "39.2744", "lng": "-97.7654"}, {"name": "Troy", "state": "KS", "lat": "39.7846", "lng": "-95.0937"}, {"name": "Timken", "state": "KS", "lat": "38.4730", "lng": "-99.1775"}, {"name": "Bern", "state": "KS", "lat": "39.9613", "lng": "-95.9713"}, {"name": "Lansing", "state": "KS", "lat": "39.2427", "lng": "-94.8951"}, {"name": "Otis", "state": "KS", "lat": "38.5348", "lng": "-99.0534"}, {"name": "Mound City", "state": "KS", "lat": "38.1327", "lng": "-94.8498"}, {"name": "Hoyt", "state": "KS", "lat": "39.2493", "lng": "-95.7081"}, {"name": "Olmitz", "state": "KS", "lat": "38.5164", "lng": "-98.9367"}, {"name": "Fairview", "state": "KS", "lat": "39.8395", "lng": "-95.7284"}, {"name": "Gem", "state": "KS", "lat": "39.4260", "lng": "-100.8973"}, {"name": "Andale", "state": "KS", "lat": "37.7914", "lng": "-97.6273"}, {"name": "Cedar Point", "state": "KS", "lat": "38.2598", "lng": "-96.8215"}, {"name": "Savonburg", "state": "KS", "lat": "37.7490", "lng": "-95.1428"}, {"name": "Bison", "state": "KS", "lat": "38.5199", "lng": "-99.1978"}, {"name": "Isabel", "state": "KS", "lat": "37.4672", "lng": "-98.5515"}, {"name": "Hunnewell", "state": "KS", "lat": "37.0041", "lng": "-97.4077"}, {"name": "Parkerville", "state": "KS", "lat": "38.7638", "lng": "-96.6614"}, {"name": "Dexter", "state": "KS", "lat": "37.1794", "lng": "-96.7160"}, {"name": "Herndon", "state": "KS", "lat": "39.9090", "lng": "-100.7859"}, {"name": "Willard", "state": "KS", "lat": "39.0941", "lng": "-95.9427"}, {"name": "Sylvan Grove", "state": "KS", "lat": "39.0123", "lng": "-98.3944"}, {"name": "Reading", "state": "KS", "lat": "38.5191", "lng": "-95.9572"}, {"name": "Clayton", "state": "KS", "lat": "39.7370", "lng": "-100.1765"}, {"name": "Morrowville", "state": "KS", "lat": "39.8452", "lng": "-97.1724"}, {"name": "Russell Springs", "state": "KS", "lat": "38.9128", "lng": "-101.1757"}, {"name": "Damar", "state": "KS", "lat": "39.3191", "lng": "-99.5844"}, {"name": "Colony", "state": "KS", "lat": "38.0712", "lng": "-95.3627"}, {"name": "Iola", "state": "KS", "lat": "37.9274", "lng": "-95.4006"}, {"name": "Olivet", "state": "KS", "lat": "38.4813", "lng": "-95.7519"}, {"name": "Howard", "state": "KS", "lat": "37.4695", "lng": "-96.2632"}, {"name": "Wamego", "state": "KS", "lat": "39.2054", "lng": "-96.3099"}, {"name": "Longford", "state": "KS", "lat": "39.1723", "lng": "-97.3285"}, {"name": "Elgin", "state": "KS", "lat": "37.0019", "lng": "-96.2806"}, {"name": "Plevna", "state": "KS", "lat": "37.9717", "lng": "-98.3095"}, {"name": "Ulysses", "state": "KS", "lat": "37.5772", "lng": "-101.3547"}, {"name": "Hoxie", "state": "KS", "lat": "39.3558", "lng": "-100.4396"}, {"name": "Sterling", "state": "KS", "lat": "38.2094", "lng": "-98.2063"}, {"name": "Belle Plaine", "state": "KS", "lat": "37.3934", "lng": "-97.2796"}, {"name": "Kickapoo Site 1", "state": "KS", "lat": "39.7145", "lng": "-95.6484"}, {"name": "Susank", "state": "KS", "lat": "38.6407", "lng": "-98.7745"}, {"name": "Lakin", "state": "KS", "lat": "37.9398", "lng": "-101.2587"}, {"name": "Kickapoo Site 5", "state": "KS", "lat": "39.6735", "lng": "-95.6842"}, {"name": "Harris", "state": "KS", "lat": "38.3206", "lng": "-95.4449"}, {"name": "Woodbine", "state": "KS", "lat": "38.7956", "lng": "-96.9594"}, {"name": "Wellington", "state": "KS", "lat": "37.2622", "lng": "-97.4281"}, {"name": "Severy", "state": "KS", "lat": "37.6220", "lng": "-96.2275"}, {"name": "Eureka", "state": "KS", "lat": "37.8260", "lng": "-96.2888"}, {"name": "New Cambria", "state": "KS", "lat": "38.8790", "lng": "-97.5066"}, {"name": "Speed", "state": "KS", "lat": "39.6765", "lng": "-99.4210"}, {"name": "McDonald", "state": "KS", "lat": "39.7847", "lng": "-101.3702"}, {"name": "Natoma", "state": "KS", "lat": "39.1887", "lng": "-99.0243"}, {"name": "Bronson", "state": "KS", "lat": "37.8958", "lng": "-95.0732"}, {"name": "Lake Quivira", "state": "KS", "lat": "39.0388", "lng": "-94.7688"}, {"name": "Englewood", "state": "KS", "lat": "37.0405", "lng": "-99.9876"}, {"name": "Beverly", "state": "KS", "lat": "39.0138", "lng": "-97.9755"}, {"name": "Pittsburg", "state": "KS", "lat": "37.4129", "lng": "-94.6984"}, {"name": "Lebanon", "state": "KS", "lat": "39.8103", "lng": "-98.5572"}, {"name": "Marquette", "state": "KS", "lat": "38.5554", "lng": "-97.8344"}, {"name": "Garnett", "state": "KS", "lat": "38.2844", "lng": "-95.2407"}, {"name": "Elsmore", "state": "KS", "lat": "37.7942", "lng": "-95.1498"}, {"name": "Ellis", "state": "KS", "lat": "38.9346", "lng": "-99.5568"}, {"name": "Willis", "state": "KS", "lat": "39.7227", "lng": "-95.5057"}, {"name": "Kismet", "state": "KS", "lat": "37.2045", "lng": "-100.7016"}, {"name": "Dresden", "state": "KS", "lat": "39.6218", "lng": "-100.4188"}, {"name": "Esbon", "state": "KS", "lat": "39.8218", "lng": "-98.4337"}, {"name": "Cullison", "state": "KS", "lat": "37.6303", "lng": "-98.9054"}, {"name": "Baxter Springs", "state": "KS", "lat": "37.0196", "lng": "-94.7351"}, {"name": "Cambridge", "state": "KS", "lat": "37.3178", "lng": "-96.6676"}, {"name": "Niotaze", "state": "KS", "lat": "37.0678", "lng": "-96.0147"}, {"name": "Stark", "state": "KS", "lat": "37.6898", "lng": "-95.1441"}, {"name": "Park City", "state": "KS", "lat": "37.8102", "lng": "-97.3255"}, {"name": "Hanover", "state": "KS", "lat": "39.8934", "lng": "-96.8762"}, {"name": "Tipton", "state": "KS", "lat": "39.3395", "lng": "-98.4709"}, {"name": "Milan", "state": "KS", "lat": "37.2573", "lng": "-97.6741"}, {"name": "Little River", "state": "KS", "lat": "38.3983", "lng": "-98.0148"}, {"name": "Minneapolis", "state": "KS", "lat": "39.1243", "lng": "-97.6997"}, {"name": "Ottawa", "state": "KS", "lat": "38.6000", "lng": "-95.2642"}, {"name": "Wheaton", "state": "KS", "lat": "39.5022", "lng": "-96.3191"}, {"name": "Udall", "state": "KS", "lat": "37.3889", "lng": "-97.1177"}, {"name": "Havana", "state": "KS", "lat": "37.0921", "lng": "-95.9419"}, {"name": "Scranton", "state": "KS", "lat": "38.7778", "lng": "-95.7402"}, {"name": "Parsons", "state": "KS", "lat": "37.3405", "lng": "-95.2959"}, {"name": "Wilroads Gardens", "state": "KS", "lat": "37.7153", "lng": "-99.9269"}, {"name": "Langdon", "state": "KS", "lat": "37.8532", "lng": "-98.3242"}, {"name": "Piqua", "state": "KS", "lat": "37.9220", "lng": "-95.5375"}, {"name": "Whiting", "state": "KS", "lat": "39.5879", "lng": "-95.6112"}, {"name": "Bassett", "state": "KS", "lat": "37.9062", "lng": "-95.4077"}, {"name": "Coolidge", "state": "KS", "lat": "38.0415", "lng": "-102.0078"}, {"name": "Cheney", "state": "KS", "lat": "37.6353", "lng": "-97.7797"}, {"name": "Mission Woods", "state": "KS", "lat": "39.0342", "lng": "-94.6107"}, {"name": "Waverly", "state": "KS", "lat": "38.3963", "lng": "-95.6048"}, {"name": "Vassar", "state": "KS", "lat": "38.6495", "lng": "-95.6114"}, {"name": "Syracuse", "state": "KS", "lat": "37.9618", "lng": "-101.7784"}, {"name": "Alma", "state": "KS", "lat": "39.0151", "lng": "-96.2871"}, {"name": "Strong City", "state": "KS", "lat": "38.3955", "lng": "-96.5369"}, {"name": "Kiowa", "state": "KS", "lat": "37.0174", "lng": "-98.4848"}, {"name": "Hepler", "state": "KS", "lat": "37.6637", "lng": "-94.9697"}, {"name": "Valley Center", "state": "KS", "lat": "37.8333", "lng": "-97.3645"}, {"name": "Neodesha", "state": "KS", "lat": "37.4242", "lng": "-95.6849"}, {"name": "Beattie", "state": "KS", "lat": "39.8624", "lng": "-96.4177"}, {"name": "Munden", "state": "KS", "lat": "39.9126", "lng": "-97.5385"}, {"name": "Wathena", "state": "KS", "lat": "39.7602", "lng": "-94.9395"}, {"name": "Norwich", "state": "KS", "lat": "37.4573", "lng": "-97.8479"}, {"name": "Soldier", "state": "KS", "lat": "39.5373", "lng": "-95.9657"}, {"name": "Florence", "state": "KS", "lat": "38.2431", "lng": "-96.9293"}, {"name": "Valley Falls", "state": "KS", "lat": "39.3408", "lng": "-95.4612"}, {"name": "WaKeeney", "state": "KS", "lat": "39.0236", "lng": "-99.8816"}, {"name": "Ramona", "state": "KS", "lat": "38.5979", "lng": "-97.0637"}, {"name": "Vining", "state": "KS", "lat": "39.5673", "lng": "-97.2936"}, {"name": "Cottonwood Falls", "state": "KS", "lat": "38.3685", "lng": "-96.5426"}, {"name": "McCracken", "state": "KS", "lat": "38.5820", "lng": "-99.5690"}, {"name": "Westmoreland", "state": "KS", "lat": "39.3943", "lng": "-96.4138"}, {"name": "Byers", "state": "KS", "lat": "37.7879", "lng": "-98.8671"}, {"name": "Galesburg", "state": "KS", "lat": "37.4721", "lng": "-95.3563"}, {"name": "Greeley", "state": "KS", "lat": "38.3677", "lng": "-95.1272"}, {"name": "Geuda Springs", "state": "KS", "lat": "37.1116", "lng": "-97.1504"}, {"name": "Robinson", "state": "KS", "lat": "39.8153", "lng": "-95.4114"}, {"name": "Osage City", "state": "KS", "lat": "38.6337", "lng": "-95.8218"}, {"name": "Copeland", "state": "KS", "lat": "37.5409", "lng": "-100.6290"}, {"name": "Johnson City", "state": "KS", "lat": "37.5699", "lng": "-101.7443"}, {"name": "Welda", "state": "KS", "lat": "38.1746", "lng": "-95.2914"}, {"name": "Mankato", "state": "KS", "lat": "39.7872", "lng": "-98.2083"}, {"name": "LeRoy", "state": "KS", "lat": "38.0863", "lng": "-95.6331"}, {"name": "Barnard", "state": "KS", "lat": "39.1892", "lng": "-98.0443"}, {"name": "Mission", "state": "KS", "lat": "39.0270", "lng": "-94.6568"}, {"name": "Auburn", "state": "KS", "lat": "38.9077", "lng": "-95.8158"}, {"name": "Logan", "state": "KS", "lat": "39.6616", "lng": "-99.5672"}, {"name": "Fort Riley", "state": "KS", "lat": "39.1111", "lng": "-96.8138"}, {"name": "El Dorado", "state": "KS", "lat": "37.8209", "lng": "-96.8614"}, {"name": "Formoso", "state": "KS", "lat": "39.7784", "lng": "-97.9926"}, {"name": "Lowell", "state": "KS", "lat": "37.0509", "lng": "-94.7032"}, {"name": "Asherville", "state": "KS", "lat": "39.4075", "lng": "-97.9733"}, {"name": "Cedar Vale", "state": "KS", "lat": "37.1061", "lng": "-96.5018"}, {"name": "Hunter", "state": "KS", "lat": "39.2350", "lng": "-98.3961"}, {"name": "Spivey", "state": "KS", "lat": "37.4484", "lng": "-98.1658"}, {"name": "Merriam", "state": "KS", "lat": "39.0186", "lng": "-94.6933"}, {"name": "Oxford", "state": "KS", "lat": "37.2741", "lng": "-97.1695"}, {"name": "Odin", "state": "KS", "lat": "38.5654", "lng": "-98.6087"}, {"name": "Mapleton", "state": "KS", "lat": "38.0155", "lng": "-94.8834"}, {"name": "St. Francis", "state": "KS", "lat": "39.7714", "lng": "-101.8015"}, {"name": "White City", "state": "KS", "lat": "38.7938", "lng": "-96.7349"}, {"name": "Kickapoo Site 2", "state": "KS", "lat": "39.7029", "lng": "-95.6495"}, {"name": "Kickapoo Site 7", "state": "KS", "lat": "39.6895", "lng": "-95.6713"}, {"name": "Randolph", "state": "KS", "lat": "39.4289", "lng": "-96.7598"}, {"name": "Mulvane", "state": "KS", "lat": "37.4788", "lng": "-97.2725"}, {"name": "Kickapoo Site 6", "state": "KS", "lat": "39.6918", "lng": "-95.6905"}, {"name": "Perry", "state": "KS", "lat": "39.0732", "lng": "-95.3866"}, {"name": "Kensington", "state": "KS", "lat": "39.7667", "lng": "-99.0329"}, {"name": "Eskridge", "state": "KS", "lat": "38.8595", "lng": "-96.1049"}, {"name": "Paradise", "state": "KS", "lat": "39.1145", "lng": "-98.9184"}, {"name": "Lawrence", "state": "KS", "lat": "38.9598", "lng": "-95.2641"}, {"name": "Randall", "state": "KS", "lat": "39.6417", "lng": "-98.0456"}, {"name": "Benedict", "state": "KS", "lat": "37.6268", "lng": "-95.7434"}, {"name": "Belleville", "state": "KS", "lat": "39.8245", "lng": "-97.6337"}, {"name": "Arlington", "state": "KS", "lat": "37.8963", "lng": "-98.1781"}, {"name": "Blue Rapids", "state": "KS", "lat": "39.6791", "lng": "-96.6593"}, {"name": "Humboldt", "state": "KS", "lat": "37.8119", "lng": "-95.4370"}, {"name": "Topeka", "state": "KS", "lat": "39.0346", "lng": "-95.6955"}, {"name": "Nickerson", "state": "KS", "lat": "38.1489", "lng": "-98.0883"}, {"name": "Kipp", "state": "KS", "lat": "38.7850", "lng": "-97.4568"}, {"name": "Park", "state": "KS", "lat": "39.1118", "lng": "-100.3616"}, {"name": "Moundridge", "state": "KS", "lat": "38.2028", "lng": "-97.5150"}, {"name": "Prescott", "state": "KS", "lat": "38.0634", "lng": "-94.6924"}, {"name": "Garfield", "state": "KS", "lat": "38.0770", "lng": "-99.2445"}, {"name": "Wilson", "state": "KS", "lat": "38.8255", "lng": "-98.4751"}, {"name": "Roseland", "state": "KS", "lat": "37.2805", "lng": "-94.8438"}, {"name": "Abilene", "state": "KS", "lat": "38.9229", "lng": "-97.2251"}, {"name": "Cherokee", "state": "KS", "lat": "37.3451", "lng": "-94.8215"}, {"name": "Burrton", "state": "KS", "lat": "38.0238", "lng": "-97.6711"}, {"name": "Smith Center", "state": "KS", "lat": "39.7749", "lng": "-98.7830"}, {"name": "Halstead", "state": "KS", "lat": "37.9999", "lng": "-97.5102"}, {"name": "Portis", "state": "KS", "lat": "39.5639", "lng": "-98.6915"}, {"name": "Sedgwick", "state": "KS", "lat": "37.9157", "lng": "-97.4215"}, {"name": "Wichita", "state": "KS", "lat": "37.6897", "lng": "-97.3441"}, {"name": "Wetmore", "state": "KS", "lat": "39.6356", "lng": "-95.8112"}, {"name": "Olsburg", "state": "KS", "lat": "39.4320", "lng": "-96.6146"}, {"name": "Colby", "state": "KS", "lat": "39.3843", "lng": "-101.0459"}, {"name": "Douglass", "state": "KS", "lat": "37.5169", "lng": "-97.0105"}, {"name": "Toronto", "state": "KS", "lat": "37.7986", "lng": "-95.9497"}, {"name": "Ingalls", "state": "KS", "lat": "37.8286", "lng": "-100.4534"}, {"name": "Atchison", "state": "KS", "lat": "39.5625", "lng": "-95.1368"}, {"name": "Hesston", "state": "KS", "lat": "38.1403", "lng": "-97.4272"}, {"name": "Louisburg", "state": "KS", "lat": "38.6203", "lng": "-94.6770"}, {"name": "Alexander", "state": "KS", "lat": "38.4693", "lng": "-99.5530"}, {"name": "Kechi", "state": "KS", "lat": "37.8235", "lng": "-97.2891"}, {"name": "Bushton", "state": "KS", "lat": "38.5122", "lng": "-98.3959"}, {"name": "Potwin", "state": "KS", "lat": "37.9388", "lng": "-97.0183"}, {"name": "Hoisington", "state": "KS", "lat": "38.5180", "lng": "-98.7773"}, {"name": "Coffeyville", "state": "KS", "lat": "37.0519", "lng": "-95.6179"}, {"name": "Fontana", "state": "KS", "lat": "38.4239", "lng": "-94.8442"}, {"name": "Mayetta", "state": "KS", "lat": "39.3386", "lng": "-95.7216"}, {"name": "Muscotah", "state": "KS", "lat": "39.5535", "lng": "-95.5204"}, {"name": "Morland", "state": "KS", "lat": "39.3489", "lng": "-100.0743"}, {"name": "Nashville", "state": "KS", "lat": "37.4385", "lng": "-98.4227"}, {"name": "Catharine", "state": "KS", "lat": "38.9302", "lng": "-99.2144"}, {"name": "Bucyrus", "state": "KS", "lat": "38.7237", "lng": "-94.7140"}, {"name": "Matfield Green", "state": "KS", "lat": "38.1595", "lng": "-96.5626"}, {"name": "White Cloud", "state": "KS", "lat": "39.9744", "lng": "-95.2991"}, {"name": "Selden", "state": "KS", "lat": "39.5415", "lng": "-100.5671"}, {"name": "Leon", "state": "KS", "lat": "37.6898", "lng": "-96.7836"}, {"name": "Gypsum", "state": "KS", "lat": "38.7058", "lng": "-97.4266"}, {"name": "Clyde", "state": "KS", "lat": "39.5918", "lng": "-97.4003"}, {"name": "Luray", "state": "KS", "lat": "39.1151", "lng": "-98.6922"}, {"name": "Gas", "state": "KS", "lat": "37.9230", "lng": "-95.3453"}, {"name": "Weskan", "state": "KS", "lat": "38.8653", "lng": "-101.9682"}, {"name": "Quinter", "state": "KS", "lat": "39.0667", "lng": "-100.2348"}, {"name": "Anthony", "state": "KS", "lat": "37.1573", "lng": "-98.0408"}, {"name": "Admire", "state": "KS", "lat": "38.6410", "lng": "-96.1020"}, {"name": "Minneola", "state": "KS", "lat": "37.4419", "lng": "-100.0132"}, {"name": "Chase", "state": "KS", "lat": "38.3551", "lng": "-98.3491"}, {"name": "Salina", "state": "KS", "lat": "38.8137", "lng": "-97.6143"}, {"name": "Barnes", "state": "KS", "lat": "39.7115", "lng": "-96.8732"}, {"name": "Holton", "state": "KS", "lat": "39.4699", "lng": "-95.7319"}, {"name": "Viola", "state": "KS", "lat": "37.4830", "lng": "-97.6445"}, {"name": "Carbondale", "state": "KS", "lat": "38.8192", "lng": "-95.6932"}, {"name": "Horton", "state": "KS", "lat": "39.6627", "lng": "-95.5327"}, {"name": "Chautauqua", "state": "KS", "lat": "37.0241", "lng": "-96.1774"}, {"name": "Lincoln Center", "state": "KS", "lat": "39.0429", "lng": "-98.1468"}, {"name": "Bartlett", "state": "KS", "lat": "37.0549", "lng": "-95.2112"}, {"name": "Leona", "state": "KS", "lat": "39.7860", "lng": "-95.3215"}, {"name": "Marienthal", "state": "KS", "lat": "38.4891", "lng": "-101.2200"}, {"name": "Great Bend", "state": "KS", "lat": "38.3593", "lng": "-98.8015"}, {"name": "La Cygne", "state": "KS", "lat": "38.3479", "lng": "-94.7613"}, {"name": "Denison", "state": "KS", "lat": "39.3938", "lng": "-95.6285"}, {"name": "Neosho Falls", "state": "KS", "lat": "38.0058", "lng": "-95.5556"}, {"name": "Gaylord", "state": "KS", "lat": "39.6464", "lng": "-98.8474"}, {"name": "Buhler", "state": "KS", "lat": "38.1383", "lng": "-97.7704"}, {"name": "Attica", "state": "KS", "lat": "37.2426", "lng": "-98.2276"}, {"name": "Havensville", "state": "KS", "lat": "39.5116", "lng": "-96.0763"}, {"name": "Girard", "state": "KS", "lat": "37.5094", "lng": "-94.8456"}, {"name": "Elk Falls", "state": "KS", "lat": "37.3734", "lng": "-96.1935"}, {"name": "La Crosse", "state": "KS", "lat": "38.5319", "lng": "-99.3095"}, {"name": "Moline", "state": "KS", "lat": "37.3638", "lng": "-96.3024"}, {"name": "Bogue", "state": "KS", "lat": "39.3594", "lng": "-99.6877"}, {"name": "Lorraine", "state": "KS", "lat": "38.5691", "lng": "-98.3173"}, {"name": "Morganville", "state": "KS", "lat": "39.4666", "lng": "-97.2038"}, {"name": "Palmer", "state": "KS", "lat": "39.6333", "lng": "-97.1400"}, {"name": "Weir", "state": "KS", "lat": "37.3083", "lng": "-94.7747"}, {"name": "Colwich", "state": "KS", "lat": "37.7818", "lng": "-97.5363"}, {"name": "Dwight", "state": "KS", "lat": "38.8449", "lng": "-96.5920"}, {"name": "Hudson", "state": "KS", "lat": "38.1045", "lng": "-98.6604"}, {"name": "Rolla", "state": "KS", "lat": "37.1179", "lng": "-101.6317"}, {"name": "Carlton", "state": "KS", "lat": "38.6866", "lng": "-97.2931"}, {"name": "Levant", "state": "KS", "lat": "39.3881", "lng": "-101.1948"}, {"name": "Hollenberg", "state": "KS", "lat": "39.9810", "lng": "-96.9919"}, {"name": "Falun", "state": "KS", "lat": "38.6747", "lng": "-97.7510"}, {"name": "Linn", "state": "KS", "lat": "39.6794", "lng": "-97.0868"}, {"name": "Mulberry", "state": "KS", "lat": "37.5562", "lng": "-94.6236"}, {"name": "Riverton", "state": "KS", "lat": "37.0733", "lng": "-94.7060"}, {"name": "Paola", "state": "KS", "lat": "38.5784", "lng": "-94.8619"}, {"name": "Chetopa", "state": "KS", "lat": "37.0376", "lng": "-95.0926"}, {"name": "Schoenchen", "state": "KS", "lat": "38.7128", "lng": "-99.3323"}, {"name": "Huron", "state": "KS", "lat": "39.6384", "lng": "-95.3512"}, {"name": "Brownell", "state": "KS", "lat": "38.6406", "lng": "-99.7443"}, {"name": "Manhattan", "state": "KS", "lat": "39.1885", "lng": "-96.6047"}, {"name": "Lane", "state": "KS", "lat": "38.4398", "lng": "-95.0817"}, {"name": "Sawyer", "state": "KS", "lat": "37.4981", "lng": "-98.6820"}, {"name": "Buffalo", "state": "KS", "lat": "37.7092", "lng": "-95.6968"}, {"name": "Grainfield", "state": "KS", "lat": "39.1142", "lng": "-100.4684"}, {"name": "Melvern", "state": "KS", "lat": "38.5072", "lng": "-95.6379"}, {"name": "Lindsborg", "state": "KS", "lat": "38.5772", "lng": "-97.6738"}, {"name": "Westwood", "state": "KS", "lat": "39.0394", "lng": "-94.6156"}, {"name": "Leonardville", "state": "KS", "lat": "39.3642", "lng": "-96.8596"}, {"name": "Dunlap", "state": "KS", "lat": "38.5763", "lng": "-96.3676"}, {"name": "Alden", "state": "KS", "lat": "38.2438", "lng": "-98.3117"}, {"name": "Onaga", "state": "KS", "lat": "39.4894", "lng": "-96.1702"}, {"name": "Kanopolis", "state": "KS", "lat": "38.7081", "lng": "-98.1581"}, {"name": "McLouth", "state": "KS", "lat": "39.1961", "lng": "-95.2084"}, {"name": "Baileyville", "state": "KS", "lat": "39.8419", "lng": "-96.1828"}, {"name": "Chicopee", "state": "KS", "lat": "37.3834", "lng": "-94.7445"}, {"name": "Richmond", "state": "KS", "lat": "38.4004", "lng": "-95.2519"}, {"name": "Plainville", "state": "KS", "lat": "39.2341", "lng": "-99.3008"}, {"name": "Hazelton", "state": "KS", "lat": "37.0894", "lng": "-98.4015"}, {"name": "Haddam", "state": "KS", "lat": "39.8554", "lng": "-97.3044"}, {"name": "Jennings", "state": "KS", "lat": "39.6806", "lng": "-100.2933"}, {"name": "Sharon Springs", "state": "KS", "lat": "38.8943", "lng": "-101.7512"}, {"name": "Leavenworth", "state": "KS", "lat": "39.3233", "lng": "-94.9244"}, {"name": "Derby", "state": "KS", "lat": "37.5571", "lng": "-97.2552"}, {"name": "Ashland", "state": "KS", "lat": "37.1868", "lng": "-99.7697"}, {"name": "De Soto", "state": "KS", "lat": "38.9687", "lng": "-94.9549"}, {"name": "Ensign", "state": "KS", "lat": "37.6531", "lng": "-100.2332"}, {"name": "Grinnell", "state": "KS", "lat": "39.1266", "lng": "-100.6312"}, {"name": "Grenola", "state": "KS", "lat": "37.3505", "lng": "-96.4494"}, {"name": "Spearville", "state": "KS", "lat": "37.8481", "lng": "-99.7548"}, {"name": "Ness City", "state": "KS", "lat": "38.4539", "lng": "-99.9049"}, {"name": "Stafford", "state": "KS", "lat": "37.9624", "lng": "-98.5996"}, {"name": "Fall River", "state": "KS", "lat": "37.6078", "lng": "-96.0285"}, {"name": "Overland Park", "state": "KS", "lat": "38.8870", "lng": "-94.6870"}, {"name": "Lenora", "state": "KS", "lat": "39.6108", "lng": "-100.0014"}, {"name": "Sublette", "state": "KS", "lat": "37.4822", "lng": "-100.8465"}, {"name": "Oak Hill", "state": "KS", "lat": "39.2465", "lng": "-97.3429"}, {"name": "Williamsburg", "state": "KS", "lat": "38.4829", "lng": "-95.4716"}, {"name": "Inman", "state": "KS", "lat": "38.2322", "lng": "-97.7715"}, {"name": "Pomona", "state": "KS", "lat": "38.6099", "lng": "-95.4523"}, {"name": "Woodston", "state": "KS", "lat": "39.4539", "lng": "-99.0980"}, {"name": "Gardner", "state": "KS", "lat": "38.8158", "lng": "-94.9300"}, {"name": "Lone Elm", "state": "KS", "lat": "38.0796", "lng": "-95.2430"}, {"name": "Chapman", "state": "KS", "lat": "38.9745", "lng": "-97.0237"}, {"name": "Hiawatha", "state": "KS", "lat": "39.8517", "lng": "-95.5381"}, {"name": "Agenda", "state": "KS", "lat": "39.7063", "lng": "-97.4325"}, {"name": "Westwood Hills", "state": "KS", "lat": "39.0389", "lng": "-94.6097"}, {"name": "Fredonia", "state": "KS", "lat": "37.5328", "lng": "-95.8223"}, {"name": "Oskaloosa", "state": "KS", "lat": "39.2158", "lng": "-95.3145"}, {"name": "La Harpe", "state": "KS", "lat": "37.9165", "lng": "-95.3023"}, {"name": "Baldwin City", "state": "KS", "lat": "38.7782", "lng": "-95.1880"}, {"name": "Quenemo", "state": "KS", "lat": "38.5801", "lng": "-95.5266"}, {"name": "Walnut", "state": "KS", "lat": "37.6018", "lng": "-95.0742"}, {"name": "Frontenac", "state": "KS", "lat": "37.4583", "lng": "-94.7018"}, {"name": "Pawnee Rock", "state": "KS", "lat": "38.2649", "lng": "-98.9823"}, {"name": "Ellinwood", "state": "KS", "lat": "38.3573", "lng": "-98.5838"}, {"name": "Washington", "state": "KS", "lat": "39.8160", "lng": "-97.0486"}, {"name": "Latham", "state": "KS", "lat": "37.5357", "lng": "-96.6427"}, {"name": "Bentley", "state": "KS", "lat": "37.8867", "lng": "-97.5144"}, {"name": "Netawaka", "state": "KS", "lat": "39.6030", "lng": "-95.7189"}, {"name": "Jamestown", "state": "KS", "lat": "39.5996", "lng": "-97.8613"}, {"name": "Galatia", "state": "KS", "lat": "38.6411", "lng": "-98.9578"}, {"name": "Hill City", "state": "KS", "lat": "39.3672", "lng": "-99.8462"}, {"name": "Prairie View", "state": "KS", "lat": "39.8321", "lng": "-99.5734"}, {"name": "Horace", "state": "KS", "lat": "38.4768", "lng": "-101.7904"}, {"name": "Macksville", "state": "KS", "lat": "37.9572", "lng": "-98.9689"}, {"name": "Kanorado", "state": "KS", "lat": "39.3366", "lng": "-102.0373"}, {"name": "Kingman", "state": "KS", "lat": "37.6477", "lng": "-98.1160"}, {"name": "Sharon", "state": "KS", "lat": "37.2498", "lng": "-98.4177"}, {"name": "Norton", "state": "KS", "lat": "39.8363", "lng": "-99.8916"}, {"name": "Haven", "state": "KS", "lat": "37.9016", "lng": "-97.7831"}, {"name": "Yoder", "state": "KS", "lat": "37.9454", "lng": "-97.8681"}, {"name": "Emmett", "state": "KS", "lat": "39.3072", "lng": "-96.0572"}, {"name": "Kickapoo Tribal Center", "state": "KS", "lat": "39.6722", "lng": "-95.6453"}, {"name": "Alta Vista", "state": "KS", "lat": "38.8628", "lng": "-96.4888"}, {"name": "Thayer", "state": "KS", "lat": "37.4851", "lng": "-95.4845"}, {"name": "Earlton", "state": "KS", "lat": "37.5873", "lng": "-95.4696"}, {"name": "Talmage", "state": "KS", "lat": "39.0269", "lng": "-97.2598"}, {"name": "Bonner Springs", "state": "KS", "lat": "39.0817", "lng": "-94.8776"}, {"name": "Alton", "state": "KS", "lat": "39.4677", "lng": "-98.9486"}, {"name": "Sedan", "state": "KS", "lat": "37.1284", "lng": "-96.1849"}, {"name": "Dearing", "state": "KS", "lat": "37.0533", "lng": "-95.6953"}, {"name": "Frederick", "state": "KS", "lat": "38.5128", "lng": "-98.2676"}, {"name": "Atwood", "state": "KS", "lat": "39.8101", "lng": "-101.0418"}, {"name": "Fowler", "state": "KS", "lat": "37.3827", "lng": "-100.1956"}, {"name": "Parker", "state": "KS", "lat": "38.3286", "lng": "-94.9898"}, {"name": "Manchester", "state": "KS", "lat": "39.0933", "lng": "-97.3201"}, {"name": "Vermillion", "state": "KS", "lat": "39.7183", "lng": "-96.2660"}, {"name": "Sylvia", "state": "KS", "lat": "37.9588", "lng": "-98.4087"}, {"name": "Hope", "state": "KS", "lat": "38.6912", "lng": "-97.0765"}, {"name": "Rossville", "state": "KS", "lat": "39.1358", "lng": "-95.9496"}, {"name": "Winfield", "state": "KS", "lat": "37.2740", "lng": "-96.9499"}, {"name": "Cuba", "state": "KS", "lat": "39.8023", "lng": "-97.4576"}, {"name": "Latimer", "state": "KS", "lat": "38.7386", "lng": "-96.8459"}, {"name": "Arkansas City", "state": "KS", "lat": "37.0726", "lng": "-97.0385"}, {"name": "Cimarron", "state": "KS", "lat": "37.8097", "lng": "-100.3450"}, {"name": "Benton", "state": "KS", "lat": "37.7882", "lng": "-97.1077"}, {"name": "Andover", "state": "KS", "lat": "37.6868", "lng": "-97.1353"}, {"name": "Offerle", "state": "KS", "lat": "37.8908", "lng": "-99.5603"}, {"name": "Goddard", "state": "KS", "lat": "37.6658", "lng": "-97.5621"}, {"name": "Glasco", "state": "KS", "lat": "39.3610", "lng": "-97.8371"}, {"name": "Frankfort", "state": "KS", "lat": "39.7040", "lng": "-96.4170"}, {"name": "Tyro", "state": "KS", "lat": "37.0375", "lng": "-95.8212"}, {"name": "Bazine", "state": "KS", "lat": "38.4463", "lng": "-99.6927"}, {"name": "Kinsley", "state": "KS", "lat": "37.9224", "lng": "-99.4114"}, {"name": "Lebo", "state": "KS", "lat": "38.4156", "lng": "-95.8619"}, {"name": "Kincaid", "state": "KS", "lat": "38.0812", "lng": "-95.1554"}, {"name": "Highland", "state": "KS", "lat": "39.8603", "lng": "-95.2649"}, {"name": "West Mineral", "state": "KS", "lat": "37.2839", "lng": "-94.9269"}, {"name": "Oakley", "state": "KS", "lat": "39.1234", "lng": "-100.8449"}, {"name": "Ellsworth", "state": "KS", "lat": "38.7326", "lng": "-98.2286"}, {"name": "Coyville", "state": "KS", "lat": "37.6872", "lng": "-95.8959"}, {"name": "Richfield", "state": "KS", "lat": "37.2653", "lng": "-101.7828"}, {"name": "Osawatomie", "state": "KS", "lat": "38.5064", "lng": "-94.9483"}, {"name": "Wilsey", "state": "KS", "lat": "38.6357", "lng": "-96.6764"}, {"name": "Atlanta", "state": "KS", "lat": "37.4358", "lng": "-96.7670"}, {"name": "Hugoton", "state": "KS", "lat": "37.1745", "lng": "-101.3447"}, {"name": "Oaklawn-Sunview", "state": "KS", "lat": "37.6084", "lng": "-97.2984"}, {"name": "Freeport", "state": "KS", "lat": "37.1989", "lng": "-97.8542"}, {"name": "Augusta", "state": "KS", "lat": "37.6955", "lng": "-96.9921"}, {"name": "Garden City", "state": "KS", "lat": "37.9754", "lng": "-100.8528"}, {"name": "Cherryvale", "state": "KS", "lat": "37.2694", "lng": "-95.5540"}, {"name": "Maple Hill", "state": "KS", "lat": "39.0855", "lng": "-96.0277"}, {"name": "Ransom", "state": "KS", "lat": "38.6362", "lng": "-99.9328"}, {"name": "Utica", "state": "KS", "lat": "38.6426", "lng": "-100.1699"}, {"name": "Raymond", "state": "KS", "lat": "38.2780", "lng": "-98.4143"}, {"name": "Linwood", "state": "KS", "lat": "39.0020", "lng": "-95.0365"}, {"name": "McPherson", "state": "KS", "lat": "38.3714", "lng": "-97.6606"}, {"name": "Oneida", "state": "KS", "lat": "39.8668", "lng": "-95.9398"}, {"name": "Narka", "state": "KS", "lat": "39.9598", "lng": "-97.4267"}, {"name": "Geneseo", "state": "KS", "lat": "38.5170", "lng": "-98.1545"}, {"name": "Rexford", "state": "KS", "lat": "39.4704", "lng": "-100.7440"}, {"name": "Olpe", "state": "KS", "lat": "38.2568", "lng": "-96.1726"}, {"name": "Almena", "state": "KS", "lat": "39.8913", "lng": "-99.7097"}, {"name": "Winchester", "state": "KS", "lat": "39.3226", "lng": "-95.2688"}, {"name": "Greensburg", "state": "KS", "lat": "37.6049", "lng": "-99.2896"}, {"name": "Gridley", "state": "KS", "lat": "38.1008", "lng": "-95.8826"}, {"name": "Manter", "state": "KS", "lat": "37.5244", "lng": "-101.8835"}, {"name": "Leawood", "state": "KS", "lat": "38.9075", "lng": "-94.6258"}, {"name": "Ada", "state": "KS", "lat": "39.1622", "lng": "-97.8860"}, {"name": "Oketo", "state": "KS", "lat": "39.9634", "lng": "-96.5987"}, {"name": "Cedar", "state": "KS", "lat": "39.6574", "lng": "-98.9401"}, {"name": "Burden", "state": "KS", "lat": "37.3151", "lng": "-96.7554"}, {"name": "Home", "state": "KS", "lat": "39.8415", "lng": "-96.5199"}, {"name": "Severance", "state": "KS", "lat": "39.7670", "lng": "-95.2493"}, {"name": "Circleville", "state": "KS", "lat": "39.5095", "lng": "-95.8555"}, {"name": "Americus", "state": "KS", "lat": "38.5066", "lng": "-96.2615"}, {"name": "Lecompton", "state": "KS", "lat": "39.0358", "lng": "-95.3929"}, {"name": "Lenexa", "state": "KS", "lat": "38.9609", "lng": "-94.8018"}, {"name": "Bendena", "state": "KS", "lat": "39.7436", "lng": "-95.1811"}, {"name": "Glade", "state": "KS", "lat": "39.6832", "lng": "-99.3115"}, {"name": "Goodland", "state": "KS", "lat": "39.3490", "lng": "-101.7142"}, {"name": "Wilmore", "state": "KS", "lat": "37.3351", "lng": "-99.2103"}, {"name": "Clifton", "state": "KS", "lat": "39.5681", "lng": "-97.2808"}, {"name": "St. Marys", "state": "KS", "lat": "39.1942", "lng": "-96.0646"}, {"name": "Maize", "state": "KS", "lat": "37.7749", "lng": "-97.4620"}, {"name": "Zurich", "state": "KS", "lat": "39.2323", "lng": "-99.4346"}, {"name": "Fort Scott", "state": "KS", "lat": "37.8283", "lng": "-94.7038"}, {"name": "Mullinville", "state": "KS", "lat": "37.5886", "lng": "-99.4756"}, {"name": "McConnell AFB", "state": "KS", "lat": "37.6252", "lng": "-97.2603"}, {"name": "Penalosa", "state": "KS", "lat": "37.7156", "lng": "-98.3202"}, {"name": "Prairie Village", "state": "KS", "lat": "38.9874", "lng": "-94.6362"}, {"name": "Erie", "state": "KS", "lat": "37.5718", "lng": "-95.2418"}, {"name": "Axtell", "state": "KS", "lat": "39.8712", "lng": "-96.2566"}, {"name": "Satanta", "state": "KS", "lat": "37.4377", "lng": "-100.9881"}, {"name": "Gorham", "state": "KS", "lat": "38.8806", "lng": "-99.0237"}, {"name": "Simpson", "state": "KS", "lat": "39.3860", "lng": "-97.9340"}]