[{"name": "Trenton", "state": "KY", "lat": "36.7225", "lng": "-87.2628"}, {"name": "Paris", "state": "KY", "lat": "38.2016", "lng": "-84.2719"}, {"name": "Audubon Park", "state": "KY", "lat": "38.2050", "lng": "-85.7270"}, {"name": "Hillview", "state": "KY", "lat": "38.0562", "lng": "-85.6847"}, {"name": "Hindman", "state": "KY", "lat": "37.3350", "lng": "-82.9819"}, {"name": "Glencoe", "state": "KY", "lat": "38.7252", "lng": "-84.8238"}, {"name": "Forest Hills", "state": "KY", "lat": "38.2157", "lng": "-85.5834"}, {"name": "Sturgis", "state": "KY", "lat": "37.5466", "lng": "-87.9878"}, {"name": "Pleasant View", "state": "KY", "lat": "36.6781", "lng": "-84.1284"}, {"name": "Gracey", "state": "KY", "lat": "36.8792", "lng": "-87.6638"}, {"name": "Pleasureville", "state": "KY", "lat": "38.3510", "lng": "-85.1121"}, {"name": "Liberty", "state": "KY", "lat": "37.3206", "lng": "-84.9285"}, {"name": "Elsmere", "state": "KY", "lat": "38.9949", "lng": "-84.6017"}, {"name": "Pineville", "state": "KY", "lat": "36.7537", "lng": "-83.7087"}, {"name": "Fox Chase", "state": "KY", "lat": "38.0460", "lng": "-85.6911"}, {"name": "Mentor", "state": "KY", "lat": "38.8900", "lng": "-84.2481"}, {"name": "Midway", "state": "KY", "lat": "38.1543", "lng": "-84.6780"}, {"name": "Brownsville", "state": "KY", "lat": "37.1952", "lng": "-86.2691"}, {"name": "Williamstown", "state": "KY", "lat": "38.6415", "lng": "-84.5675"}, {"name": "McKinney", "state": "KY", "lat": "37.4531", "lng": "-84.7578"}, {"name": "Hollyvilla", "state": "KY", "lat": "38.0929", "lng": "-85.7467"}, {"name": "Francisville", "state": "KY", "lat": "39.1067", "lng": "-84.7277"}, {"name": "Burnside", "state": "KY", "lat": "37.0110", "lng": "-84.6530"}, {"name": "Norwood", "state": "KY", "lat": "38.2521", "lng": "-85.6107"}, {"name": "Buckhorn", "state": "KY", "lat": "37.3460", "lng": "-83.4696"}, {"name": "Hustonville", "state": "KY", "lat": "37.4784", "lng": "-84.8150"}, {"name": "Bradfordsville", "state": "KY", "lat": "37.4943", "lng": "-85.1483"}, {"name": "Stanton", "state": "KY", "lat": "37.8475", "lng": "-83.8572"}, {"name": "Corbin", "state": "KY", "lat": "36.9320", "lng": "-84.1004"}, {"name": "Symsonia", "state": "KY", "lat": "36.9211", "lng": "-88.5226"}, {"name": "Loretto", "state": "KY", "lat": "37.6351", "lng": "-85.3985"}, {"name": "Goose Creek", "state": "KY", "lat": "38.2934", "lng": "-85.5906"}, {"name": "Stamping Ground", "state": "KY", "lat": "38.2697", "lng": "-84.6831"}, {"name": "Beech Grove", "state": "KY", "lat": "37.6183", "lng": "-87.3921"}, {"name": "Manor Creek", "state": "KY", "lat": "38.2981", "lng": "-85.5873"}, {"name": "Northfield", "state": "KY", "lat": "38.2857", "lng": "-85.6362"}, {"name": "Murray", "state": "KY", "lat": "36.6145", "lng": "-88.3206"}, {"name": "London", "state": "KY", "lat": "37.1209", "lng": "-84.0804"}, {"name": "Rockport", "state": "KY", "lat": "37.3359", "lng": "-86.9909"}, {"name": "Simpsonville", "state": "KY", "lat": "38.2166", "lng": "-85.3514"}, {"name": "Pathfork", "state": "KY", "lat": "36.7594", "lng": "-83.4711"}, {"name": "Plantation", "state": "KY", "lat": "38.2834", "lng": "-85.5936"}, {"name": "Shively", "state": "KY", "lat": "38.1970", "lng": "-85.8136"}, {"name": "Dunmor", "state": "KY", "lat": "37.0753", "lng": "-86.9951"}, {"name": "McCarr", "state": "KY", "lat": "37.6178", "lng": "-82.1706"}, {"name": "Newport", "state": "KY", "lat": "39.0855", "lng": "-84.4868"}, {"name": "Payne Gap", "state": "KY", "lat": "37.1508", "lng": "-82.6670"}, {"name": "Concord", "state": "KY", "lat": "38.6876", "lng": "-83.4915"}, {"name": "Hodgenville", "state": "KY", "lat": "37.5668", "lng": "-85.7353"}, {"name": "Smithfield", "state": "KY", "lat": "38.3864", "lng": "-85.2566"}, {"name": "Independence", "state": "KY", "lat": "38.9510", "lng": "-84.5492"}, {"name": "Fleming-Neon", "state": "KY", "lat": "37.1953", "lng": "-82.7047"}, {"name": "Uniontown", "state": "KY", "lat": "37.7732", "lng": "-87.9318"}, {"name": "Danville", "state": "KY", "lat": "37.6420", "lng": "-84.7769"}, {"name": "Kenvir", "state": "KY", "lat": "36.8531", "lng": "-83.1539"}, {"name": "Wallins Creek", "state": "KY", "lat": "36.8297", "lng": "-83.4174"}, {"name": "Princeton", "state": "KY", "lat": "37.1068", "lng": "-87.8854"}, {"name": "Louisville", "state": "KY", "lat": "38.1663", "lng": "-85.6485"}, {"name": "Annville", "state": "KY", "lat": "37.3255", "lng": "-83.9622"}, {"name": "Boston", "state": "KY", "lat": "37.7838", "lng": "-85.6803"}, {"name": "Livermore", "state": "KY", "lat": "37.4919", "lng": "-87.1342"}, {"name": "Nortonville", "state": "KY", "lat": "37.1860", "lng": "-87.4556"}, {"name": "Loyall", "state": "KY", "lat": "36.8527", "lng": "-83.3506"}, {"name": "Cleaton", "state": "KY", "lat": "37.2518", "lng": "-87.0903"}, {"name": "Mayfield", "state": "KY", "lat": "36.7370", "lng": "-88.6447"}, {"name": "Freeburn", "state": "KY", "lat": "37.5619", "lng": "-82.1514"}, {"name": "Cawood", "state": "KY", "lat": "36.7878", "lng": "-83.2284"}, {"name": "Dover", "state": "KY", "lat": "38.7563", "lng": "-83.8845"}, {"name": "Gamaliel", "state": "KY", "lat": "36.6402", "lng": "-85.7963"}, {"name": "Louisa", "state": "KY", "lat": "38.1079", "lng": "-82.6132"}, {"name": "River Bluff", "state": "KY", "lat": "38.3719", "lng": "-85.6040"}, {"name": "Hurstbourne", "state": "KY", "lat": "38.2380", "lng": "-85.5891"}, {"name": "Guthrie", "state": "KY", "lat": "36.6485", "lng": "-87.1739"}, {"name": "Barlow", "state": "KY", "lat": "37.0513", "lng": "-89.0446"}, {"name": "Lexington", "state": "KY", "lat": "38.0423", "lng": "-84.4587"}, {"name": "Prestonville", "state": "KY", "lat": "38.6806", "lng": "-85.1930"}, {"name": "Burkesville", "state": "KY", "lat": "36.7906", "lng": "-85.3674"}, {"name": "Dry Ridge", "state": "KY", "lat": "38.6837", "lng": "-84.6006"}, {"name": "Lancaster", "state": "KY", "lat": "37.6152", "lng": "-84.5817"}, {"name": "Farley", "state": "KY", "lat": "37.0405", "lng": "-88.5734"}, {"name": "Glasgow", "state": "KY", "lat": "37.0047", "lng": "-85.9263"}, {"name": "Falmouth", "state": "KY", "lat": "38.6708", "lng": "-84.3310"}, {"name": "Glenview Manor", "state": "KY", "lat": "38.2907", "lng": "-85.6333"}, {"name": "Morgantown", "state": "KY", "lat": "37.2173", "lng": "-86.7001"}, {"name": "Ezel", "state": "KY", "lat": "37.8920", "lng": "-83.4445"}, {"name": "Buckner", "state": "KY", "lat": "38.3867", "lng": "-85.4503"}, {"name": "Whitesville", "state": "KY", "lat": "37.6831", "lng": "-86.8698"}, {"name": "Westport", "state": "KY", "lat": "38.4874", "lng": "-85.4753"}, {"name": "Junction City", "state": "KY", "lat": "37.5854", "lng": "-84.7903"}, {"name": "Irvine", "state": "KY", "lat": "37.6969", "lng": "-83.9684"}, {"name": "Scottsville", "state": "KY", "lat": "36.7493", "lng": "-86.1966"}, {"name": "Wurtland", "state": "KY", "lat": "38.5495", "lng": "-82.7788"}, {"name": "Spring Mill", "state": "KY", "lat": "38.1436", "lng": "-85.6315"}, {"name": "Cloverport", "state": "KY", "lat": "37.8312", "lng": "-86.6304"}, {"name": "Burna", "state": "KY", "lat": "37.2456", "lng": "-88.3589"}, {"name": "Brooksville", "state": "KY", "lat": "38.6818", "lng": "-84.0666"}, {"name": "Sacramento", "state": "KY", "lat": "37.4160", "lng": "-87.2678"}, {"name": "Lyndon", "state": "KY", "lat": "38.2644", "lng": "-85.5891"}, {"name": "Farmington", "state": "KY", "lat": "36.6691", "lng": "-88.5276"}, {"name": "Worthington Hills", "state": "KY", "lat": "38.3093", "lng": "-85.5270"}, {"name": "Catlettsburg", "state": "KY", "lat": "38.4189", "lng": "-82.6024"}, {"name": "Crofton", "state": "KY", "lat": "37.0478", "lng": "-87.4843"}, {"name": "Edmonton", "state": "KY", "lat": "36.9842", "lng": "-85.6190"}, {"name": "McKee", "state": "KY", "lat": "37.4301", "lng": "-83.9860"}, {"name": "Woodlawn", "state": "KY", "lat": "39.0909", "lng": "-84.4729"}, {"name": "Hardinsburg", "state": "KY", "lat": "37.7755", "lng": "-86.4538"}, {"name": "Pryorsburg", "state": "KY", "lat": "36.6899", "lng": "-88.7124"}, {"name": "New Haven", "state": "KY", "lat": "37.6592", "lng": "-85.5884"}, {"name": "Coldiron", "state": "KY", "lat": "36.8282", "lng": "-83.4520"}, {"name": "Ironville", "state": "KY", "lat": "38.4562", "lng": "-82.6978"}, {"name": "Columbus", "state": "KY", "lat": "36.7596", "lng": "-89.1020"}, {"name": "Frenchburg", "state": "KY", "lat": "37.9542", "lng": "-83.6226"}, {"name": "Doe Valley", "state": "KY", "lat": "37.9745", "lng": "-86.1107"}, {"name": "Pine Knot", "state": "KY", "lat": "36.6648", "lng": "-84.4395"}, {"name": "South Wallins", "state": "KY", "lat": "36.8153", "lng": "-83.4045"}, {"name": "Brodhead", "state": "KY", "lat": "37.4027", "lng": "-84.4144"}, {"name": "Anthoston", "state": "KY", "lat": "37.7553", "lng": "-87.5327"}, {"name": "Masonville", "state": "KY", "lat": "37.6718", "lng": "-87.0511"}, {"name": "Crestwood", "state": "KY", "lat": "38.3356", "lng": "-85.4839"}, {"name": "Virgie", "state": "KY", "lat": "37.3323", "lng": "-82.5824"}, {"name": "Vine Grove", "state": "KY", "lat": "37.8130", "lng": "-85.9827"}, {"name": "Fort Knox", "state": "KY", "lat": "37.8915", "lng": "-85.9636"}, {"name": "Salt Lick", "state": "KY", "lat": "38.1193", "lng": "-83.6156"}, {"name": "Ravenna", "state": "KY", "lat": "37.6871", "lng": "-83.9502"}, {"name": "Jenkins", "state": "KY", "lat": "37.1826", "lng": "-82.6311"}, {"name": "Taylor Mill", "state": "KY", "lat": "39.0092", "lng": "-84.4988"}, {"name": "Bellevue", "state": "KY", "lat": "39.1011", "lng": "-84.4776"}, {"name": "Reidland", "state": "KY", "lat": "37.0086", "lng": "-88.5261"}, {"name": "Hopkinsville", "state": "KY", "lat": "36.8383", "lng": "-87.4779"}, {"name": "Lynnview", "state": "KY", "lat": "38.1791", "lng": "-85.7112"}, {"name": "Beechmont", "state": "KY", "lat": "37.1714", "lng": "-87.0364"}, {"name": "Druid Hills", "state": "KY", "lat": "38.2649", "lng": "-85.6617"}, {"name": "Marion", "state": "KY", "lat": "37.3321", "lng": "-88.0795"}, {"name": "Poplar Hills", "state": "KY", "lat": "38.1780", "lng": "-85.6931"}, {"name": "Burlington", "state": "KY", "lat": "39.0223", "lng": "-84.7217"}, {"name": "Petersburg", "state": "KY", "lat": "39.0531", "lng": "-84.8572"}, {"name": "Henderson", "state": "KY", "lat": "37.8397", "lng": "-87.5798"}, {"name": "Cave City", "state": "KY", "lat": "37.1400", "lng": "-85.9646"}, {"name": "Raywick", "state": "KY", "lat": "37.5606", "lng": "-85.4311"}, {"name": "Bedford", "state": "KY", "lat": "38.5953", "lng": "-85.3175"}, {"name": "Barbourville", "state": "KY", "lat": "36.8667", "lng": "-83.8849"}, {"name": "Lynch", "state": "KY", "lat": "36.9641", "lng": "-82.9139"}, {"name": "Sonora", "state": "KY", "lat": "37.5319", "lng": "-85.8947"}, {"name": "Cunningham", "state": "KY", "lat": "36.9081", "lng": "-88.8867"}, {"name": "Corinth", "state": "KY", "lat": "38.4997", "lng": "-84.6031"}, {"name": "Coxton", "state": "KY", "lat": "36.8581", "lng": "-83.2681"}, {"name": "Silver Grove", "state": "KY", "lat": "39.0404", "lng": "-84.3994"}, {"name": "Franklin", "state": "KY", "lat": "36.7163", "lng": "-86.5587"}, {"name": "Centertown", "state": "KY", "lat": "37.4177", "lng": "-86.9959"}, {"name": "Hardyville", "state": "KY", "lat": "37.2535", "lng": "-85.7896"}, {"name": "Meadow Vale", "state": "KY", "lat": "38.2831", "lng": "-85.5727"}, {"name": "Russell", "state": "KY", "lat": "38.5116", "lng": "-82.6996"}, {"name": "Fairfield", "state": "KY", "lat": "37.9320", "lng": "-85.3838"}, {"name": "Stearns", "state": "KY", "lat": "36.6957", "lng": "-84.4768"}, {"name": "North Middletown", "state": "KY", "lat": "38.1425", "lng": "-84.1102"}, {"name": "Crestview", "state": "KY", "lat": "39.0245", "lng": "-84.4156"}, {"name": "Science Hill", "state": "KY", "lat": "37.1740", "lng": "-84.6329"}, {"name": "Bellefonte", "state": "KY", "lat": "38.4949", "lng": "-82.6911"}, {"name": "Fulton", "state": "KY", "lat": "36.5145", "lng": "-88.8819"}, {"name": "Thornhill", "state": "KY", "lat": "38.2884", "lng": "-85.6256"}, {"name": "Lakeview Heights", "state": "KY", "lat": "38.1520", "lng": "-83.5043"}, {"name": "Springfield", "state": "KY", "lat": "37.6922", "lng": "-85.2193"}, {"name": "Breckinridge Center", "state": "KY", "lat": "37.6820", "lng": "-87.8656"}, {"name": "Onton", "state": "KY", "lat": "37.5579", "lng": "-87.4371"}, {"name": "Clinton", "state": "KY", "lat": "36.6664", "lng": "-88.9938"}, {"name": "Summersville", "state": "KY", "lat": "37.3265", "lng": "-85.5430"}, {"name": "Hickory", "state": "KY", "lat": "36.8174", "lng": "-88.6485"}, {"name": "Beechwood Village", "state": "KY", "lat": "38.2555", "lng": "-85.6295"}, {"name": "Vicco", "state": "KY", "lat": "37.2161", "lng": "-83.0609"}, {"name": "Phelps", "state": "KY", "lat": "37.5090", "lng": "-82.1605"}, {"name": "Shelbyville", "state": "KY", "lat": "38.2066", "lng": "-85.2306"}, {"name": "Carlisle", "state": "KY", "lat": "38.3162", "lng": "-84.0334"}, {"name": "Jackson", "state": "KY", "lat": "37.5589", "lng": "-83.3782"}, {"name": "California", "state": "KY", "lat": "38.9185", "lng": "-84.2636"}, {"name": "Bardwell", "state": "KY", "lat": "36.8740", "lng": "-89.0091"}, {"name": "Shepherdsville", "state": "KY", "lat": "37.9806", "lng": "-85.6999"}, {"name": "Livingston", "state": "KY", "lat": "37.2980", "lng": "-84.2157"}, {"name": "Harlan", "state": "KY", "lat": "36.8432", "lng": "-83.3184"}, {"name": "Wheatcroft", "state": "KY", "lat": "37.4893", "lng": "-87.8612"}, {"name": "South Shore", "state": "KY", "lat": "38.7224", "lng": "-82.9647"}, {"name": "Corydon", "state": "KY", "lat": "37.7403", "lng": "-87.7063"}, {"name": "Central City", "state": "KY", "lat": "37.2962", "lng": "-87.1280"}, {"name": "Marrowbone", "state": "KY", "lat": "36.8319", "lng": "-85.5053"}, {"name": "Sandy Hook", "state": "KY", "lat": "38.0929", "lng": "-83.1241"}, {"name": "South Park View", "state": "KY", "lat": "38.1184", "lng": "-85.7201"}, {"name": "Hartford", "state": "KY", "lat": "37.4506", "lng": "-86.8930"}, {"name": "Milton", "state": "KY", "lat": "38.7113", "lng": "-85.3735"}, {"name": "Southgate", "state": "KY", "lat": "39.0630", "lng": "-84.4715"}, {"name": "Prospect", "state": "KY", "lat": "38.3470", "lng": "-85.6104"}, {"name": "Allen", "state": "KY", "lat": "37.6119", "lng": "-82.7291"}, {"name": "Kevil", "state": "KY", "lat": "37.0842", "lng": "-88.8829"}, {"name": "Warsaw", "state": "KY", "lat": "38.7773", "lng": "-84.9044"}, {"name": "Nebo", "state": "KY", "lat": "37.3832", "lng": "-87.6416"}, {"name": "Belleview", "state": "KY", "lat": "38.9792", "lng": "-84.8249"}, {"name": "Middletown", "state": "KY", "lat": "38.2410", "lng": "-85.5215"}, {"name": "Eubank", "state": "KY", "lat": "37.2799", "lng": "-84.6541"}, {"name": "Houston Acres", "state": "KY", "lat": "38.2147", "lng": "-85.6142"}, {"name": "Spring Valley", "state": "KY", "lat": "38.2968", "lng": "-85.6108"}, {"name": "Rosine", "state": "KY", "lat": "37.4523", "lng": "-86.7374"}, {"name": "Meadowview Estates", "state": "KY", "lat": "38.2231", "lng": "-85.6357"}, {"name": "Hills and Dales", "state": "KY", "lat": "38.3005", "lng": "-85.6249"}, {"name": "Frankfort", "state": "KY", "lat": "38.1924", "lng": "-84.8643"}, {"name": "Robards", "state": "KY", "lat": "37.6766", "lng": "-87.5333"}, {"name": "Woodbury", "state": "KY", "lat": "37.1835", "lng": "-86.6353"}, {"name": "Woodburn", "state": "KY", "lat": "36.8421", "lng": "-86.5300"}, {"name": "Fairview", "state": "KY", "lat": "38.9978", "lng": "-84.4854"}, {"name": "Slaughters", "state": "KY", "lat": "37.4903", "lng": "-87.5020"}, {"name": "Kenton Vale", "state": "KY", "lat": "39.0514", "lng": "-84.5199"}, {"name": "Dycusburg", "state": "KY", "lat": "37.1604", "lng": "-88.1846"}, {"name": "Dexter", "state": "KY", "lat": "36.7396", "lng": "-88.2955"}, {"name": "Earlington", "state": "KY", "lat": "37.2755", "lng": "-87.5066"}, {"name": "Campbellsburg", "state": "KY", "lat": "38.5220", "lng": "-85.2195"}, {"name": "Russell Springs", "state": "KY", "lat": "37.0510", "lng": "-85.0774"}, {"name": "Berry", "state": "KY", "lat": "38.5206", "lng": "-84.3836"}, {"name": "East Bernstadt", "state": "KY", "lat": "37.1923", "lng": "-84.1209"}, {"name": "Old Brownsboro Place", "state": "KY", "lat": "38.2892", "lng": "-85.6132"}, {"name": "Ledbetter", "state": "KY", "lat": "37.0521", "lng": "-88.4966"}, {"name": "Seneca Gardens", "state": "KY", "lat": "38.2272", "lng": "-85.6772"}, {"name": "Manitou", "state": "KY", "lat": "37.3754", "lng": "-87.5782"}, {"name": "Maryhill Estates", "state": "KY", "lat": "38.2663", "lng": "-85.6532"}, {"name": "Hazel Green", "state": "KY", "lat": "37.7999", "lng": "-83.4172"}, {"name": "Blue Ridge Manor", "state": "KY", "lat": "38.2434", "lng": "-85.5647"}, {"name": "Lovelaceville", "state": "KY", "lat": "36.9673", "lng": "-88.8335"}, {"name": "Mayking", "state": "KY", "lat": "37.1335", "lng": "-82.7730"}, {"name": "Middlesborough", "state": "KY", "lat": "36.6127", "lng": "-83.7227"}, {"name": "Russellville", "state": "KY", "lat": "36.8394", "lng": "-86.8950"}, {"name": "Hendron", "state": "KY", "lat": "37.0346", "lng": "-88.6437"}, {"name": "Blandville", "state": "KY", "lat": "36.9441", "lng": "-88.9646"}, {"name": "Millersburg", "state": "KY", "lat": "38.3041", "lng": "-84.1450"}, {"name": "Hyden", "state": "KY", "lat": "37.1620", "lng": "-83.3779"}, {"name": "Pikeville", "state": "KY", "lat": "37.4807", "lng": "-82.5262"}, {"name": "Wellington", "state": "KY", "lat": "38.2168", "lng": "-85.6702"}, {"name": "Bromley", "state": "KY", "lat": "39.0801", "lng": "-84.5629"}, {"name": "Summer Shade", "state": "KY", "lat": "36.8837", "lng": "-85.7098"}, {"name": "Upton", "state": "KY", "lat": "37.4626", "lng": "-85.8990"}, {"name": "Crittenden", "state": "KY", "lat": "38.7754", "lng": "-84.6137"}, {"name": "Cayce", "state": "KY", "lat": "36.5577", "lng": "-89.0349"}, {"name": "Carrollton", "state": "KY", "lat": "38.6800", "lng": "-85.1655"}, {"name": "LaFayette", "state": "KY", "lat": "36.6599", "lng": "-87.6584"}, {"name": "Fort Thomas", "state": "KY", "lat": "39.0805", "lng": "-84.4497"}, {"name": "Clay", "state": "KY", "lat": "37.4763", "lng": "-87.8203"}, {"name": "Lebanon", "state": "KY", "lat": "37.5690", "lng": "-85.2578"}, {"name": "Wheelwright", "state": "KY", "lat": "37.3392", "lng": "-82.7186"}, {"name": "Fincastle", "state": "KY", "lat": "38.3082", "lng": "-85.5414"}, {"name": "Walton", "state": "KY", "lat": "38.8645", "lng": "-84.6122"}, {"name": "Island", "state": "KY", "lat": "37.4433", "lng": "-87.1474"}, {"name": "Crescent Springs", "state": "KY", "lat": "39.0553", "lng": "-84.5788"}, {"name": "Mount Olivet", "state": "KY", "lat": "38.5317", "lng": "-84.0358"}, {"name": "Cambridge", "state": "KY", "lat": "38.2217", "lng": "-85.6172"}, {"name": "Powderly", "state": "KY", "lat": "37.2373", "lng": "-87.1589"}, {"name": "Orchard Grass Hills", "state": "KY", "lat": "38.3234", "lng": "-85.5236"}, {"name": "Rolling Fields", "state": "KY", "lat": "38.2689", "lng": "-85.6708"}, {"name": "Morehead", "state": "KY", "lat": "38.1906", "lng": "-83.4466"}, {"name": "Park City", "state": "KY", "lat": "37.0934", "lng": "-86.0486"}, {"name": "Somerset", "state": "KY", "lat": "37.0816", "lng": "-84.6089"}, {"name": "Ewing", "state": "KY", "lat": "38.4278", "lng": "-83.8618"}, {"name": "Muldraugh", "state": "KY", "lat": "37.9367", "lng": "-85.9915"}, {"name": "Stanford", "state": "KY", "lat": "37.5350", "lng": "-84.6606"}, {"name": "Benton", "state": "KY", "lat": "36.8513", "lng": "-88.3593"}, {"name": "Ludlow", "state": "KY", "lat": "39.0904", "lng": "-84.5498"}, {"name": "Hurstbourne Acres", "state": "KY", "lat": "38.2201", "lng": "-85.5907"}, {"name": "Salem", "state": "KY", "lat": "37.2653", "lng": "-88.2410"}, {"name": "Flatwoods", "state": "KY", "lat": "38.5211", "lng": "-82.7194"}, {"name": "Bremen", "state": "KY", "lat": "37.3623", "lng": "-87.2201"}, {"name": "Oakbrook", "state": "KY", "lat": "38.9996", "lng": "-84.6797"}, {"name": "Kingsley", "state": "KY", "lat": "38.2219", "lng": "-85.6728"}, {"name": "Maytown", "state": "KY", "lat": "37.5327", "lng": "-82.7991"}, {"name": "Coldstream", "state": "KY", "lat": "38.3144", "lng": "-85.5264"}, {"name": "Glenview", "state": "KY", "lat": "38.3020", "lng": "-85.6519"}, {"name": "Whitesburg", "state": "KY", "lat": "37.1183", "lng": "-82.8230"}, {"name": "Cynthiana", "state": "KY", "lat": "38.3854", "lng": "-84.2987"}, {"name": "Waverly", "state": "KY", "lat": "37.7092", "lng": "-87.8146"}, {"name": "Lincolnshire", "state": "KY", "lat": "38.2238", "lng": "-85.6216"}, {"name": "Claryville", "state": "KY", "lat": "38.9141", "lng": "-84.4103"}, {"name": "Horse Cave", "state": "KY", "lat": "37.1738", "lng": "-85.9146"}, {"name": "Drakesboro", "state": "KY", "lat": "37.2176", "lng": "-87.0493"}, {"name": "West Liberty", "state": "KY", "lat": "37.9161", "lng": "-83.2668"}, {"name": "Fountain Run", "state": "KY", "lat": "36.7238", "lng": "-85.9561"}, {"name": "Bellemeade", "state": "KY", "lat": "38.2510", "lng": "-85.5910"}, {"name": "Greenup", "state": "KY", "lat": "38.5728", "lng": "-82.8303"}, {"name": "Magnolia", "state": "KY", "lat": "37.4502", "lng": "-85.7400"}, {"name": "Greenville", "state": "KY", "lat": "37.2120", "lng": "-87.1779"}, {"name": "Mount Washington", "state": "KY", "lat": "38.0430", "lng": "-85.5553"}, {"name": "Mays Lick", "state": "KY", "lat": "38.5169", "lng": "-83.8452"}, {"name": "Sedalia", "state": "KY", "lat": "36.6438", "lng": "-88.6049"}, {"name": "Alexandria", "state": "KY", "lat": "38.9622", "lng": "-84.3860"}, {"name": "Ekron", "state": "KY", "lat": "37.9304", "lng": "-86.1766"}, {"name": "Mackville", "state": "KY", "lat": "37.7355", "lng": "-85.0701"}, {"name": "Irvington", "state": "KY", "lat": "37.8779", "lng": "-86.2848"}, {"name": "Florence", "state": "KY", "lat": "38.9900", "lng": "-84.6471"}, {"name": "Pewee Valley", "state": "KY", "lat": "38.3106", "lng": "-85.4895"}, {"name": "Elk Creek", "state": "KY", "lat": "38.1170", "lng": "-85.3722"}, {"name": "Massac", "state": "KY", "lat": "37.0335", "lng": "-88.6859"}, {"name": "St. Charles", "state": "KY", "lat": "37.1881", "lng": "-87.5510"}, {"name": "Calvert City", "state": "KY", "lat": "37.0294", "lng": "-88.3603"}, {"name": "Crayne", "state": "KY", "lat": "37.2762", "lng": "-88.0839"}, {"name": "Bardstown", "state": "KY", "lat": "37.8174", "lng": "-85.4548"}, {"name": "New Castle", "state": "KY", "lat": "38.4334", "lng": "-85.1689"}, {"name": "Arjay", "state": "KY", "lat": "36.8061", "lng": "-83.6422"}, {"name": "Goshen", "state": "KY", "lat": "38.4027", "lng": "-85.5825"}, {"name": "Plano", "state": "KY", "lat": "36.8772", "lng": "-86.4165"}, {"name": "Blackey", "state": "KY", "lat": "37.1390", "lng": "-82.9812"}, {"name": "Crossgate", "state": "KY", "lat": "38.2793", "lng": "-85.6296"}, {"name": "Worthville", "state": "KY", "lat": "38.6098", "lng": "-85.0681"}, {"name": "Wildwood", "state": "KY", "lat": "38.2490", "lng": "-85.5747"}, {"name": "Auburn", "state": "KY", "lat": "36.8654", "lng": "-86.7107"}, {"name": "Flemingsburg", "state": "KY", "lat": "38.4236", "lng": "-83.7372"}, {"name": "Crestview Hills", "state": "KY", "lat": "39.0249", "lng": "-84.5695"}, {"name": "Villa Hills", "state": "KY", "lat": "39.0638", "lng": "-84.5947"}, {"name": "Hawesville", "state": "KY", "lat": "37.8962", "lng": "-86.7562"}, {"name": "Rockholds", "state": "KY", "lat": "36.8308", "lng": "-84.1131"}, {"name": "Berea", "state": "KY", "lat": "37.5904", "lng": "-84.2898"}, {"name": "West Point", "state": "KY", "lat": "37.9851", "lng": "-85.9557"}, {"name": "Betsy Layne", "state": "KY", "lat": "37.5541", "lng": "-82.6262"}, {"name": "Beaver Dam", "state": "KY", "lat": "37.4044", "lng": "-86.8745"}, {"name": "Riverwood", "state": "KY", "lat": "38.2830", "lng": "-85.6613"}, {"name": "St. Matthews", "state": "KY", "lat": "38.2497", "lng": "-85.6383"}, {"name": "Sadieville", "state": "KY", "lat": "38.3882", "lng": "-84.5493"}, {"name": "Fort Wright", "state": "KY", "lat": "39.0462", "lng": "-84.5362"}, {"name": "Adairville", "state": "KY", "lat": "36.6710", "lng": "-86.8561"}, {"name": "Brownsboro Village", "state": "KY", "lat": "38.2629", "lng": "-85.6659"}, {"name": "North Corbin", "state": "KY", "lat": "36.9649", "lng": "-84.0973"}, {"name": "Wilder", "state": "KY", "lat": "39.0400", "lng": "-84.4816"}, {"name": "Green Spring", "state": "KY", "lat": "38.3163", "lng": "-85.6137"}, {"name": "Hebron", "state": "KY", "lat": "39.0626", "lng": "-84.7090"}, {"name": "Arlington", "state": "KY", "lat": "36.7904", "lng": "-89.0132"}, {"name": "South Carrollton", "state": "KY", "lat": "37.3358", "lng": "-87.1401"}, {"name": "Garrison", "state": "KY", "lat": "38.6075", "lng": "-83.1834"}, {"name": "Ages", "state": "KY", "lat": "36.8569", "lng": "-83.2426"}, {"name": "Rochester", "state": "KY", "lat": "37.2093", "lng": "-86.8921"}, {"name": "Gilbertsville", "state": "KY", "lat": "37.0284", "lng": "-88.3104"}, {"name": "Spottsville", "state": "KY", "lat": "37.8564", "lng": "-87.4167"}, {"name": "Dayton", "state": "KY", "lat": "39.1128", "lng": "-84.4640"}, {"name": "Carrsville", "state": "KY", "lat": "37.3981", "lng": "-88.3754"}, {"name": "Lewisburg", "state": "KY", "lat": "36.9872", "lng": "-86.9502"}, {"name": "Diablock", "state": "KY", "lat": "37.2295", "lng": "-83.1709"}, {"name": "Heritage Creek", "state": "KY", "lat": "38.0952", "lng": "-85.6125"}, {"name": "Artemus", "state": "KY", "lat": "36.8352", "lng": "-83.8414"}, {"name": "Bloomfield", "state": "KY", "lat": "37.9122", "lng": "-85.3140"}, {"name": "Camargo", "state": "KY", "lat": "37.9970", "lng": "-83.8926"}, {"name": "McHenry", "state": "KY", "lat": "37.3794", "lng": "-86.9227"}, {"name": "Hardin", "state": "KY", "lat": "36.7652", "lng": "-88.3023"}, {"name": "Fancy Farm", "state": "KY", "lat": "36.8003", "lng": "-88.7928"}, {"name": "Dwale", "state": "KY", "lat": "37.6253", "lng": "-82.7277"}, {"name": "Sycamore", "state": "KY", "lat": "38.2468", "lng": "-85.5612"}, {"name": "Benham", "state": "KY", "lat": "36.9653", "lng": "-82.9548"}, {"name": "Hunters Hollow", "state": "KY", "lat": "38.0784", "lng": "-85.6934"}, {"name": "Dawson Springs", "state": "KY", "lat": "37.1740", "lng": "-87.6880"}, {"name": "Mockingbird Valley", "state": "KY", "lat": "38.2701", "lng": "-85.6816"}, {"name": "Beattyville", "state": "KY", "lat": "37.5862", "lng": "-83.7065"}, {"name": "Murray Hill", "state": "KY", "lat": "38.2907", "lng": "-85.5871"}, {"name": "Cold Spring", "state": "KY", "lat": "39.0130", "lng": "-84.4349"}, {"name": "Lakeside Park", "state": "KY", "lat": "39.0338", "lng": "-84.5674"}, {"name": "Sardis", "state": "KY", "lat": "38.5348", "lng": "-83.9573"}, {"name": "West Buechel", "state": "KY", "lat": "38.1950", "lng": "-85.6678"}, {"name": "Emlyn", "state": "KY", "lat": "36.7023", "lng": "-84.1418"}, {"name": "Jeff", "state": "KY", "lat": "37.2093", "lng": "-83.1395"}, {"name": "Eddyville", "state": "KY", "lat": "37.0759", "lng": "-88.0769"}, {"name": "Warfield", "state": "KY", "lat": "37.8415", "lng": "-82.4224"}, {"name": "Elkton", "state": "KY", "lat": "36.8135", "lng": "-87.1610"}, {"name": "Sanders", "state": "KY", "lat": "38.6549", "lng": "-84.9466"}, {"name": "Sebree", "state": "KY", "lat": "37.6040", "lng": "-87.5187"}, {"name": "Albany", "state": "KY", "lat": "36.6906", "lng": "-85.1353"}, {"name": "Salvisa", "state": "KY", "lat": "37.9210", "lng": "-84.8615"}, {"name": "Elkhorn City", "state": "KY", "lat": "37.3202", "lng": "-82.3522"}, {"name": "Fort Campbell North", "state": "KY", "lat": "36.6554", "lng": "-87.4658"}, {"name": "Cannonsburg", "state": "KY", "lat": "38.3806", "lng": "-82.7006"}, {"name": "Belfry", "state": "KY", "lat": "37.6194", "lng": "-82.2684"}, {"name": "Monticello", "state": "KY", "lat": "36.8404", "lng": "-84.8506"}, {"name": "Hebron Estates", "state": "KY", "lat": "38.0501", "lng": "-85.6682"}, {"name": "Oneida", "state": "KY", "lat": "37.2701", "lng": "-83.6496"}, {"name": "Lowes", "state": "KY", "lat": "36.8828", "lng": "-88.7706"}, {"name": "Cumberland", "state": "KY", "lat": "36.9824", "lng": "-82.9920"}, {"name": "Salyersville", "state": "KY", "lat": "37.7459", "lng": "-83.0646"}, {"name": "Munfordville", "state": "KY", "lat": "37.2795", "lng": "-85.8982"}, {"name": "Bancroft", "state": "KY", "lat": "38.2832", "lng": "-85.6130"}, {"name": "Elizabethtown", "state": "KY", "lat": "37.7030", "lng": "-85.8769"}, {"name": "Sparta", "state": "KY", "lat": "38.6969", "lng": "-84.9073"}, {"name": "Paintsville", "state": "KY", "lat": "37.8167", "lng": "-82.8088"}, {"name": "Wayland", "state": "KY", "lat": "37.4510", "lng": "-82.7994"}, {"name": "Dixon", "state": "KY", "lat": "37.5132", "lng": "-87.6961"}, {"name": "Wingo", "state": "KY", "lat": "36.6422", "lng": "-88.7396"}, {"name": "Vanceburg", "state": "KY", "lat": "38.5939", "lng": "-83.3212"}, {"name": "Cecilia", "state": "KY", "lat": "37.6622", "lng": "-85.9524"}, {"name": "Providence", "state": "KY", "lat": "37.3993", "lng": "-87.7509"}, {"name": "Martin", "state": "KY", "lat": "37.5668", "lng": "-82.7603"}, {"name": "Melbourne", "state": "KY", "lat": "39.0318", "lng": "-84.3708"}, {"name": "Farmers", "state": "KY", "lat": "38.1405", "lng": "-83.5414"}, {"name": "La Grange", "state": "KY", "lat": "38.3987", "lng": "-85.3750"}, {"name": "Taylorsville", "state": "KY", "lat": "38.0368", "lng": "-85.3336"}, {"name": "Erlanger", "state": "KY", "lat": "39.0109", "lng": "-84.5864"}, {"name": "Woodlawn Park", "state": "KY", "lat": "38.2615", "lng": "-85.6305"}, {"name": "Paducah", "state": "KY", "lat": "37.0711", "lng": "-88.6435"}, {"name": "Park Hills", "state": "KY", "lat": "39.0691", "lng": "-84.5312"}, {"name": "Indian Hills", "state": "KY", "lat": "38.2809", "lng": "-85.6617"}, {"name": "Briarwood", "state": "KY", "lat": "38.2780", "lng": "-85.5926"}, {"name": "Hiseville", "state": "KY", "lat": "37.1008", "lng": "-85.8149"}, {"name": "Verona", "state": "KY", "lat": "38.8122", "lng": "-84.6649"}, {"name": "Bonnieville", "state": "KY", "lat": "37.3776", "lng": "-85.9011"}, {"name": "Hanson", "state": "KY", "lat": "37.4184", "lng": "-87.4808"}, {"name": "Highland Heights", "state": "KY", "lat": "39.0355", "lng": "-84.4567"}, {"name": "Pippa Passes", "state": "KY", "lat": "37.3342", "lng": "-82.8733"}, {"name": "McRoberts", "state": "KY", "lat": "37.2132", "lng": "-82.6686"}, {"name": "Olive Hill", "state": "KY", "lat": "38.3033", "lng": "-83.1695"}, {"name": "Buffalo", "state": "KY", "lat": "37.5081", "lng": "-85.6992"}, {"name": "Monterey", "state": "KY", "lat": "38.4233", "lng": "-84.8728"}, {"name": "Mount Sterling", "state": "KY", "lat": "38.0646", "lng": "-83.9473"}, {"name": "Morganfield", "state": "KY", "lat": "37.6869", "lng": "-87.8876"}, {"name": "Windy Hills", "state": "KY", "lat": "38.2702", "lng": "-85.6378"}, {"name": "Westwood", "state": "KY", "lat": "38.2796", "lng": "-85.5842"}, {"name": "Moorland", "state": "KY", "lat": "38.2728", "lng": "-85.5800"}, {"name": "Tompkinsville", "state": "KY", "lat": "36.7012", "lng": "-85.6927"}, {"name": "Oak Grove", "state": "KY", "lat": "36.6686", "lng": "-87.4216"}, {"name": "Grand Rivers", "state": "KY", "lat": "37.0050", "lng": "-88.2330"}, {"name": "Tolu", "state": "KY", "lat": "37.4336", "lng": "-88.2454"}, {"name": "Richmond", "state": "KY", "lat": "37.7306", "lng": "-84.2926"}, {"name": "Pioneer Village", "state": "KY", "lat": "38.0599", "lng": "-85.6800"}, {"name": "Ghent", "state": "KY", "lat": "38.7340", "lng": "-85.0612"}, {"name": "St. Regis Park", "state": "KY", "lat": "38.2289", "lng": "-85.6159"}, {"name": "Ashland", "state": "KY", "lat": "38.4593", "lng": "-82.6449"}, {"name": "White Plains", "state": "KY", "lat": "37.1708", "lng": "-87.3801"}, {"name": "La Center", "state": "KY", "lat": "37.0749", "lng": "-88.9748"}, {"name": "Maysville", "state": "KY", "lat": "38.6455", "lng": "-83.7911"}, {"name": "Inez", "state": "KY", "lat": "37.8693", "lng": "-82.5399"}, {"name": "Covington", "state": "KY", "lat": "39.0334", "lng": "-84.5166"}, {"name": "Butler", "state": "KY", "lat": "38.7876", "lng": "-84.3720"}, {"name": "Parkway Village", "state": "KY", "lat": "38.2113", "lng": "-85.7381"}, {"name": "Edgewood", "state": "KY", "lat": "39.0091", "lng": "-84.5604"}, {"name": "Strathmoor Village", "state": "KY", "lat": "38.2208", "lng": "-85.6778"}, {"name": "Rolling Hills", "state": "KY", "lat": "38.2825", "lng": "-85.5784"}, {"name": "Harrodsburg", "state": "KY", "lat": "37.7654", "lng": "-84.8474"}, {"name": "Allensville", "state": "KY", "lat": "36.7163", "lng": "-87.0683"}, {"name": "Blaine", "state": "KY", "lat": "38.0272", "lng": "-82.8413"}, {"name": "Hickman", "state": "KY", "lat": "36.5650", "lng": "-89.1836"}, {"name": "Willisburg", "state": "KY", "lat": "37.8092", "lng": "-85.1208"}, {"name": "Burgin", "state": "KY", "lat": "37.7544", "lng": "-84.7632"}, {"name": "Glenview Hills", "state": "KY", "lat": "38.2951", "lng": "-85.6382"}, {"name": "Williamsburg", "state": "KY", "lat": "36.7392", "lng": "-84.1647"}, {"name": "Millstone", "state": "KY", "lat": "37.1638", "lng": "-82.7495"}, {"name": "Mount Vernon", "state": "KY", "lat": "37.3578", "lng": "-84.3431"}, {"name": "Auxier", "state": "KY", "lat": "37.7356", "lng": "-82.7661"}, {"name": "Woodland Hills", "state": "KY", "lat": "38.2393", "lng": "-85.5289"}, {"name": "Clarkson", "state": "KY", "lat": "37.4937", "lng": "-86.2259"}, {"name": "Fredonia", "state": "KY", "lat": "37.2085", "lng": "-88.0603"}, {"name": "Graymoor-Devondale", "state": "KY", "lat": "38.2733", "lng": "-85.6177"}, {"name": "Crab Orchard", "state": "KY", "lat": "37.4627", "lng": "-84.5067"}, {"name": "Grayson", "state": "KY", "lat": "38.3317", "lng": "-82.9371"}, {"name": "Flat Lick", "state": "KY", "lat": "36.8353", "lng": "-83.7598"}, {"name": "Evarts", "state": "KY", "lat": "36.8645", "lng": "-83.1926"}, {"name": "Ferguson", "state": "KY", "lat": "37.0629", "lng": "-84.5922"}, {"name": "Jeffersonville", "state": "KY", "lat": "37.9659", "lng": "-83.8320"}, {"name": "Jeffersontown", "state": "KY", "lat": "38.2048", "lng": "-85.5701"}, {"name": "Poole", "state": "KY", "lat": "37.6392", "lng": "-87.6446"}, {"name": "Caneyville", "state": "KY", "lat": "37.4241", "lng": "-86.4906"}, {"name": "Fordsville", "state": "KY", "lat": "37.6357", "lng": "-86.7171"}, {"name": "Whitley City", "state": "KY", "lat": "36.7238", "lng": "-84.4731"}, {"name": "Jamestown", "state": "KY", "lat": "36.9896", "lng": "-85.0662"}, {"name": "Cadiz", "state": "KY", "lat": "36.8696", "lng": "-87.8048"}, {"name": "Booneville", "state": "KY", "lat": "37.4719", "lng": "-83.6826"}, {"name": "Eminence", "state": "KY", "lat": "38.3637", "lng": "-85.1778"}, {"name": "Perryville", "state": "KY", "lat": "37.6494", "lng": "-84.9513"}, {"name": "Georgetown", "state": "KY", "lat": "38.2251", "lng": "-84.5481"}, {"name": "Fort Mitchell", "state": "KY", "lat": "39.0459", "lng": "-84.5563"}, {"name": "New Hope", "state": "KY", "lat": "37.6279", "lng": "-85.5067"}, {"name": "Langdon Place", "state": "KY", "lat": "38.2864", "lng": "-85.5855"}, {"name": "Meadowbrook Farm", "state": "KY", "lat": "38.2782", "lng": "-85.5748"}, {"name": "Hickory Hill", "state": "KY", "lat": "38.2877", "lng": "-85.5679"}, {"name": "High Bridge", "state": "KY", "lat": "37.8299", "lng": "-84.7096"}, {"name": "Strathmoor Manor", "state": "KY", "lat": "38.2190", "lng": "-85.6836"}, {"name": "Mortons Gap", "state": "KY", "lat": "37.2403", "lng": "-87.4667"}, {"name": "Hazel", "state": "KY", "lat": "36.5055", "lng": "-88.3253"}, {"name": "Brownsboro Farm", "state": "KY", "lat": "38.3040", "lng": "-85.5946"}, {"name": "Coal Run Village", "state": "KY", "lat": "37.5372", "lng": "-82.5578"}, {"name": "Germantown", "state": "KY", "lat": "38.6559", "lng": "-83.9643"}, {"name": "Pembroke", "state": "KY", "lat": "36.7752", "lng": "-87.3580"}, {"name": "Elizaville", "state": "KY", "lat": "38.4167", "lng": "-83.8243"}, {"name": "Smiths Grove", "state": "KY", "lat": "37.0503", "lng": "-86.2083"}, {"name": "Manchester", "state": "KY", "lat": "37.1464", "lng": "-83.7635"}, {"name": "Ten Broeck", "state": "KY", "lat": "38.2976", "lng": "-85.5806"}, {"name": "Combs", "state": "KY", "lat": "37.2684", "lng": "-83.2148"}, {"name": "Big Clifty", "state": "KY", "lat": "37.5441", "lng": "-86.1514"}, {"name": "Barbourmeade", "state": "KY", "lat": "38.2986", "lng": "-85.6009"}, {"name": "Bandana", "state": "KY", "lat": "37.1447", "lng": "-88.9418"}, {"name": "Campbellsville", "state": "KY", "lat": "37.3446", "lng": "-85.3510"}, {"name": "Bellewood", "state": "KY", "lat": "38.2608", "lng": "-85.6594"}, {"name": "Kuttawa", "state": "KY", "lat": "37.0593", "lng": "-88.1150"}, {"name": "Madisonville", "state": "KY", "lat": "37.3410", "lng": "-87.5034"}, {"name": "Worthington", "state": "KY", "lat": "38.5509", "lng": "-82.7348"}, {"name": "Calhoun", "state": "KY", "lat": "37.5412", "lng": "-87.2596"}, {"name": "Water Valley", "state": "KY", "lat": "36.5686", "lng": "-88.8102"}, {"name": "South Williamson", "state": "KY", "lat": "37.6633", "lng": "-82.2879"}, {"name": "McDowell", "state": "KY", "lat": "37.4590", "lng": "-82.7340"}, {"name": "Owingsville", "state": "KY", "lat": "38.1364", "lng": "-83.7603"}, {"name": "Radcliff", "state": "KY", "lat": "37.8205", "lng": "-85.9366"}, {"name": "Chaplin", "state": "KY", "lat": "37.8996", "lng": "-85.2195"}, {"name": "Lawrenceburg", "state": "KY", "lat": "38.0331", "lng": "-84.9031"}, {"name": "Owensboro", "state": "KY", "lat": "37.7573", "lng": "-87.1174"}, {"name": "Wickliffe", "state": "KY", "lat": "36.9658", "lng": "-89.0822"}, {"name": "Oakland", "state": "KY", "lat": "37.0468", "lng": "-86.2506"}, {"name": "Maceo", "state": "KY", "lat": "37.8624", "lng": "-86.9914"}, {"name": "Bowling Green", "state": "KY", "lat": "36.9715", "lng": "-86.4375"}, {"name": "Augusta", "state": "KY", "lat": "38.7723", "lng": "-84.0003"}, {"name": "Rineyville", "state": "KY", "lat": "37.7502", "lng": "-85.9703"}, {"name": "Norbourne Estates", "state": "KY", "lat": "38.2466", "lng": "-85.6465"}, {"name": "Richlawn", "state": "KY", "lat": "38.2547", "lng": "-85.6412"}, {"name": "Utica", "state": "KY", "lat": "37.6028", "lng": "-87.1126"}, {"name": "Hollow Creek", "state": "KY", "lat": "38.1527", "lng": "-85.6243"}, {"name": "Columbia", "state": "KY", "lat": "37.1037", "lng": "-85.3073"}, {"name": "Owenton", "state": "KY", "lat": "38.5386", "lng": "-84.8408"}, {"name": "Hazard", "state": "KY", "lat": "37.2583", "lng": "-83.1976"}, {"name": "Winchester", "state": "KY", "lat": "38.0017", "lng": "-84.1908"}, {"name": "Greensburg", "state": "KY", "lat": "37.2598", "lng": "-85.4965"}, {"name": "Douglass Hills", "state": "KY", "lat": "38.2367", "lng": "-85.5500"}, {"name": "Versailles", "state": "KY", "lat": "38.0488", "lng": "-84.7260"}, {"name": "Leitchfield", "state": "KY", "lat": "37.4862", "lng": "-86.2857"}, {"name": "Brooks", "state": "KY", "lat": "38.0656", "lng": "-85.7177"}, {"name": "Lewisport", "state": "KY", "lat": "37.9310", "lng": "-86.9027"}, {"name": "Broeck Pointe", "state": "KY", "lat": "38.2955", "lng": "-85.5856"}, {"name": "Clay City", "state": "KY", "lat": "37.8622", "lng": "-83.9275"}, {"name": "Anchorage", "state": "KY", "lat": "38.2689", "lng": "-85.5363"}, {"name": "Raceland", "state": "KY", "lat": "38.5376", "lng": "-82.7343"}, {"name": "Union", "state": "KY", "lat": "38.9473", "lng": "-84.6731"}, {"name": "Wilmore", "state": "KY", "lat": "37.8787", "lng": "-84.6544"}, {"name": "Lebanon Junction", "state": "KY", "lat": "37.8358", "lng": "-85.7243"}, {"name": "Rabbit Hash", "state": "KY", "lat": "38.9240", "lng": "-84.8503"}, {"name": "Ryland Heights", "state": "KY", "lat": "38.9701", "lng": "-84.4607"}, {"name": "Gratz", "state": "KY", "lat": "38.4718", "lng": "-84.9470"}, {"name": "Sharpsburg", "state": "KY", "lat": "38.2016", "lng": "-83.9277"}, {"name": "Prestonsburg", "state": "KY", "lat": "37.6796", "lng": "-82.7642"}, {"name": "Creekside", "state": "KY", "lat": "38.2914", "lng": "-85.5701"}, {"name": "Cerulean", "state": "KY", "lat": "36.9551", "lng": "-87.7090"}, {"name": "Plum Springs", "state": "KY", "lat": "37.0197", "lng": "-86.3823"}, {"name": "Campton", "state": "KY", "lat": "37.7353", "lng": "-83.5473"}, {"name": "Brandenburg", "state": "KY", "lat": "37.9955", "lng": "-86.1766"}, {"name": "Nicholasville", "state": "KY", "lat": "37.8904", "lng": "-84.5668"}, {"name": "Watterson Park", "state": "KY", "lat": "38.1890", "lng": "-85.6865"}, {"name": "Smithland", "state": "KY", "lat": "37.1387", "lng": "-88.4038"}]