[{"name": "Norco", "state": "LA", "lat": "29.9986", "lng": "-90.4036"}, {"name": "Homer", "state": "LA", "lat": "32.7930", "lng": "-93.0582"}, {"name": "Avondale", "state": "LA", "lat": "29.9072", "lng": "-90.1933"}, {"name": "Glencoe", "state": "LA", "lat": "29.8113", "lng": "-91.6705"}, {"name": "New Iberia", "state": "LA", "lat": "30.0049", "lng": "-91.8202"}, {"name": "Triumph", "state": "LA", "lat": "29.3443", "lng": "-89.4683"}, {"name": "Pitkin", "state": "LA", "lat": "30.9344", "lng": "-92.9268"}, {"name": "White Castle", "state": "LA", "lat": "30.1610", "lng": "-91.1495"}, {"name": "Montz", "state": "LA", "lat": "30.0168", "lng": "-90.4634"}, {"name": "Pineville", "state": "LA", "lat": "31.3414", "lng": "-92.4096"}, {"name": "Sicily Island", "state": "LA", "lat": "31.8492", "lng": "-91.6599"}, {"name": "Spokane", "state": "LA", "lat": "31.7130", "lng": "-91.4453"}, {"name": "Midway", "state": "LA", "lat": "31.6788", "lng": "-92.1493"}, {"name": "Brownsville", "state": "LA", "lat": "32.4883", "lng": "-92.1619"}, {"name": "Eastwood", "state": "LA", "lat": "32.5606", "lng": "-93.5625"}, {"name": "Ferriday", "state": "LA", "lat": "31.6343", "lng": "-91.5562"}, {"name": "Franklinton", "state": "LA", "lat": "30.8479", "lng": "-90.1459"}, {"name": "Norwood", "state": "LA", "lat": "30.9682", "lng": "-91.1125"}, {"name": "Boyce", "state": "LA", "lat": "31.3906", "lng": "-92.6699"}, {"name": "Paincourtville", "state": "LA", "lat": "29.9886", "lng": "-91.0555"}, {"name": "Ventress", "state": "LA", "lat": "30.6824", "lng": "-91.4248"}, {"name": "Siracusaville", "state": "LA", "lat": "29.6886", "lng": "-91.1522"}, {"name": "Winnfield", "state": "LA", "lat": "31.9240", "lng": "-92.6425"}, {"name": "Livonia", "state": "LA", "lat": "30.5623", "lng": "-91.5502"}, {"name": "Carencro", "state": "LA", "lat": "30.3126", "lng": "-92.0387"}, {"name": "Cut Off", "state": "LA", "lat": "29.5164", "lng": "-90.3291"}, {"name": "Bawcomville", "state": "LA", "lat": "32.4703", "lng": "-92.1736"}, {"name": "Livingston", "state": "LA", "lat": "30.4953", "lng": "-90.7467"}, {"name": "Elizabeth", "state": "LA", "lat": "30.8670", "lng": "-92.7986"}, {"name": "Albany", "state": "LA", "lat": "30.5026", "lng": "-90.5848"}, {"name": "Sikes", "state": "LA", "lat": "32.0790", "lng": "-92.4863"}, {"name": "Barataria", "state": "LA", "lat": "29.7092", "lng": "-90.1217"}, {"name": "Ringgold", "state": "LA", "lat": "32.3261", "lng": "-93.2837"}, {"name": "Opelousas", "state": "LA", "lat": "30.5280", "lng": "-92.0851"}, {"name": "Pleasure Bend", "state": "LA", "lat": "29.9205", "lng": "-90.6458"}, {"name": "New Orleans", "state": "LA", "lat": "30.0687", "lng": "-89.9288"}, {"name": "Iowa", "state": "LA", "lat": "30.2393", "lng": "-93.0128"}, {"name": "Dulac", "state": "LA", "lat": "29.3864", "lng": "-90.7081"}, {"name": "Bastrop", "state": "LA", "lat": "32.7749", "lng": "-91.9058"}, {"name": "Creola", "state": "LA", "lat": "31.4300", "lng": "-92.4829"}, {"name": "Berwick", "state": "LA", "lat": "29.7013", "lng": "-91.2377"}, {"name": "Charenton", "state": "LA", "lat": "29.8685", "lng": "-91.5388"}, {"name": "Oretta", "state": "LA", "lat": "30.5289", "lng": "-93.4391"}, {"name": "DeQuincy", "state": "LA", "lat": "30.4490", "lng": "-93.4455"}, {"name": "Brownfields", "state": "LA", "lat": "30.5467", "lng": "-91.1225"}, {"name": "Port Allen", "state": "LA", "lat": "30.4456", "lng": "-91.2098"}, {"name": "River Ridge", "state": "LA", "lat": "29.9593", "lng": "-90.2202"}, {"name": "Provencal", "state": "LA", "lat": "31.6547", "lng": "-93.1999"}, {"name": "Bonita", "state": "LA", "lat": "32.9206", "lng": "-91.6751"}, {"name": "Kinder", "state": "LA", "lat": "30.4835", "lng": "-92.8508"}, {"name": "Bayou Country Club", "state": "LA", "lat": "29.7800", "lng": "-90.7893"}, {"name": "Roseland", "state": "LA", "lat": "30.7646", "lng": "-90.5114"}, {"name": "Pearl River", "state": "LA", "lat": "30.3687", "lng": "-89.7495"}, {"name": "Sorrento", "state": "LA", "lat": "30.1828", "lng": "-90.8674"}, {"name": "Ruston", "state": "LA", "lat": "32.5329", "lng": "-92.6361"}, {"name": "Lemannville", "state": "LA", "lat": "30.1028", "lng": "-90.9239"}, {"name": "Chataignier", "state": "LA", "lat": "30.5696", "lng": "-92.3169"}, {"name": "Hammond", "state": "LA", "lat": "30.5061", "lng": "-90.4563"}, {"name": "Kraemer", "state": "LA", "lat": "29.8606", "lng": "-90.6337"}, {"name": "Singer", "state": "LA", "lat": "30.6512", "lng": "-93.4117"}, {"name": "Abbeville", "state": "LA", "lat": "29.9750", "lng": "-92.1266"}, {"name": "Reserve", "state": "LA", "lat": "30.0741", "lng": "-90.5557"}, {"name": "Hahnville", "state": "LA", "lat": "29.9641", "lng": "-90.4141"}, {"name": "Harahan", "state": "LA", "lat": "29.9374", "lng": "-90.2030"}, {"name": "Buras", "state": "LA", "lat": "29.3528", "lng": "-89.5248"}, {"name": "Poydras", "state": "LA", "lat": "29.8625", "lng": "-89.8877"}, {"name": "Milton", "state": "LA", "lat": "30.1122", "lng": "-92.0710"}, {"name": "Vinton", "state": "LA", "lat": "30.1957", "lng": "-93.5818"}, {"name": "Cecilia", "state": "LA", "lat": "30.3368", "lng": "-91.8476"}, {"name": "Watson", "state": "LA", "lat": "30.5750", "lng": "-90.9508"}, {"name": "Port Sulphur", "state": "LA", "lat": "29.5043", "lng": "-89.7202"}, {"name": "Doyline", "state": "LA", "lat": "32.5250", "lng": "-93.4118"}, {"name": "Church Point", "state": "LA", "lat": "30.4037", "lng": "-92.2145"}, {"name": "Carlyss", "state": "LA", "lat": "30.1762", "lng": "-93.3704"}, {"name": "Eunice", "state": "LA", "lat": "30.4904", "lng": "-92.4191"}, {"name": "Dubberly", "state": "LA", "lat": "32.5413", "lng": "-93.2373"}, {"name": "Bunkie", "state": "LA", "lat": "30.9540", "lng": "-92.1884"}, {"name": "Paradis", "state": "LA", "lat": "29.8680", "lng": "-90.4398"}, {"name": "Union", "state": "LA", "lat": "30.0917", "lng": "-90.8844"}, {"name": "Grosse Tete", "state": "LA", "lat": "30.4148", "lng": "-91.4395"}, {"name": "South Mansfield", "state": "LA", "lat": "32.0181", "lng": "-93.7237"}, {"name": "Junction City", "state": "LA", "lat": "33.0073", "lng": "-92.7224"}, {"name": "Oak Ridge", "state": "LA", "lat": "32.6244", "lng": "-91.7731"}, {"name": "Dubach", "state": "LA", "lat": "32.7020", "lng": "-92.6575"}, {"name": "Fort Jesup", "state": "LA", "lat": "31.6118", "lng": "-93.4077"}, {"name": "Mathews", "state": "LA", "lat": "29.6821", "lng": "-90.5559"}, {"name": "Bayou Vista", "state": "LA", "lat": "29.6912", "lng": "-91.2672"}, {"name": "Parks", "state": "LA", "lat": "30.2173", "lng": "-91.8271"}, {"name": "Gretna", "state": "LA", "lat": "29.9100", "lng": "-90.0515"}, {"name": "St. James", "state": "LA", "lat": "30.0185", "lng": "-90.8513"}, {"name": "Egan", "state": "LA", "lat": "30.2460", "lng": "-92.5135"}, {"name": "Oakdale", "state": "LA", "lat": "30.8158", "lng": "-92.6541"}, {"name": "Baton Rouge", "state": "LA", "lat": "30.4419", "lng": "-91.1310"}, {"name": "Hodge", "state": "LA", "lat": "32.2719", "lng": "-92.7303"}, {"name": "Chauvin", "state": "LA", "lat": "29.4456", "lng": "-90.5939"}, {"name": "Sarepta", "state": "LA", "lat": "32.8963", "lng": "-93.4514"}, {"name": "Melville", "state": "LA", "lat": "30.6917", "lng": "-91.7485"}, {"name": "Lawtell", "state": "LA", "lat": "30.5126", "lng": "-92.1832"}, {"name": "Broussard", "state": "LA", "lat": "30.1393", "lng": "-91.9539"}, {"name": "Converse", "state": "LA", "lat": "31.7795", "lng": "-93.7001"}, {"name": "Deville", "state": "LA", "lat": "31.3398", "lng": "-92.1389"}, {"name": "Palmetto", "state": "LA", "lat": "30.7177", "lng": "-91.9082"}, {"name": "Bernice", "state": "LA", "lat": "32.8276", "lng": "-92.6584"}, {"name": "Epps", "state": "LA", "lat": "32.6038", "lng": "-91.4814"}, {"name": "Leesville", "state": "LA", "lat": "31.1398", "lng": "-93.2741"}, {"name": "Village St. George", "state": "LA", "lat": "30.3598", "lng": "-91.0672"}, {"name": "Evergreen", "state": "LA", "lat": "30.9527", "lng": "-92.1052"}, {"name": "Welcome", "state": "LA", "lat": "30.0474", "lng": "-90.8823"}, {"name": "Bayou Gauche", "state": "LA", "lat": "29.8081", "lng": "-90.4210"}, {"name": "Anacoco", "state": "LA", "lat": "31.2545", "lng": "-93.3440"}, {"name": "Jonesville", "state": "LA", "lat": "31.6238", "lng": "-91.8300"}, {"name": "Blanchard", "state": "LA", "lat": "32.6091", "lng": "-93.8841"}, {"name": "Oil City", "state": "LA", "lat": "32.7453", "lng": "-93.9758"}, {"name": "Marion", "state": "LA", "lat": "32.8997", "lng": "-92.2405"}, {"name": "Golden Meadow", "state": "LA", "lat": "29.3876", "lng": "-90.2739"}, {"name": "Roanoke", "state": "LA", "lat": "30.2355", "lng": "-92.7481"}, {"name": "Mount Lebanon", "state": "LA", "lat": "32.5053", "lng": "-93.0499"}, {"name": "Henderson", "state": "LA", "lat": "30.3186", "lng": "-91.8039"}, {"name": "Vienna Bend", "state": "LA", "lat": "31.7372", "lng": "-93.0343"}, {"name": "Delcambre", "state": "LA", "lat": "29.9515", "lng": "-91.9917"}, {"name": "Eden Isle", "state": "LA", "lat": "30.2279", "lng": "-89.7987"}, {"name": "Elton", "state": "LA", "lat": "30.4812", "lng": "-92.6976"}, {"name": "Pierre Part", "state": "LA", "lat": "29.9555", "lng": "-91.2074"}, {"name": "Harrisonburg", "state": "LA", "lat": "31.7681", "lng": "-91.8250"}, {"name": "Belle Rose", "state": "LA", "lat": "30.0422", "lng": "-91.0498"}, {"name": "Grand Coteau", "state": "LA", "lat": "30.4202", "lng": "-92.0438"}, {"name": "Jonesboro", "state": "LA", "lat": "32.2347", "lng": "-92.7098"}, {"name": "Campti", "state": "LA", "lat": "31.8980", "lng": "-93.1158"}, {"name": "Krotz Springs", "state": "LA", "lat": "30.5323", "lng": "-91.7518"}, {"name": "Maringouin", "state": "LA", "lat": "30.4908", "lng": "-91.5187"}, {"name": "Athens", "state": "LA", "lat": "32.6580", "lng": "-93.0277"}, {"name": "Port Barre", "state": "LA", "lat": "30.5565", "lng": "-91.9565"}, {"name": "Mansfield", "state": "LA", "lat": "32.0355", "lng": "-93.7004"}, {"name": "Amelia", "state": "LA", "lat": "29.6645", "lng": "-91.1072"}, {"name": "East Hodge", "state": "LA", "lat": "32.2776", "lng": "-92.7141"}, {"name": "Rosedale", "state": "LA", "lat": "30.4429", "lng": "-91.4601"}, {"name": "Springfield", "state": "LA", "lat": "30.4255", "lng": "-90.5444"}, {"name": "Jean Lafitte", "state": "LA", "lat": "29.7496", "lng": "-90.1036"}, {"name": "Coushatta", "state": "LA", "lat": "32.0256", "lng": "-93.3406"}, {"name": "Winnsboro", "state": "LA", "lat": "32.1651", "lng": "-91.7210"}, {"name": "Brusly", "state": "LA", "lat": "30.3943", "lng": "-91.2517"}, {"name": "Ossun", "state": "LA", "lat": "30.2834", "lng": "-92.1070"}, {"name": "Metairie", "state": "LA", "lat": "29.9976", "lng": "-90.1781"}, {"name": "Mamou", "state": "LA", "lat": "30.6349", "lng": "-92.4179"}, {"name": "Downsville", "state": "LA", "lat": "32.6264", "lng": "-92.4129"}, {"name": "Houma", "state": "LA", "lat": "29.5799", "lng": "-90.7058"}, {"name": "Westwego", "state": "LA", "lat": "29.9058", "lng": "-90.1434"}, {"name": "Jena", "state": "LA", "lat": "31.6914", "lng": "-92.1298"}, {"name": "Jackson", "state": "LA", "lat": "30.8346", "lng": "-91.2080"}, {"name": "Gonzales", "state": "LA", "lat": "30.2132", "lng": "-90.9234"}, {"name": "Kilbourne", "state": "LA", "lat": "32.9971", "lng": "-91.3139"}, {"name": "Estelle", "state": "LA", "lat": "29.8447", "lng": "-90.1021"}, {"name": "Merrydale", "state": "LA", "lat": "30.4998", "lng": "-91.1081"}, {"name": "Westlake", "state": "LA", "lat": "30.2605", "lng": "-93.2636"}, {"name": "Newellton", "state": "LA", "lat": "32.0723", "lng": "-91.2390"}, {"name": "Convent", "state": "LA", "lat": "30.0132", "lng": "-90.8232"}, {"name": "Kentwood", "state": "LA", "lat": "30.9339", "lng": "-90.5153"}, {"name": "Jordan Hill", "state": "LA", "lat": "31.8591", "lng": "-92.5156"}, {"name": "Greenwood", "state": "LA", "lat": "32.4360", "lng": "-93.9636"}, {"name": "Bayou Cane", "state": "LA", "lat": "29.6244", "lng": "-90.7510"}, {"name": "Prospect", "state": "LA", "lat": "31.4488", "lng": "-92.4969"}, {"name": "Hornbeck", "state": "LA", "lat": "31.3265", "lng": "-93.3960"}, {"name": "Castor", "state": "LA", "lat": "32.2549", "lng": "-93.1660"}, {"name": "Jefferson", "state": "LA", "lat": "29.9609", "lng": "-90.1553"}, {"name": "North Hodge", "state": "LA", "lat": "32.2845", "lng": "-92.7171"}, {"name": "Urania", "state": "LA", "lat": "31.8639", "lng": "-92.2913"}, {"name": "Oak Hills Place", "state": "LA", "lat": "30.3690", "lng": "-91.0887"}, {"name": "Sunset", "state": "LA", "lat": "30.4083", "lng": "-92.0640"}, {"name": "Tallulah", "state": "LA", "lat": "32.4067", "lng": "-91.1915"}, {"name": "Glenmora", "state": "LA", "lat": "30.9733", "lng": "-92.5824"}, {"name": "Harvey", "state": "LA", "lat": "29.8876", "lng": "-90.0666"}, {"name": "Cheneyville", "state": "LA", "lat": "31.0110", "lng": "-92.2900"}, {"name": "Scott", "state": "LA", "lat": "30.2399", "lng": "-92.0947"}, {"name": "Stanley", "state": "LA", "lat": "31.9608", "lng": "-93.8995"}, {"name": "Dixie Inn", "state": "LA", "lat": "32.5969", "lng": "-93.3314"}, {"name": "West Monroe", "state": "LA", "lat": "32.5120", "lng": "-92.1513"}, {"name": "Dry Prong", "state": "LA", "lat": "31.5806", "lng": "-92.5305"}, {"name": "McNary", "state": "LA", "lat": "30.9895", "lng": "-92.5794"}, {"name": "Tullos", "state": "LA", "lat": "31.8188", "lng": "-92.3292"}, {"name": "Haynesville", "state": "LA", "lat": "32.9667", "lng": "-93.1376"}, {"name": "Simsboro", "state": "LA", "lat": "32.5323", "lng": "-92.7839"}, {"name": "Merryville", "state": "LA", "lat": "30.7571", "lng": "-93.5246"}, {"name": "Washington", "state": "LA", "lat": "30.6150", "lng": "-92.0595"}, {"name": "Center Point", "state": "LA", "lat": "31.2524", "lng": "-92.2099"}, {"name": "Hayes", "state": "LA", "lat": "30.1112", "lng": "-92.9236"}, {"name": "Crowley", "state": "LA", "lat": "30.2175", "lng": "-92.3752"}, {"name": "Many", "state": "LA", "lat": "31.5663", "lng": "-93.4778"}, {"name": "Mound", "state": "LA", "lat": "32.3330", "lng": "-91.0242"}, {"name": "Shongaloo", "state": "LA", "lat": "32.9416", "lng": "-93.2955"}, {"name": "Lakeshore", "state": "LA", "lat": "32.5350", "lng": "-92.0328"}, {"name": "Mandeville", "state": "LA", "lat": "30.3750", "lng": "-90.0906"}, {"name": "Logansport", "state": "LA", "lat": "31.9762", "lng": "-93.9933"}, {"name": "Grand Cane", "state": "LA", "lat": "32.0836", "lng": "-93.8088"}, {"name": "Noble", "state": "LA", "lat": "31.6899", "lng": "-93.6832"}, {"name": "Simmesport", "state": "LA", "lat": "30.9805", "lng": "-91.8143"}, {"name": "Cullen", "state": "LA", "lat": "32.9699", "lng": "-93.4464"}, {"name": "Woodmere", "state": "LA", "lat": "29.8493", "lng": "-90.0751"}, {"name": "Rodessa", "state": "LA", "lat": "32.9735", "lng": "-93.9969"}, {"name": "Baskin", "state": "LA", "lat": "32.2590", "lng": "-91.7474"}, {"name": "Baldwin", "state": "LA", "lat": "29.8389", "lng": "-91.5522"}, {"name": "Dodson", "state": "LA", "lat": "32.0808", "lng": "-92.6587"}, {"name": "Springhill", "state": "LA", "lat": "33.0019", "lng": "-93.4613"}, {"name": "Ama", "state": "LA", "lat": "29.9440", "lng": "-90.2967"}, {"name": "Claiborne", "state": "LA", "lat": "32.5379", "lng": "-92.1981"}, {"name": "Tickfaw", "state": "LA", "lat": "30.5769", "lng": "-90.4871"}, {"name": "Morganza", "state": "LA", "lat": "30.7383", "lng": "-91.5920"}, {"name": "Lockport", "state": "LA", "lat": "29.6418", "lng": "-90.5376"}, {"name": "Colfax", "state": "LA", "lat": "31.5208", "lng": "-92.7001"}, {"name": "Hessmer", "state": "LA", "lat": "31.0534", "lng": "-92.1214"}, {"name": "Pioneer", "state": "LA", "lat": "32.7381", "lng": "-91.4381"}, {"name": "Belcher", "state": "LA", "lat": "32.7521", "lng": "-93.8372"}, {"name": "Cotton Valley", "state": "LA", "lat": "32.8135", "lng": "-93.4228"}, {"name": "Vivian", "state": "LA", "lat": "32.8714", "lng": "-93.9862"}, {"name": "Jennings", "state": "LA", "lat": "30.2233", "lng": "-92.6582"}, {"name": "Slaughter", "state": "LA", "lat": "30.7219", "lng": "-91.1393"}, {"name": "Heflin", "state": "LA", "lat": "32.4565", "lng": "-93.2683"}, {"name": "Central", "state": "LA", "lat": "30.5593", "lng": "-91.0369"}, {"name": "Start", "state": "LA", "lat": "32.4902", "lng": "-91.8651"}, {"name": "Sorrel", "state": "LA", "lat": "29.8879", "lng": "-91.6226"}, {"name": "Wisner", "state": "LA", "lat": "31.9804", "lng": "-91.6552"}, {"name": "Arabi", "state": "LA", "lat": "29.9562", "lng": "-89.9986"}, {"name": "Hackberry", "state": "LA", "lat": "29.9717", "lng": "-93.3947"}, {"name": "Reddell", "state": "LA", "lat": "30.6687", "lng": "-92.4268"}, {"name": "Bossier City", "state": "LA", "lat": "32.5227", "lng": "-93.6667"}, {"name": "Grand Isle", "state": "LA", "lat": "29.2134", "lng": "-90.0306"}, {"name": "Gillis", "state": "LA", "lat": "30.3769", "lng": "-93.1999"}, {"name": "South Vacherie", "state": "LA", "lat": "29.9406", "lng": "-90.6891"}, {"name": "Monterey", "state": "LA", "lat": "31.4436", "lng": "-91.7191"}, {"name": "Cameron", "state": "LA", "lat": "29.7870", "lng": "-93.2926"}, {"name": "Romeville", "state": "LA", "lat": "30.0676", "lng": "-90.8341"}, {"name": "Minden", "state": "LA", "lat": "32.6187", "lng": "-93.2762"}, {"name": "Lillie", "state": "LA", "lat": "32.9221", "lng": "-92.6613"}, {"name": "Independence", "state": "LA", "lat": "30.6361", "lng": "-90.5056"}, {"name": "Timberlane", "state": "LA", "lat": "29.8781", "lng": "-90.0303"}, {"name": "Clarence", "state": "LA", "lat": "31.8198", "lng": "-93.0290"}, {"name": "Rayville", "state": "LA", "lat": "32.4707", "lng": "-91.7576"}, {"name": "Sun", "state": "LA", "lat": "30.6500", "lng": "-89.9056"}, {"name": "Mermentau", "state": "LA", "lat": "30.1874", "lng": "-92.5840"}, {"name": "Minorca", "state": "LA", "lat": "31.5725", "lng": "-91.4884"}, {"name": "Alexandria", "state": "LA", "lat": "31.2923", "lng": "-92.4702"}, {"name": "New Sarpy", "state": "LA", "lat": "29.9810", "lng": "-90.3829"}, {"name": "Grand Point", "state": "LA", "lat": "30.0451", "lng": "-90.7488"}, {"name": "Pollock", "state": "LA", "lat": "31.4985", "lng": "-92.4432"}, {"name": "Longville", "state": "LA", "lat": "30.6090", "lng": "-93.2282"}, {"name": "Port Vincent", "state": "LA", "lat": "30.3384", "lng": "-90.8423"}, {"name": "Mooringsport", "state": "LA", "lat": "32.6832", "lng": "-93.9607"}, {"name": "Bienville", "state": "LA", "lat": "32.3618", "lng": "-92.9788"}, {"name": "Clarks", "state": "LA", "lat": "32.0288", "lng": "-92.1408"}, {"name": "Ridgecrest", "state": "LA", "lat": "31.6018", "lng": "-91.5305"}, {"name": "Youngsville", "state": "LA", "lat": "30.0964", "lng": "-91.9964"}, {"name": "Morgan City", "state": "LA", "lat": "29.7041", "lng": "-91.1920"}, {"name": "Eros", "state": "LA", "lat": "32.3926", "lng": "-92.4239"}, {"name": "Spearsville", "state": "LA", "lat": "32.9339", "lng": "-92.6022"}, {"name": "Plaucheville", "state": "LA", "lat": "30.9647", "lng": "-91.9837"}, {"name": "Waggaman", "state": "LA", "lat": "29.9373", "lng": "-90.2354"}, {"name": "St. Francisville", "state": "LA", "lat": "30.7851", "lng": "-91.3787"}, {"name": "Cade", "state": "LA", "lat": "30.0926", "lng": "-91.8996"}, {"name": "Taft", "state": "LA", "lat": "29.9854", "lng": "-90.4533"}, {"name": "Bogalusa", "state": "LA", "lat": "30.7812", "lng": "-89.8633"}, {"name": "Des Allemands", "state": "LA", "lat": "29.8162", "lng": "-90.4746"}, {"name": "Vidalia", "state": "LA", "lat": "31.5668", "lng": "-91.4405"}, {"name": "Gilbert", "state": "LA", "lat": "32.0507", "lng": "-91.6567"}, {"name": "Zachary", "state": "LA", "lat": "30.6642", "lng": "-91.1634"}, {"name": "Gloster", "state": "LA", "lat": "32.1921", "lng": "-93.8112"}, {"name": "Lake Providence", "state": "LA", "lat": "32.8133", "lng": "-91.1826"}, {"name": "Crescent", "state": "LA", "lat": "30.2405", "lng": "-91.2864"}, {"name": "Fort Polk North", "state": "LA", "lat": "31.1031", "lng": "-93.1793"}, {"name": "Wilson", "state": "LA", "lat": "30.9236", "lng": "-91.1090"}, {"name": "Larose", "state": "LA", "lat": "29.5669", "lng": "-90.3751"}, {"name": "Patterson", "state": "LA", "lat": "29.6909", "lng": "-91.3096"}, {"name": "Moonshine", "state": "LA", "lat": "29.9700", "lng": "-90.8132"}, {"name": "Haughton", "state": "LA", "lat": "32.5272", "lng": "-93.5042"}, {"name": "Sulphur", "state": "LA", "lat": "30.2288", "lng": "-93.3564"}, {"name": "Waterproof", "state": "LA", "lat": "31.8072", "lng": "-91.3861"}, {"name": "Natchitoches", "state": "LA", "lat": "31.7317", "lng": "-93.0979"}, {"name": "Montegut", "state": "LA", "lat": "29.4656", "lng": "-90.5617"}, {"name": "Edgefield", "state": "LA", "lat": "32.0501", "lng": "-93.3360"}, {"name": "Inniswold", "state": "LA", "lat": "30.3982", "lng": "-91.0710"}, {"name": "Lisbon", "state": "LA", "lat": "32.7894", "lng": "-92.8672"}, {"name": "Angie", "state": "LA", "lat": "30.9633", "lng": "-89.8177"}, {"name": "Red Chute", "state": "LA", "lat": "32.5732", "lng": "-93.6060"}, {"name": "St. Martinville", "state": "LA", "lat": "30.1263", "lng": "-91.8319"}, {"name": "Abita Springs", "state": "LA", "lat": "30.4761", "lng": "-90.0292"}, {"name": "Killona", "state": "LA", "lat": "29.9985", "lng": "-90.4851"}, {"name": "Gramercy", "state": "LA", "lat": "30.0610", "lng": "-90.6929"}, {"name": "Point Place", "state": "LA", "lat": "31.6882", "lng": "-93.0245"}, {"name": "New Roads", "state": "LA", "lat": "30.6959", "lng": "-91.4537"}, {"name": "Fort Polk South", "state": "LA", "lat": "31.0512", "lng": "-93.2159"}, {"name": "Thibodaux", "state": "LA", "lat": "29.7941", "lng": "-90.8163"}, {"name": "Olla", "state": "LA", "lat": "31.8981", "lng": "-92.2404"}, {"name": "Oberlin", "state": "LA", "lat": "30.6070", "lng": "-92.7724"}, {"name": "Starks", "state": "LA", "lat": "30.3105", "lng": "-93.6667"}, {"name": "Plaquemine", "state": "LA", "lat": "30.2834", "lng": "-91.2429"}, {"name": "Terrytown", "state": "LA", "lat": "29.9016", "lng": "-90.0280"}, {"name": "Arcadia", "state": "LA", "lat": "32.5506", "lng": "-92.9218"}, {"name": "Marksville", "state": "LA", "lat": "31.1247", "lng": "-92.0652"}, {"name": "Schriever", "state": "LA", "lat": "29.7334", "lng": "-90.8310"}, {"name": "Belmont", "state": "LA", "lat": "31.7182", "lng": "-93.5082"}, {"name": "Calvin", "state": "LA", "lat": "31.9617", "lng": "-92.7758"}, {"name": "Goldonna", "state": "LA", "lat": "32.0193", "lng": "-92.9162"}, {"name": "Monroe", "state": "LA", "lat": "32.5183", "lng": "-92.0775"}, {"name": "Saline", "state": "LA", "lat": "32.1632", "lng": "-92.9770"}, {"name": "Lecompte", "state": "LA", "lat": "31.0881", "lng": "-92.3999"}, {"name": "Donaldsonville", "state": "LA", "lat": "30.0953", "lng": "-90.9925"}, {"name": "Hester", "state": "LA", "lat": "30.0277", "lng": "-90.7710"}, {"name": "Mangham", "state": "LA", "lat": "32.3090", "lng": "-91.7795"}, {"name": "Franklin", "state": "LA", "lat": "29.7851", "lng": "-91.5098"}, {"name": "Delhi", "state": "LA", "lat": "32.4529", "lng": "-91.4900"}, {"name": "Monticello", "state": "LA", "lat": "30.4881", "lng": "-91.0449"}, {"name": "Choctaw", "state": "LA", "lat": "29.8457", "lng": "-90.7238"}, {"name": "Quitman", "state": "LA", "lat": "32.3507", "lng": "-92.7236"}, {"name": "Lafourche Crossing", "state": "LA", "lat": "29.7675", "lng": "-90.7697"}, {"name": "Boutte", "state": "LA", "lat": "29.8825", "lng": "-90.3936"}, {"name": "Mer Rouge", "state": "LA", "lat": "32.7767", "lng": "-91.7949"}, {"name": "Kenner", "state": "LA", "lat": "30.0109", "lng": "-90.2549"}, {"name": "Grambling", "state": "LA", "lat": "32.5275", "lng": "-92.7124"}, {"name": "Marrero", "state": "LA", "lat": "29.8871", "lng": "-90.1126"}, {"name": "Slidell", "state": "LA", "lat": "30.2881", "lng": "-89.7826"}, {"name": "Cottonport", "state": "LA", "lat": "30.9892", "lng": "-92.0509"}, {"name": "Welsh", "state": "LA", "lat": "30.2355", "lng": "-92.8135"}, {"name": "Rosepine", "state": "LA", "lat": "30.9208", "lng": "-93.2857"}, {"name": "Fordoche", "state": "LA", "lat": "30.5940", "lng": "-91.6179"}, {"name": "Martin", "state": "LA", "lat": "32.0982", "lng": "-93.2193"}, {"name": "Presquille", "state": "LA", "lat": "29.5586", "lng": "-90.6385"}, {"name": "Stonewall", "state": "LA", "lat": "32.2715", "lng": "-93.8100"}, {"name": "Ida", "state": "LA", "lat": "33.0001", "lng": "-93.8949"}, {"name": "Wallace Ridge", "state": "LA", "lat": "31.6849", "lng": "-91.8321"}, {"name": "Clinton", "state": "LA", "lat": "30.8614", "lng": "-91.0150"}, {"name": "Montpelier", "state": "LA", "lat": "30.6823", "lng": "-90.6545"}, {"name": "Folsom", "state": "LA", "lat": "30.6304", "lng": "-90.1947"}, {"name": "Arnaudville", "state": "LA", "lat": "30.4021", "lng": "-91.9320"}, {"name": "Chalmette", "state": "LA", "lat": "29.9437", "lng": "-89.9660"}, {"name": "Vienna", "state": "LA", "lat": "32.6093", "lng": "-92.6481"}, {"name": "Erwinville", "state": "LA", "lat": "30.5428", "lng": "-91.3913"}, {"name": "Lydia", "state": "LA", "lat": "29.9263", "lng": "-91.7813"}, {"name": "Delta", "state": "LA", "lat": "32.3220", "lng": "-90.9414"}, {"name": "Boothville", "state": "LA", "lat": "29.3330", "lng": "-89.4052"}, {"name": "Catahoula", "state": "LA", "lat": "30.2125", "lng": "-91.7127"}, {"name": "Sugartown", "state": "LA", "lat": "30.8401", "lng": "-93.0123"}, {"name": "Labadieville", "state": "LA", "lat": "29.8247", "lng": "-90.9525"}, {"name": "Laplace", "state": "LA", "lat": "30.0731", "lng": "-90.4758"}, {"name": "Lockport Heights", "state": "LA", "lat": "29.6564", "lng": "-90.5486"}, {"name": "Fifth Ward", "state": "LA", "lat": "31.1207", "lng": "-92.1584"}, {"name": "Killian", "state": "LA", "lat": "30.3530", "lng": "-90.5795"}, {"name": "Napoleonville", "state": "LA", "lat": "29.9384", "lng": "-91.0263"}, {"name": "Leonville", "state": "LA", "lat": "30.4661", "lng": "-91.9811"}, {"name": "Shenandoah", "state": "LA", "lat": "30.4019", "lng": "-91.0020"}, {"name": "Fisher", "state": "LA", "lat": "31.4934", "lng": "-93.4597"}, {"name": "Robeline", "state": "LA", "lat": "31.6898", "lng": "-93.3039"}, {"name": "Breaux Bridge", "state": "LA", "lat": "30.2829", "lng": "-91.9043"}, {"name": "Farmerville", "state": "LA", "lat": "32.7752", "lng": "-92.4013"}, {"name": "Lafayette", "state": "LA", "lat": "30.2084", "lng": "-92.0323"}, {"name": "Walker", "state": "LA", "lat": "30.4850", "lng": "-90.8658"}, {"name": "Prien", "state": "LA", "lat": "30.1595", "lng": "-93.2608"}, {"name": "Venice", "state": "LA", "lat": "29.2875", "lng": "-89.3637"}, {"name": "Tangipahoa", "state": "LA", "lat": "30.8758", "lng": "-90.5138"}, {"name": "Varnado", "state": "LA", "lat": "30.8953", "lng": "-89.8319"}, {"name": "Oak Grove", "state": "LA", "lat": "32.8619", "lng": "-91.3911"}, {"name": "Gardere", "state": "LA", "lat": "30.3582", "lng": "-91.1345"}, {"name": "Loreauville", "state": "LA", "lat": "30.0601", "lng": "-91.7378"}, {"name": "Moss Bluff", "state": "LA", "lat": "30.3039", "lng": "-93.2051"}, {"name": "Basile", "state": "LA", "lat": "30.4855", "lng": "-92.6010"}, {"name": "Morse", "state": "LA", "lat": "30.1221", "lng": "-92.4985"}, {"name": "Richmond", "state": "LA", "lat": "32.3884", "lng": "-91.1804"}, {"name": "Gibsland", "state": "LA", "lat": "32.5395", "lng": "-93.0541"}, {"name": "Ponchatoula", "state": "LA", "lat": "30.4403", "lng": "-90.4428"}, {"name": "Ashland", "state": "LA", "lat": "32.1164", "lng": "-93.1171"}, {"name": "Bayou Blue", "state": "LA", "lat": "29.6341", "lng": "-90.6732"}, {"name": "Benton", "state": "LA", "lat": "32.6906", "lng": "-93.7400"}, {"name": "Covington", "state": "LA", "lat": "30.4808", "lng": "-90.1122"}, {"name": "Bryceland", "state": "LA", "lat": "32.4485", "lng": "-92.9924"}, {"name": "Meraux", "state": "LA", "lat": "29.9284", "lng": "-89.9179"}, {"name": "Duson", "state": "LA", "lat": "30.2362", "lng": "-92.1922"}, {"name": "Raceland", "state": "LA", "lat": "29.7282", "lng": "-90.6362"}, {"name": "Powhatan", "state": "LA", "lat": "31.8738", "lng": "-93.2033"}, {"name": "French Settlement", "state": "LA", "lat": "30.3159", "lng": "-90.8033"}, {"name": "Forest", "state": "LA", "lat": "32.7924", "lng": "-91.4125"}, {"name": "Chackbay", "state": "LA", "lat": "29.8817", "lng": "-90.7742"}, {"name": "Moreauville", "state": "LA", "lat": "31.0342", "lng": "-91.9818"}, {"name": "Forest Hill", "state": "LA", "lat": "31.0478", "lng": "-92.5241"}, {"name": "Erath", "state": "LA", "lat": "29.9588", "lng": "-92.0371"}, {"name": "Bayou L'Ourse", "state": "LA", "lat": "29.7174", "lng": "-91.0607"}, {"name": "Lakeview", "state": "LA", "lat": "32.5238", "lng": "-93.8299"}, {"name": "Choudrant", "state": "LA", "lat": "32.5509", "lng": "-92.5118"}, {"name": "Elmwood", "state": "LA", "lat": "29.9555", "lng": "-90.1879"}, {"name": "Jamestown", "state": "LA", "lat": "32.3397", "lng": "-93.2065"}, {"name": "Plain Dealing", "state": "LA", "lat": "32.9074", "lng": "-93.6992"}, {"name": "Shreveport", "state": "LA", "lat": "32.4659", "lng": "-93.7959"}, {"name": "Lutcher", "state": "LA", "lat": "30.0646", "lng": "-90.7124"}, {"name": "Chatham", "state": "LA", "lat": "32.3094", "lng": "-92.4522"}, {"name": "Pine Prairie", "state": "LA", "lat": "30.7818", "lng": "-92.4223"}, {"name": "Maurice", "state": "LA", "lat": "30.1041", "lng": "-92.1211"}, {"name": "Iota", "state": "LA", "lat": "30.3260", "lng": "-92.4956"}, {"name": "Georgetown", "state": "LA", "lat": "31.7597", "lng": "-92.3821"}, {"name": "New Llano", "state": "LA", "lat": "31.0970", "lng": "-93.2767"}, {"name": "Hosston", "state": "LA", "lat": "32.8849", "lng": "-93.8820"}, {"name": "St. Rose", "state": "LA", "lat": "29.9649", "lng": "-90.3088"}, {"name": "Bridge City", "state": "LA", "lat": "29.9321", "lng": "-90.1594"}, {"name": "Montgomery", "state": "LA", "lat": "31.6677", "lng": "-92.8877"}, {"name": "Lacombe", "state": "LA", "lat": "30.3141", "lng": "-89.9310"}, {"name": "Kaplan", "state": "LA", "lat": "30.0060", "lng": "-92.2840"}, {"name": "DeRidder", "state": "LA", "lat": "30.8467", "lng": "-93.2931"}, {"name": "Pleasant Hill", "state": "LA", "lat": "31.8154", "lng": "-93.5164"}, {"name": "St. Gabriel", "state": "LA", "lat": "30.2536", "lng": "-91.1013"}, {"name": "Lake Charles", "state": "LA", "lat": "30.2022", "lng": "-93.2141"}, {"name": "Lucky", "state": "LA", "lat": "32.2443", "lng": "-93.0158"}, {"name": "Banks Springs", "state": "LA", "lat": "32.0764", "lng": "-92.0850"}, {"name": "Lafitte", "state": "LA", "lat": "29.6957", "lng": "-90.0995"}, {"name": "Gray", "state": "LA", "lat": "29.6776", "lng": "-90.7833"}, {"name": "Frierson", "state": "LA", "lat": "32.2486", "lng": "-93.6894"}, {"name": "Gueydan", "state": "LA", "lat": "30.0291", "lng": "-92.5071"}, {"name": "Grayson", "state": "LA", "lat": "32.0492", "lng": "-92.1116"}, {"name": "Violet", "state": "LA", "lat": "29.8962", "lng": "-89.8920"}, {"name": "Sibley", "state": "LA", "lat": "32.5423", "lng": "-93.2947"}, {"name": "Madisonville", "state": "LA", "lat": "30.4006", "lng": "-90.1655"}, {"name": "Lacassine", "state": "LA", "lat": "30.2331", "lng": "-92.9208"}, {"name": "Florien", "state": "LA", "lat": "31.4480", "lng": "-93.4583"}, {"name": "Collinston", "state": "LA", "lat": "32.6893", "lng": "-91.8718"}, {"name": "Calhoun", "state": "LA", "lat": "32.5153", "lng": "-92.3539"}, {"name": "Bourg", "state": "LA", "lat": "29.5570", "lng": "-90.6064"}, {"name": "Estherwood", "state": "LA", "lat": "30.1816", "lng": "-92.4633"}, {"name": "Richwood", "state": "LA", "lat": "32.4485", "lng": "-92.0773"}, {"name": "Bordelonville", "state": "LA", "lat": "31.1012", "lng": "-91.9005"}, {"name": "Addis", "state": "LA", "lat": "30.3652", "lng": "-91.2659"}, {"name": "Wallace", "state": "LA", "lat": "30.0303", "lng": "-90.6569"}, {"name": "Clayton", "state": "LA", "lat": "31.7226", "lng": "-91.5373"}, {"name": "Keachi", "state": "LA", "lat": "32.1708", "lng": "-93.9160"}, {"name": "Longstreet", "state": "LA", "lat": "32.0976", "lng": "-93.9505"}, {"name": "Pointe a la Hache", "state": "LA", "lat": "29.5737", "lng": "-89.7807"}, {"name": "Rock Hill", "state": "LA", "lat": "31.4427", "lng": "-92.5695"}, {"name": "Atlanta", "state": "LA", "lat": "31.8064", "lng": "-92.7383"}, {"name": "Reeves", "state": "LA", "lat": "30.5216", "lng": "-93.0428"}, {"name": "Cankton", "state": "LA", "lat": "30.3455", "lng": "-92.1130"}, {"name": "Belle Chasse", "state": "LA", "lat": "29.8472", "lng": "-90.0069"}, {"name": "Zwolle", "state": "LA", "lat": "31.6398", "lng": "-93.6412"}, {"name": "Natchez", "state": "LA", "lat": "31.6743", "lng": "-93.0456"}, {"name": "Lake Arthur", "state": "LA", "lat": "30.0795", "lng": "-92.6773"}, {"name": "St. Maurice", "state": "LA", "lat": "31.7613", "lng": "-92.9389"}, {"name": "Turkey Creek", "state": "LA", "lat": "30.8732", "lng": "-92.4170"}, {"name": "Joyce", "state": "LA", "lat": "31.9347", "lng": "-92.5850"}, {"name": "Ball", "state": "LA", "lat": "31.4188", "lng": "-92.4084"}, {"name": "Columbia", "state": "LA", "lat": "32.1026", "lng": "-92.0770"}, {"name": "St. Joseph", "state": "LA", "lat": "31.9202", "lng": "-91.2401"}, {"name": "Westminster", "state": "LA", "lat": "30.4080", "lng": "-91.0906"}, {"name": "Greensburg", "state": "LA", "lat": "30.8300", "lng": "-90.6698"}, {"name": "Destrehan", "state": "LA", "lat": "29.9625", "lng": "-90.3676"}, {"name": "Galliano", "state": "LA", "lat": "29.4471", "lng": "-90.3096"}, {"name": "Denham Springs", "state": "LA", "lat": "30.4743", "lng": "-90.9594"}, {"name": "Woodworth", "state": "LA", "lat": "31.1655", "lng": "-92.5097"}, {"name": "Gilliam", "state": "LA", "lat": "32.8290", "lng": "-93.8433"}, {"name": "Paulina", "state": "LA", "lat": "30.0351", "lng": "-90.7226"}, {"name": "Empire", "state": "LA", "lat": "29.4133", "lng": "-89.6052"}, {"name": "Bayou Goula", "state": "LA", "lat": "30.2105", "lng": "-91.1765"}, {"name": "Swartz", "state": "LA", "lat": "32.5809", "lng": "-91.9869"}, {"name": "Natalbany", "state": "LA", "lat": "30.5486", "lng": "-90.4848"}, {"name": "North Vacherie", "state": "LA", "lat": "30.0047", "lng": "-90.7110"}, {"name": "Bayou Corne", "state": "LA", "lat": "30.0159", "lng": "-91.1528"}, {"name": "Fenton", "state": "LA", "lat": "30.3638", "lng": "-92.9164"}, {"name": "Supreme", "state": "LA", "lat": "29.8604", "lng": "-90.9955"}, {"name": "Garyville", "state": "LA", "lat": "30.0688", "lng": "-90.6285"}, {"name": "Prairieville", "state": "LA", "lat": "30.3151", "lng": "-90.9571"}, {"name": "Luling", "state": "LA", "lat": "29.9008", "lng": "-90.3523"}, {"name": "Hall Summit", "state": "LA", "lat": "32.1768", "lng": "-93.3055"}, {"name": "Old Jefferson", "state": "LA", "lat": "30.3776", "lng": "-91.0060"}, {"name": "Ville Platte", "state": "LA", "lat": "30.6901", "lng": "-92.2744"}, {"name": "Mansura", "state": "LA", "lat": "31.0673", "lng": "-92.0528"}, {"name": "Branch", "state": "LA", "lat": "30.3480", "lng": "-92.2771"}, {"name": "Amite City", "state": "LA", "lat": "30.7323", "lng": "-90.5133"}, {"name": "Rayne", "state": "LA", "lat": "30.2403", "lng": "-92.2668"}, {"name": "Jeanerette", "state": "LA", "lat": "29.9157", "lng": "-91.6758"}, {"name": "Edgard", "state": "LA", "lat": "30.0362", "lng": "-90.5460"}, {"name": "Sterlington", "state": "LA", "lat": "32.6887", "lng": "-92.0603"}, {"name": "Baker", "state": "LA", "lat": "30.5833", "lng": "-91.1581"}, {"name": "Simpson", "state": "LA", "lat": "31.2583", "lng": "-93.0194"}]