[{"name": "West Falmouth", "state": "MA", "lat": "41.6012", "lng": "-70.6364"}, {"name": "Peabody", "state": "MA", "lat": "42.5335", "lng": "-70.9724"}, {"name": "Amherst Center", "state": "MA", "lat": "42.3757", "lng": "-72.5188"}, {"name": "Siasconset", "state": "MA", "lat": "41.2636", "lng": "-69.9718"}, {"name": "South Dennis", "state": "MA", "lat": "41.7051", "lng": "-70.1537"}, {"name": "Methuen Town", "state": "MA", "lat": "42.7340", "lng": "-71.1889"}, {"name": "Shelburne Falls", "state": "MA", "lat": "42.6063", "lng": "-72.7434"}, {"name": "West Concord", "state": "MA", "lat": "42.4518", "lng": "-71.4035"}, {"name": "North Scituate", "state": "MA", "lat": "42.2121", "lng": "-70.7652"}, {"name": "White Island Shores", "state": "MA", "lat": "41.7933", "lng": "-70.6389"}, {"name": "Holyoke", "state": "MA", "lat": "42.2125", "lng": "-72.6411"}, {"name": "North Amherst", "state": "MA", "lat": "42.4073", "lng": "-72.5227"}, {"name": "Gloucester", "state": "MA", "lat": "42.6260", "lng": "-70.6897"}, {"name": "Boston", "state": "MA", "lat": "42.3188", "lng": "-71.0846"}, {"name": "Devens", "state": "MA", "lat": "42.5438", "lng": "-71.6147"}, {"name": "North Lakeville", "state": "MA", "lat": "41.8619", "lng": "-70.9411"}, {"name": "Sagamore", "state": "MA", "lat": "41.7842", "lng": "-70.5332"}, {"name": "Haverhill", "state": "MA", "lat": "42.7838", "lng": "-71.0871"}, {"name": "Forestdale", "state": "MA", "lat": "41.6846", "lng": "-70.5082"}, {"name": "West Springfield Town", "state": "MA", "lat": "42.1253", "lng": "-72.6503"}, {"name": "Southbridge Town", "state": "MA", "lat": "42.0604", "lng": "-72.0338"}, {"name": "Everett", "state": "MA", "lat": "42.4064", "lng": "-71.0545"}, {"name": "Woburn", "state": "MA", "lat": "42.4869", "lng": "-71.1543"}, {"name": "Newton", "state": "MA", "lat": "42.3316", "lng": "-71.2085"}, {"name": "Somerville", "state": "MA", "lat": "42.3908", "lng": "-71.1013"}, {"name": "Pinehurst", "state": "MA", "lat": "42.5334", "lng": "-71.2340"}, {"name": "Woods Hole", "state": "MA", "lat": "41.5303", "lng": "-70.6614"}, {"name": "Cochituate", "state": "MA", "lat": "42.3290", "lng": "-71.3576"}, {"name": "Monument Beach", "state": "MA", "lat": "41.7192", "lng": "-70.6061"}, {"name": "Leominster", "state": "MA", "lat": "42.5209", "lng": "-71.7717"}, {"name": "Harwich Center", "state": "MA", "lat": "41.6924", "lng": "-70.0694"}, {"name": "Northwest Harwich", "state": "MA", "lat": "41.6917", "lng": "-70.1027"}, {"name": "North Plymouth", "state": "MA", "lat": "41.9728", "lng": "-70.6882"}, {"name": "Norton Center", "state": "MA", "lat": "41.9726", "lng": "-71.1854"}, {"name": "Fitchburg", "state": "MA", "lat": "42.5912", "lng": "-71.8156"}, {"name": "South Ashburnham", "state": "MA", "lat": "42.6138", "lng": "-71.9384"}, {"name": "West Wareham", "state": "MA", "lat": "41.7900", "lng": "-70.7550"}, {"name": "The Pinehills", "state": "MA", "lat": "41.8882", "lng": "-70.6000"}, {"name": "Marshfield Hills", "state": "MA", "lat": "42.1487", "lng": "-70.7315"}, {"name": "Ocean Grove", "state": "MA", "lat": "41.7281", "lng": "-71.2098"}, {"name": "Winthrop Town", "state": "MA", "lat": "42.3751", "lng": "-70.9847"}, {"name": "Southfield", "state": "MA", "lat": "42.1498", "lng": "-70.9289"}, {"name": "Taunton", "state": "MA", "lat": "41.9036", "lng": "-71.0943"}, {"name": "Amesbury Town", "state": "MA", "lat": "42.8530", "lng": "-70.9446"}, {"name": "Agawam Town", "state": "MA", "lat": "42.0657", "lng": "-72.6526"}, {"name": "East Falmouth", "state": "MA", "lat": "41.5707", "lng": "-70.5556"}, {"name": "Springfield", "state": "MA", "lat": "42.1155", "lng": "-72.5395"}, {"name": "Northampton", "state": "MA", "lat": "42.3266", "lng": "-72.6745"}, {"name": "Revere", "state": "MA", "lat": "42.4191", "lng": "-71.0035"}, {"name": "Millis-Clicquot", "state": "MA", "lat": "42.1648", "lng": "-71.3544"}, {"name": "South Deerfield", "state": "MA", "lat": "42.4795", "lng": "-72.5947"}, {"name": "Worcester", "state": "MA", "lat": "42.2705", "lng": "-71.8079"}, {"name": "West Yarmouth", "state": "MA", "lat": "41.6496", "lng": "-70.2487"}, {"name": "Bliss Corner", "state": "MA", "lat": "41.6054", "lng": "-70.9421"}, {"name": "Littleton Common", "state": "MA", "lat": "42.5352", "lng": "-71.4727"}, {"name": "New Seabury", "state": "MA", "lat": "41.5689", "lng": "-70.4811"}, {"name": "Marlborough", "state": "MA", "lat": "42.3494", "lng": "-71.5468"}, {"name": "Hanscom AFB", "state": "MA", "lat": "42.4582", "lng": "-71.2793"}, {"name": "Popponesset Island", "state": "MA", "lat": "41.5855", "lng": "-70.4591"}, {"name": "New Bedford", "state": "MA", "lat": "41.6697", "lng": "-70.9428"}, {"name": "Mansfield Center", "state": "MA", "lat": "42.0225", "lng": "-71.2180"}, {"name": "Monomoscoy Island", "state": "MA", "lat": "41.5712", "lng": "-70.5026"}, {"name": "Ocean Bluff-Brant Rock", "state": "MA", "lat": "42.1006", "lng": "-70.6625"}, {"name": "Raynham Center", "state": "MA", "lat": "41.9327", "lng": "-71.0431"}, {"name": "West Chatham", "state": "MA", "lat": "41.6804", "lng": "-69.9918"}, {"name": "Marion Center", "state": "MA", "lat": "41.7042", "lng": "-70.7629"}, {"name": "Watertown Town", "state": "MA", "lat": "42.3700", "lng": "-71.1774"}, {"name": "Fall River", "state": "MA", "lat": "41.7137", "lng": "-71.1014"}, {"name": "North Adams", "state": "MA", "lat": "42.6844", "lng": "-73.1166"}, {"name": "Pocasset", "state": "MA", "lat": "41.6877", "lng": "-70.6202"}, {"name": "Seconsett Island", "state": "MA", "lat": "41.5661", "lng": "-70.5123"}, {"name": "Salem", "state": "MA", "lat": "42.5129", "lng": "-70.9020"}, {"name": "Easthampton Town", "state": "MA", "lat": "42.2652", "lng": "-72.6720"}, {"name": "Green Harbor-Cedar Crest", "state": "MA", "lat": "42.0747", "lng": "-70.6590"}, {"name": "Harwich Port", "state": "MA", "lat": "41.6723", "lng": "-70.0641"}, {"name": "South Lancaster", "state": "MA", "lat": "42.4373", "lng": "-71.6920"}, {"name": "Greenfield Town", "state": "MA", "lat": "42.6140", "lng": "-72.5985"}, {"name": "Barnstable Town", "state": "MA", "lat": "41.6722", "lng": "-70.3599"}, {"name": "Popponesset", "state": "MA", "lat": "41.5737", "lng": "-70.4636"}, {"name": "Lawrence", "state": "MA", "lat": "42.7003", "lng": "-71.1626"}, {"name": "Madaket", "state": "MA", "lat": "41.2826", "lng": "-70.1855"}, {"name": "East Douglas", "state": "MA", "lat": "42.0779", "lng": "-71.7121"}, {"name": "Smith Mills", "state": "MA", "lat": "41.6432", "lng": "-70.9920"}, {"name": "Lowell", "state": "MA", "lat": "42.6389", "lng": "-71.3217"}, {"name": "North Eastham", "state": "MA", "lat": "41.8539", "lng": "-69.9968"}, {"name": "Medford", "state": "MA", "lat": "42.4234", "lng": "-71.1087"}, {"name": "Randolph", "state": "MA", "lat": "42.1778", "lng": "-71.0539"}, {"name": "Quincy", "state": "MA", "lat": "42.2516", "lng": "-71.0183"}, {"name": "South Amherst", "state": "MA", "lat": "42.3389", "lng": "-72.5195"}, {"name": "North Falmouth", "state": "MA", "lat": "41.6395", "lng": "-70.6260"}, {"name": "Turners Falls", "state": "MA", "lat": "42.5976", "lng": "-72.5572"}, {"name": "Onset", "state": "MA", "lat": "41.7481", "lng": "-70.6669"}, {"name": "Baldwinville", "state": "MA", "lat": "42.6049", "lng": "-72.0771"}, {"name": "Cordaville", "state": "MA", "lat": "42.2727", "lng": "-71.5221"}, {"name": "Framingham", "state": "MA", "lat": "42.3085", "lng": "-71.4368"}, {"name": "Bridgewater", "state": "MA", "lat": "41.9888", "lng": "-70.9718"}, {"name": "Attleboro", "state": "MA", "lat": "41.9311", "lng": "-71.2950"}, {"name": "South Yarmouth", "state": "MA", "lat": "41.6692", "lng": "-70.2005"}, {"name": "Malden", "state": "MA", "lat": "42.4305", "lng": "-71.0576"}, {"name": "Pittsfield", "state": "MA", "lat": "42.4517", "lng": "-73.2605"}, {"name": "Brockton", "state": "MA", "lat": "42.0821", "lng": "-71.0242"}, {"name": "Housatonic", "state": "MA", "lat": "42.2487", "lng": "-73.3626"}, {"name": "Mattapoisett Center", "state": "MA", "lat": "41.6667", "lng": "-70.8054"}, {"name": "East Sandwich", "state": "MA", "lat": "41.7365", "lng": "-70.4341"}, {"name": "East Harwich", "state": "MA", "lat": "41.7081", "lng": "-70.0339"}, {"name": "Beverly", "state": "MA", "lat": "42.5681", "lng": "-70.8627"}, {"name": "Weymouth Town", "state": "MA", "lat": "42.1984", "lng": "-70.9466"}, {"name": "Weweantic", "state": "MA", "lat": "41.7398", "lng": "-70.7351"}, {"name": "Whitinsville", "state": "MA", "lat": "42.1146", "lng": "-71.6688"}, {"name": "Chelsea", "state": "MA", "lat": "42.3959", "lng": "-71.0325"}, {"name": "Palmer Town", "state": "MA", "lat": "42.1888", "lng": "-72.3112"}, {"name": "North Westport", "state": "MA", "lat": "41.6539", "lng": "-71.0927"}, {"name": "Chicopee", "state": "MA", "lat": "42.1764", "lng": "-72.5719"}, {"name": "North Seekonk", "state": "MA", "lat": "41.8882", "lng": "-71.3297"}, {"name": "Monson Center", "state": "MA", "lat": "42.0990", "lng": "-72.3048"}, {"name": "Acushnet Center", "state": "MA", "lat": "41.6850", "lng": "-70.9065"}, {"name": "Vineyard Haven", "state": "MA", "lat": "41.4565", "lng": "-70.6069"}, {"name": "Gardner", "state": "MA", "lat": "42.5845", "lng": "-71.9867"}, {"name": "Cambridge", "state": "MA", "lat": "42.3759", "lng": "-71.1185"}, {"name": "Franklin Town", "state": "MA", "lat": "42.0862", "lng": "-71.4113"}, {"name": "Dennis Port", "state": "MA", "lat": "41.6677", "lng": "-70.1358"}, {"name": "Buzzards Bay", "state": "MA", "lat": "41.7551", "lng": "-70.6129"}, {"name": "Braintree Town", "state": "MA", "lat": "42.2039", "lng": "-71.0022"}, {"name": "Mashpee Neck", "state": "MA", "lat": "41.6118", "lng": "-70.4667"}, {"name": "West Dennis", "state": "MA", "lat": "41.6666", "lng": "-70.1656"}, {"name": "East Dennis", "state": "MA", "lat": "41.7391", "lng": "-70.1577"}, {"name": "Middleborough Center", "state": "MA", "lat": "41.8945", "lng": "-70.9260"}, {"name": "North Pembroke", "state": "MA", "lat": "42.0989", "lng": "-70.7823"}, {"name": "Seabrook", "state": "MA", "lat": "41.5831", "lng": "-70.4992"}, {"name": "Melrose", "state": "MA", "lat": "42.4556", "lng": "-71.0590"}, {"name": "Teaticket", "state": "MA", "lat": "41.5624", "lng": "-70.5858"}, {"name": "South Duxbury", "state": "MA", "lat": "42.0203", "lng": "-70.6913"}, {"name": "Waltham", "state": "MA", "lat": "42.3889", "lng": "-71.2423"}, {"name": "Yarmouth Port", "state": "MA", "lat": "41.7100", "lng": "-70.2257"}, {"name": "Newburyport", "state": "MA", "lat": "42.8124", "lng": "-70.8879"}, {"name": "Wareham Center", "state": "MA", "lat": "41.7510", "lng": "-70.7198"}, {"name": "East Pepperell", "state": "MA", "lat": "42.6654", "lng": "-71.5635"}, {"name": "Fiskdale", "state": "MA", "lat": "42.1227", "lng": "-72.1087"}, {"name": "Lynn", "state": "MA", "lat": "42.4779", "lng": "-70.9663"}, {"name": "Millers Falls", "state": "MA", "lat": "42.5792", "lng": "-72.4925"}, {"name": "Westfield", "state": "MA", "lat": "42.1382", "lng": "-72.7561"}]