[{"name": "Dargan", "state": "MD", "lat": "39.3767", "lng": "-77.7341"}, {"name": "Mount Aetna", "state": "MD", "lat": "39.5989", "lng": "-77.6128"}, {"name": "Chewsville", "state": "MD", "lat": "39.6484", "lng": "-77.6311"}, {"name": "Jessup", "state": "MD", "lat": "39.1457", "lng": "-76.7745"}, {"name": "Garrett Park", "state": "MD", "lat": "39.0360", "lng": "-77.0934"}, {"name": "Gorman", "state": "MD", "lat": "39.2924", "lng": "-79.3525"}, {"name": "Cobb Island", "state": "MD", "lat": "38.2646", "lng": "-76.8496"}, {"name": "Snow Hill", "state": "MD", "lat": "38.1655", "lng": "-75.3968"}, {"name": "Linthicum", "state": "MD", "lat": "39.2088", "lng": "-76.6625"}, {"name": "South Laurel", "state": "MD", "lat": "39.0603", "lng": "-76.8456"}, {"name": "Berlin", "state": "MD", "lat": "38.3309", "lng": "-75.2149"}, {"name": "Spring Gap", "state": "MD", "lat": "39.5653", "lng": "-78.7054"}, {"name": "Queenstown", "state": "MD", "lat": "38.9853", "lng": "-76.1677"}, {"name": "Funkstown", "state": "MD", "lat": "39.6089", "lng": "-77.7082"}, {"name": "Taneytown", "state": "MD", "lat": "39.6570", "lng": "-77.1683"}, {"name": "Charlton", "state": "MD", "lat": "39.6344", "lng": "-77.8942"}, {"name": "Edgewater", "state": "MD", "lat": "38.9373", "lng": "-76.5572"}, {"name": "Mount Rainier", "state": "MD", "lat": "38.9423", "lng": "-76.9645"}, {"name": "Hillsboro", "state": "MD", "lat": "38.9170", "lng": "-75.9419"}, {"name": "Pocomoke City", "state": "MD", "lat": "38.0635", "lng": "-75.5553"}, {"name": "Finzel", "state": "MD", "lat": "39.7018", "lng": "-78.9520"}, {"name": "Beltsville", "state": "MD", "lat": "39.0394", "lng": "-76.9211"}, {"name": "Nanticoke", "state": "MD", "lat": "38.2672", "lng": "-75.8938"}, {"name": "Sharptown", "state": "MD", "lat": "38.5382", "lng": "-75.7190"}, {"name": "Westernport", "state": "MD", "lat": "39.4880", "lng": "-79.0429"}, {"name": "Westphalia", "state": "MD", "lat": "38.8385", "lng": "-76.8232"}, {"name": "Damascus", "state": "MD", "lat": "39.2737", "lng": "-77.2006"}, {"name": "Glenarden", "state": "MD", "lat": "38.9293", "lng": "-76.8576"}, {"name": "Rockville", "state": "MD", "lat": "39.0834", "lng": "-77.1553"}, {"name": "Barton", "state": "MD", "lat": "39.5323", "lng": "-79.0171"}, {"name": "Cabin John", "state": "MD", "lat": "38.9743", "lng": "-77.1635"}, {"name": "Brookmont", "state": "MD", "lat": "38.9546", "lng": "-77.1292"}, {"name": "Lake Arbor", "state": "MD", "lat": "38.9070", "lng": "-76.8299"}, {"name": "Galena", "state": "MD", "lat": "39.3425", "lng": "-75.8787"}, {"name": "Urbana", "state": "MD", "lat": "39.3237", "lng": "-77.3411"}, {"name": "Lanham", "state": "MD", "lat": "38.9621", "lng": "-76.8421"}, {"name": "Fairmount Heights", "state": "MD", "lat": "38.9016", "lng": "-76.9153"}, {"name": "Crellin", "state": "MD", "lat": "39.3887", "lng": "-79.4685"}, {"name": "Rising Sun", "state": "MD", "lat": "39.7003", "lng": "-76.0586"}, {"name": "Frenchtown-Rumbly", "state": "MD", "lat": "38.0831", "lng": "-75.8521"}, {"name": "Danville", "state": "MD", "lat": "39.5125", "lng": "-78.9184"}, {"name": "Calvert Beach", "state": "MD", "lat": "38.4728", "lng": "-76.4895"}, {"name": "Detmold", "state": "MD", "lat": "39.5572", "lng": "-78.9910"}, {"name": "Fort Washington", "state": "MD", "lat": "38.7339", "lng": "-77.0069"}, {"name": "West Ocean City", "state": "MD", "lat": "38.3476", "lng": "-75.1115"}, {"name": "Keedysville", "state": "MD", "lat": "39.4867", "lng": "-77.6979"}, {"name": "Riverdale Park", "state": "MD", "lat": "38.9643", "lng": "-76.9266"}, {"name": "Fishing Creek", "state": "MD", "lat": "38.3357", "lng": "-76.2238"}, {"name": "Marlton", "state": "MD", "lat": "38.7620", "lng": "-76.7857"}, {"name": "Braddock Heights", "state": "MD", "lat": "39.4114", "lng": "-77.5009"}, {"name": "Lutherville", "state": "MD", "lat": "39.4240", "lng": "-76.6177"}, {"name": "Randallstown", "state": "MD", "lat": "39.3723", "lng": "-76.8024"}, {"name": "Aquasco", "state": "MD", "lat": "38.5913", "lng": "-76.7074"}, {"name": "Huntingtown", "state": "MD", "lat": "38.6117", "lng": "-76.6187"}, {"name": "Silver Hill", "state": "MD", "lat": "38.8392", "lng": "-76.9367"}, {"name": "Edmonston", "state": "MD", "lat": "38.9502", "lng": "-76.9333"}, {"name": "Maugansville", "state": "MD", "lat": "39.6936", "lng": "-77.7472"}, {"name": "Cumberland", "state": "MD", "lat": "39.6515", "lng": "-78.7585"}, {"name": "Barrelville", "state": "MD", "lat": "39.7026", "lng": "-78.8425"}, {"name": "Pecktonville", "state": "MD", "lat": "39.6660", "lng": "-78.0481"}, {"name": "Chestertown", "state": "MD", "lat": "39.2195", "lng": "-76.0710"}, {"name": "Edgemere", "state": "MD", "lat": "39.2273", "lng": "-76.4590"}, {"name": "Secretary", "state": "MD", "lat": "38.6082", "lng": "-75.9468"}, {"name": "Pikesville", "state": "MD", "lat": "39.3893", "lng": "-76.7020"}, {"name": "Church Creek", "state": "MD", "lat": "38.5036", "lng": "-76.1530"}, {"name": "Adelphi", "state": "MD", "lat": "39.0017", "lng": "-76.9649"}, {"name": "Antietam", "state": "MD", "lat": "39.4151", "lng": "-77.7364"}, {"name": "Glenn Dale", "state": "MD", "lat": "38.9833", "lng": "-76.8040"}, {"name": "Accident", "state": "MD", "lat": "39.6257", "lng": "-79.3200"}, {"name": "Girdletree", "state": "MD", "lat": "38.0987", "lng": "-75.4004"}, {"name": "Goldsboro", "state": "MD", "lat": "39.0316", "lng": "-75.7821"}, {"name": "Kingsville", "state": "MD", "lat": "39.4496", "lng": "-76.4204"}, {"name": "St. George Island", "state": "MD", "lat": "38.1155", "lng": "-76.4771"}, {"name": "Rock Hall", "state": "MD", "lat": "39.1393", "lng": "-76.2427"}, {"name": "Bryantown", "state": "MD", "lat": "38.5498", "lng": "-76.8429"}, {"name": "Frostburg", "state": "MD", "lat": "39.6506", "lng": "-78.9269"}, {"name": "West Laurel", "state": "MD", "lat": "39.1133", "lng": "-76.8924"}, {"name": "Midlothian", "state": "MD", "lat": "39.6316", "lng": "-78.9523"}, {"name": "Zihlman", "state": "MD", "lat": "39.6741", "lng": "-78.9131"}, {"name": "Mount Briar", "state": "MD", "lat": "39.4426", "lng": "-77.6873"}, {"name": "Elliott", "state": "MD", "lat": "38.3095", "lng": "-76.0067"}, {"name": "Dunkirk", "state": "MD", "lat": "38.7156", "lng": "-76.6730"}, {"name": "Grasonville", "state": "MD", "lat": "38.9559", "lng": "-76.1948"}, {"name": "Oxon Hill", "state": "MD", "lat": "38.7887", "lng": "-76.9733"}, {"name": "La Vale", "state": "MD", "lat": "39.6518", "lng": "-78.8162"}, {"name": "Chillum", "state": "MD", "lat": "38.9667", "lng": "-76.9790"}, {"name": "Upper Marlboro", "state": "MD", "lat": "38.8172", "lng": "-76.7546"}, {"name": "Ocean", "state": "MD", "lat": "39.6017", "lng": "-78.9450"}, {"name": "Crofton", "state": "MD", "lat": "39.0144", "lng": "-76.6800"}, {"name": "Denton", "state": "MD", "lat": "38.8770", "lng": "-75.8264"}, {"name": "Odenton", "state": "MD", "lat": "39.0661", "lng": "-76.6939"}, {"name": "Edesville", "state": "MD", "lat": "39.1541", "lng": "-76.2097"}, {"name": "Pleasant Hills", "state": "MD", "lat": "39.4861", "lng": "-76.3908"}, {"name": "Mayo", "state": "MD", "lat": "38.9041", "lng": "-76.5180"}, {"name": "Brandywine", "state": "MD", "lat": "38.6963", "lng": "-76.8846"}, {"name": "Galesville", "state": "MD", "lat": "38.8379", "lng": "-76.5514"}, {"name": "Leisure World", "state": "MD", "lat": "39.1023", "lng": "-77.0691"}, {"name": "Willards", "state": "MD", "lat": "38.3922", "lng": "-75.3494"}, {"name": "Hampstead", "state": "MD", "lat": "39.6109", "lng": "-76.8551"}, {"name": "Greenbelt", "state": "MD", "lat": "38.9953", "lng": "-76.8885"}, {"name": "Pinesburg", "state": "MD", "lat": "39.6269", "lng": "-77.8562"}, {"name": "Rosedale", "state": "MD", "lat": "39.3266", "lng": "-76.5084"}, {"name": "Queen Anne", "state": "MD", "lat": "38.9191", "lng": "-75.9535"}, {"name": "Salisbury", "state": "MD", "lat": "38.3755", "lng": "-75.5867"}, {"name": "Bloomington", "state": "MD", "lat": "39.4794", "lng": "-79.0768"}, {"name": "West Denton", "state": "MD", "lat": "38.8896", "lng": "-75.8389"}, {"name": "Hyattsville", "state": "MD", "lat": "38.9612", "lng": "-76.9548"}, {"name": "Reisterstown", "state": "MD", "lat": "39.4552", "lng": "-76.8144"}, {"name": "Chevy Chase", "state": "MD", "lat": "38.9943", "lng": "-77.0737"}, {"name": "Woodlawn", "state": "MD", "lat": "39.3054", "lng": "-76.7489"}, {"name": "Rawlings", "state": "MD", "lat": "39.5403", "lng": "-78.8858"}, {"name": "Mapleville", "state": "MD", "lat": "39.5357", "lng": "-77.6463"}, {"name": "Maryland City", "state": "MD", "lat": "39.1016", "lng": "-76.8051"}, {"name": "St. Michaels", "state": "MD", "lat": "38.7884", "lng": "-76.2243"}, {"name": "Klondike", "state": "MD", "lat": "39.6102", "lng": "-78.9635"}, {"name": "Piney Point", "state": "MD", "lat": "38.1483", "lng": "-76.5201"}, {"name": "Aberdeen Proving Ground", "state": "MD", "lat": "39.4673", "lng": "-76.1308"}, {"name": "Linganore", "state": "MD", "lat": "39.4111", "lng": "-77.3026"}, {"name": "Trappe", "state": "MD", "lat": "38.6635", "lng": "-76.0518"}, {"name": "Delmar", "state": "MD", "lat": "38.4450", "lng": "-75.5662"}, {"name": "Newark", "state": "MD", "lat": "38.2749", "lng": "-75.2735"}, {"name": "Loch Lynn Heights", "state": "MD", "lat": "39.3919", "lng": "-79.3726"}, {"name": "Jugtown", "state": "MD", "lat": "39.6143", "lng": "-77.5943"}, {"name": "Travilah", "state": "MD", "lat": "39.0571", "lng": "-77.2458"}, {"name": "Elkridge", "state": "MD", "lat": "39.1941", "lng": "-76.7427"}, {"name": "Wilson-Conococheague", "state": "MD", "lat": "39.6530", "lng": "-77.8306"}, {"name": "Forest Glen", "state": "MD", "lat": "39.0191", "lng": "-77.0445"}, {"name": "Havre de Grace", "state": "MD", "lat": "39.5481", "lng": "-76.1146"}, {"name": "New Market", "state": "MD", "lat": "39.3903", "lng": "-77.2775"}, {"name": "Eckhart Mines", "state": "MD", "lat": "39.6553", "lng": "-78.8941"}, {"name": "Eldersburg", "state": "MD", "lat": "39.4041", "lng": "-76.9529"}, {"name": "Cheverly", "state": "MD", "lat": "38.9254", "lng": "-76.9141"}, {"name": "Easton", "state": "MD", "lat": "38.7760", "lng": "-76.0702"}, {"name": "Rosemont", "state": "MD", "lat": "39.3317", "lng": "-77.6214"}, {"name": "Marlboro Village", "state": "MD", "lat": "38.8306", "lng": "-76.7699"}, {"name": "Franklin", "state": "MD", "lat": "39.4991", "lng": "-79.0513"}, {"name": "Barclay", "state": "MD", "lat": "39.1450", "lng": "-75.8656"}, {"name": "New Windsor", "state": "MD", "lat": "39.5442", "lng": "-77.1017"}, {"name": "Stockton", "state": "MD", "lat": "38.0659", "lng": "-75.4134"}, {"name": "Melwood", "state": "MD", "lat": "38.8022", "lng": "-76.8419"}, {"name": "Ridgely", "state": "MD", "lat": "38.9528", "lng": "-75.8828"}, {"name": "Fulton", "state": "MD", "lat": "39.1516", "lng": "-76.9163"}, {"name": "Pittsville", "state": "MD", "lat": "38.3939", "lng": "-75.4074"}, {"name": "Peppermill Village", "state": "MD", "lat": "38.8940", "lng": "-76.8878"}, {"name": "Fairwood", "state": "MD", "lat": "38.9565", "lng": "-76.7780"}, {"name": "Colesville", "state": "MD", "lat": "39.0730", "lng": "-77.0009"}, {"name": "Catonsville", "state": "MD", "lat": "39.2646", "lng": "-76.7424"}, {"name": "Jarrettsville", "state": "MD", "lat": "39.6032", "lng": "-76.4752"}, {"name": "Clinton", "state": "MD", "lat": "38.7499", "lng": "-76.9063"}, {"name": "Brookeville", "state": "MD", "lat": "39.1808", "lng": "-77.0590"}, {"name": "Port Tobacco Village", "state": "MD", "lat": "38.5104", "lng": "-77.0197"}, {"name": "Mays Chapel", "state": "MD", "lat": "39.4343", "lng": "-76.6516"}, {"name": "Ballenger Creek", "state": "MD", "lat": "39.3807", "lng": "-77.4206"}, {"name": "South Kensington", "state": "MD", "lat": "39.0188", "lng": "-77.0785"}, {"name": "Grantsville", "state": "MD", "lat": "39.6969", "lng": "-79.1528"}, {"name": "Hancock", "state": "MD", "lat": "39.7053", "lng": "-78.1749"}, {"name": "Clarysville", "state": "MD", "lat": "39.6421", "lng": "-78.8887"}, {"name": "Big Spring", "state": "MD", "lat": "39.6260", "lng": "-77.9397"}, {"name": "New Carrollton", "state": "MD", "lat": "38.9654", "lng": "-76.8773"}, {"name": "Bartonsville", "state": "MD", "lat": "39.3866", "lng": "-77.3434"}, {"name": "Church Hill", "state": "MD", "lat": "39.1450", "lng": "-75.9808"}, {"name": "California", "state": "MD", "lat": "38.2969", "lng": "-76.4950"}, {"name": "Leonardtown", "state": "MD", "lat": "38.3039", "lng": "-76.6396"}, {"name": "Colmar Manor", "state": "MD", "lat": "38.9302", "lng": "-76.9437"}, {"name": "Thurmont", "state": "MD", "lat": "39.6210", "lng": "-77.4076"}, {"name": "Tall Timbers", "state": "MD", "lat": "38.1654", "lng": "-76.5366"}, {"name": "Beaver Creek", "state": "MD", "lat": "39.5786", "lng": "-77.6477"}, {"name": "Carney", "state": "MD", "lat": "39.4050", "lng": "-76.5236"}, {"name": "Brookview", "state": "MD", "lat": "38.5737", "lng": "-75.7925"}, {"name": "Ellicott City", "state": "MD", "lat": "39.2773", "lng": "-76.8344"}, {"name": "Sandy Hook", "state": "MD", "lat": "39.3285", "lng": "-77.7050"}, {"name": "Chesapeake Ranch Estates", "state": "MD", "lat": "38.3574", "lng": "-76.4147"}, {"name": "Moscow", "state": "MD", "lat": "39.5409", "lng": "-79.0075"}, {"name": "Redland", "state": "MD", "lat": "39.1335", "lng": "-77.1465"}, {"name": "Woodsboro", "state": "MD", "lat": "39.5330", "lng": "-77.3095"}, {"name": "Preston", "state": "MD", "lat": "38.7112", "lng": "-75.9090"}, {"name": "Allen", "state": "MD", "lat": "38.2886", "lng": "-75.6904"}, {"name": "Landover Hills", "state": "MD", "lat": "38.9424", "lng": "-76.8946"}, {"name": "Jefferson", "state": "MD", "lat": "39.3661", "lng": "-77.5409"}, {"name": "Deale", "state": "MD", "lat": "38.7910", "lng": "-76.5469"}, {"name": "Rock Point", "state": "MD", "lat": "38.2754", "lng": "-76.8428"}, {"name": "Yarrowsburg", "state": "MD", "lat": "39.3762", "lng": "-77.6843"}, {"name": "Glen Echo", "state": "MD", "lat": "38.9680", "lng": "-77.1410"}, {"name": "Chevy Chase Village", "state": "MD", "lat": "38.9698", "lng": "-77.0793"}, {"name": "Ringgold", "state": "MD", "lat": "39.7091", "lng": "-77.5690"}, {"name": "Madison", "state": "MD", "lat": "38.5149", "lng": "-76.2155"}, {"name": "Williston", "state": "MD", "lat": "38.8309", "lng": "-75.8511"}, {"name": "Temple Hills", "state": "MD", "lat": "38.8106", "lng": "-76.9495"}, {"name": "Kitzmiller", "state": "MD", "lat": "39.3894", "lng": "-79.1833"}, {"name": "Fairview", "state": "MD", "lat": "39.7111", "lng": "-77.8406"}, {"name": "Arbutus", "state": "MD", "lat": "39.2428", "lng": "-76.6922"}, {"name": "Bryans Road", "state": "MD", "lat": "38.6144", "lng": "-77.0850"}, {"name": "Towson", "state": "MD", "lat": "39.3944", "lng": "-76.6190"}, {"name": "Darlington", "state": "MD", "lat": "39.6425", "lng": "-76.2035"}, {"name": "Darnestown", "state": "MD", "lat": "39.0960", "lng": "-77.3033"}, {"name": "Emmitsburg", "state": "MD", "lat": "39.7051", "lng": "-77.3217"}, {"name": "Corriganville", "state": "MD", "lat": "39.6945", "lng": "-78.7970"}, {"name": "Fairplay", "state": "MD", "lat": "39.5357", "lng": "-77.7463"}, {"name": "Baden", "state": "MD", "lat": "38.6719", "lng": "-76.7428"}, {"name": "Cockeysville", "state": "MD", "lat": "39.4793", "lng": "-76.6300"}, {"name": "District Heights", "state": "MD", "lat": "38.8588", "lng": "-76.8885"}, {"name": "Glen Burnie", "state": "MD", "lat": "39.1559", "lng": "-76.6072"}, {"name": "Eakles Mill", "state": "MD", "lat": "39.4670", "lng": "-77.6860"}, {"name": "Hutton", "state": "MD", "lat": "39.4145", "lng": "-79.4801"}, {"name": "Riviera Beach", "state": "MD", "lat": "39.1628", "lng": "-76.5263"}, {"name": "Cedarville", "state": "MD", "lat": "38.6623", "lng": "-76.8190"}, {"name": "Landover", "state": "MD", "lat": "38.9241", "lng": "-76.8875"}, {"name": "Shady Side", "state": "MD", "lat": "38.8285", "lng": "-76.5211"}, {"name": "Seat Pleasant", "state": "MD", "lat": "38.8952", "lng": "-76.9016"}, {"name": "Nanticoke Acres", "state": "MD", "lat": "38.2578", "lng": "-75.9059"}, {"name": "Arnold", "state": "MD", "lat": "39.0437", "lng": "-76.4974"}, {"name": "Taylors Island", "state": "MD", "lat": "38.4730", "lng": "-76.3126"}, {"name": "Four Corners", "state": "MD", "lat": "39.0236", "lng": "-77.0102"}, {"name": "Bladensburg", "state": "MD", "lat": "38.9424", "lng": "-76.9263"}, {"name": "Woodmore", "state": "MD", "lat": "38.9222", "lng": "-76.7810"}, {"name": "Annapolis", "state": "MD", "lat": "38.9706", "lng": "-76.5047"}, {"name": "Woodland", "state": "MD", "lat": "39.6081", "lng": "-78.9497"}, {"name": "Templeville", "state": "MD", "lat": "39.1362", "lng": "-75.7667"}, {"name": "Indian Springs", "state": "MD", "lat": "39.6457", "lng": "-78.0073"}, {"name": "Severn", "state": "MD", "lat": "39.1355", "lng": "-76.6958"}, {"name": "Tilghmanton", "state": "MD", "lat": "39.5286", "lng": "-77.7437"}, {"name": "Hughesville", "state": "MD", "lat": "38.5376", "lng": "-76.7748"}, {"name": "Bowie", "state": "MD", "lat": "38.9574", "lng": "-76.7422"}, {"name": "Martin's Additions", "state": "MD", "lat": "38.9795", "lng": "-77.0693"}, {"name": "Pomfret", "state": "MD", "lat": "38.5699", "lng": "-77.0304"}, {"name": "Pasadena", "state": "MD", "lat": "39.1552", "lng": "-76.5537"}, {"name": "Quantico", "state": "MD", "lat": "38.3767", "lng": "-75.7526"}, {"name": "Ferndale", "state": "MD", "lat": "39.1869", "lng": "-76.6330"}, {"name": "Kennedyville", "state": "MD", "lat": "39.3059", "lng": "-75.9947"}, {"name": "Gapland", "state": "MD", "lat": "39.4018", "lng": "-77.6583"}, {"name": "Bel Air North", "state": "MD", "lat": "39.5544", "lng": "-76.3733"}, {"name": "North Bethesda", "state": "MD", "lat": "39.0393", "lng": "-77.1191"}, {"name": "Breathedsville", "state": "MD", "lat": "39.5460", "lng": "-77.7246"}, {"name": "Hillandale", "state": "MD", "lat": "39.0254", "lng": "-76.9751"}, {"name": "Prince Frederick", "state": "MD", "lat": "38.5440", "lng": "-76.5879"}, {"name": "Jennings", "state": "MD", "lat": "39.6487", "lng": "-79.1835"}, {"name": "Brock Hall", "state": "MD", "lat": "38.8617", "lng": "-76.7549"}, {"name": "Mercersville", "state": "MD", "lat": "39.4968", "lng": "-77.7672"}, {"name": "Carlos", "state": "MD", "lat": "39.6237", "lng": "-78.9567"}, {"name": "Cambridge", "state": "MD", "lat": "38.5515", "lng": "-76.0787"}, {"name": "Essex", "state": "MD", "lat": "39.3024", "lng": "-76.4457"}, {"name": "Buckeystown", "state": "MD", "lat": "39.3301", "lng": "-77.4316"}, {"name": "Somerset", "state": "MD", "lat": "38.9666", "lng": "-77.0963"}, {"name": "Benedict", "state": "MD", "lat": "38.5116", "lng": "-76.6797"}, {"name": "Golden Beach", "state": "MD", "lat": "38.4900", "lng": "-76.7019"}, {"name": "Highfield-Cascade", "state": "MD", "lat": "39.7136", "lng": "-77.4947"}, {"name": "Pleasant Grove", "state": "MD", "lat": "39.6803", "lng": "-78.6903"}, {"name": "Edgemont", "state": "MD", "lat": "39.6766", "lng": "-77.5470"}, {"name": "Wheaton", "state": "MD", "lat": "39.0492", "lng": "-77.0572"}, {"name": "Middleburg", "state": "MD", "lat": "39.7177", "lng": "-77.7239"}, {"name": "Middle River", "state": "MD", "lat": "39.3345", "lng": "-76.4318"}, {"name": "Queensland", "state": "MD", "lat": "38.8021", "lng": "-76.7839"}, {"name": "Forestville", "state": "MD", "lat": "38.8518", "lng": "-76.8708"}, {"name": "Swanton", "state": "MD", "lat": "39.4598", "lng": "-79.2328"}, {"name": "Choptank", "state": "MD", "lat": "38.6822", "lng": "-75.9492"}, {"name": "Shaft", "state": "MD", "lat": "39.6265", "lng": "-78.9384"}, {"name": "Perry Hall", "state": "MD", "lat": "39.4067", "lng": "-76.4781"}, {"name": "Largo", "state": "MD", "lat": "38.8800", "lng": "-76.8289"}, {"name": "Bowmans Addition", "state": "MD", "lat": "39.6876", "lng": "-78.7541"}, {"name": "Drum Point", "state": "MD", "lat": "38.3325", "lng": "-76.4295"}, {"name": "Kemp Mill", "state": "MD", "lat": "39.0412", "lng": "-77.0214"}, {"name": "Langley Park", "state": "MD", "lat": "38.9897", "lng": "-76.9808"}, {"name": "Cecilton", "state": "MD", "lat": "39.4045", "lng": "-75.8676"}, {"name": "Bel Air South", "state": "MD", "lat": "39.5051", "lng": "-76.3197"}, {"name": "Layhill", "state": "MD", "lat": "39.0870", "lng": "-77.0401"}, {"name": "Bakersville", "state": "MD", "lat": "39.5148", "lng": "-77.7570"}, {"name": "Parsonsburg", "state": "MD", "lat": "38.3936", "lng": "-75.4748"}, {"name": "College Park", "state": "MD", "lat": "38.9960", "lng": "-76.9337"}, {"name": "Crownsville", "state": "MD", "lat": "39.0225", "lng": "-76.5903"}, {"name": "Owings", "state": "MD", "lat": "38.7117", "lng": "-76.6055"}, {"name": "Brunswick", "state": "MD", "lat": "39.3180", "lng": "-77.6253"}, {"name": "Fairland", "state": "MD", "lat": "39.0804", "lng": "-76.9527"}, {"name": "Glenmont", "state": "MD", "lat": "39.0697", "lng": "-77.0466"}, {"name": "Trego-Rohrersville Station", "state": "MD", "lat": "39.4291", "lng": "-77.6748"}, {"name": "Eden", "state": "MD", "lat": "38.2792", "lng": "-75.6533"}, {"name": "Long Beach", "state": "MD", "lat": "38.4568", "lng": "-76.4737"}, {"name": "Henderson", "state": "MD", "lat": "39.0750", "lng": "-75.7661"}, {"name": "Barnesville", "state": "MD", "lat": "39.2211", "lng": "-77.3798"}, {"name": "Smith Island", "state": "MD", "lat": "37.9748", "lng": "-76.0251"}, {"name": "White Oak", "state": "MD", "lat": "39.0433", "lng": "-76.9905"}, {"name": "Brownsville", "state": "MD", "lat": "39.3783", "lng": "-77.6614"}, {"name": "Cloverly", "state": "MD", "lat": "39.1065", "lng": "-76.9993"}, {"name": "Solomons", "state": "MD", "lat": "38.3372", "lng": "-76.4611"}, {"name": "Walkersville", "state": "MD", "lat": "39.4832", "lng": "-77.3559"}, {"name": "Andrews AFB", "state": "MD", "lat": "38.8053", "lng": "-76.8744"}, {"name": "Ocean City", "state": "MD", "lat": "38.3998", "lng": "-75.0716"}, {"name": "University Park", "state": "MD", "lat": "38.9719", "lng": "-76.9445"}, {"name": "Oxford", "state": "MD", "lat": "38.6849", "lng": "-76.1703"}, {"name": "White Marsh", "state": "MD", "lat": "39.3819", "lng": "-76.4574"}, {"name": "Friendship", "state": "MD", "lat": "38.7359", "lng": "-76.5878"}, {"name": "Fruitland", "state": "MD", "lat": "38.3214", "lng": "-75.6246"}, {"name": "Timonium", "state": "MD", "lat": "39.4463", "lng": "-76.6083"}, {"name": "Kensington", "state": "MD", "lat": "39.0265", "lng": "-77.0737"}, {"name": "Powellville", "state": "MD", "lat": "38.3296", "lng": "-75.3753"}, {"name": "Charlotte Hall", "state": "MD", "lat": "38.4667", "lng": "-76.7847"}, {"name": "Sykesville", "state": "MD", "lat": "39.3714", "lng": "-76.9716"}, {"name": "Leitersburg", "state": "MD", "lat": "39.6928", "lng": "-77.6206"}, {"name": "Hebron", "state": "MD", "lat": "38.4243", "lng": "-75.6871"}, {"name": "Halfway", "state": "MD", "lat": "39.6163", "lng": "-77.7700"}, {"name": "Charlestown", "state": "MD", "lat": "39.5790", "lng": "-75.9812"}, {"name": "Garrison", "state": "MD", "lat": "39.4023", "lng": "-76.7514"}, {"name": "Cape St. Claire", "state": "MD", "lat": "39.0433", "lng": "-76.4471"}, {"name": "Severna Park", "state": "MD", "lat": "39.0870", "lng": "-76.5687"}, {"name": "Ellerslie", "state": "MD", "lat": "39.7188", "lng": "-78.7787"}, {"name": "Indian Head", "state": "MD", "lat": "38.5987", "lng": "-77.1555"}, {"name": "Downsville", "state": "MD", "lat": "39.5549", "lng": "-77.8016"}, {"name": "Luke", "state": "MD", "lat": "39.4766", "lng": "-79.0593"}, {"name": "Broomes Island", "state": "MD", "lat": "38.4202", "lng": "-76.5475"}, {"name": "Worton", "state": "MD", "lat": "39.2718", "lng": "-76.0933"}, {"name": "Glassmanor", "state": "MD", "lat": "38.8181", "lng": "-76.9836"}, {"name": "Aberdeen", "state": "MD", "lat": "39.5146", "lng": "-76.1730"}, {"name": "St. James", "state": "MD", "lat": "39.5738", "lng": "-77.7482"}, {"name": "Crisfield", "state": "MD", "lat": "37.9827", "lng": "-75.8516"}, {"name": "Camp Springs", "state": "MD", "lat": "38.8052", "lng": "-76.9198"}, {"name": "National Harbor", "state": "MD", "lat": "38.7883", "lng": "-77.0106"}, {"name": "Smithsburg", "state": "MD", "lat": "39.6564", "lng": "-77.5763"}, {"name": "Galestown", "state": "MD", "lat": "38.5634", "lng": "-75.7151"}, {"name": "Algonquin", "state": "MD", "lat": "38.5839", "lng": "-76.0977"}, {"name": "Kent Narrows", "state": "MD", "lat": "38.9704", "lng": "-76.2385"}, {"name": "Baltimore", "state": "MD", "lat": "39.3051", "lng": "-76.6144"}, {"name": "Milford Mill", "state": "MD", "lat": "39.3444", "lng": "-76.7668"}, {"name": "Robinwood", "state": "MD", "lat": "39.6266", "lng": "-77.6630"}, {"name": "Greensburg", "state": "MD", "lat": "39.6806", "lng": "-77.5615"}, {"name": "Hurlock", "state": "MD", "lat": "38.6268", "lng": "-75.8640"}, {"name": "Aspen Hill", "state": "MD", "lat": "39.0928", "lng": "-77.0822"}, {"name": "Union Bridge", "state": "MD", "lat": "39.5734", "lng": "-77.1745"}, {"name": "Bishopville", "state": "MD", "lat": "38.4413", "lng": "-75.2092"}, {"name": "Elkton", "state": "MD", "lat": "39.6067", "lng": "-75.8209"}, {"name": "Waterview", "state": "MD", "lat": "38.2482", "lng": "-75.9017"}, {"name": "Cresaptown", "state": "MD", "lat": "39.5912", "lng": "-78.8550"}, {"name": "Grahamtown", "state": "MD", "lat": "39.6448", "lng": "-78.9224"}, {"name": "North East", "state": "MD", "lat": "39.6077", "lng": "-75.9414"}, {"name": "Williamsport", "state": "MD", "lat": "39.5974", "lng": "-77.8180"}, {"name": "East Riverdale", "state": "MD", "lat": "38.9600", "lng": "-76.9108"}, {"name": "Rohrersville", "state": "MD", "lat": "39.4350", "lng": "-77.6655"}, {"name": "Bensville", "state": "MD", "lat": "38.6176", "lng": "-77.0077"}, {"name": "Hillcrest Heights", "state": "MD", "lat": "38.8373", "lng": "-76.9641"}, {"name": "Bethesda", "state": "MD", "lat": "38.9866", "lng": "-77.1188"}, {"name": "East New Market", "state": "MD", "lat": "38.5970", "lng": "-75.9233"}, {"name": "Cottage City", "state": "MD", "lat": "38.9385", "lng": "-76.9492"}, {"name": "Fairmount", "state": "MD", "lat": "38.1016", "lng": "-75.8074"}, {"name": "Annapolis Neck", "state": "MD", "lat": "38.9408", "lng": "-76.4997"}, {"name": "Federalsburg", "state": "MD", "lat": "38.6929", "lng": "-75.7727"}, {"name": "Olney", "state": "MD", "lat": "39.1466", "lng": "-77.0715"}, {"name": "Accokeek", "state": "MD", "lat": "38.6745", "lng": "-77.0023"}, {"name": "North Beach", "state": "MD", "lat": "38.7080", "lng": "-76.5347"}, {"name": "Owings Mills", "state": "MD", "lat": "39.4115", "lng": "-76.7913"}, {"name": "Savage", "state": "MD", "lat": "39.1485", "lng": "-76.8228"}, {"name": "Berwyn Heights", "state": "MD", "lat": "38.9929", "lng": "-76.9131"}, {"name": "Chesapeake City", "state": "MD", "lat": "39.5280", "lng": "-75.8095"}, {"name": "Burkittsville", "state": "MD", "lat": "39.3923", "lng": "-77.6275"}, {"name": "Kingstown", "state": "MD", "lat": "39.2036", "lng": "-76.0465"}, {"name": "Fallston", "state": "MD", "lat": "39.5332", "lng": "-76.4452"}, {"name": "Arden on the Severn", "state": "MD", "lat": "39.0677", "lng": "-76.5963"}, {"name": "Lonaconing", "state": "MD", "lat": "39.5659", "lng": "-78.9790"}, {"name": "Vienna", "state": "MD", "lat": "38.4810", "lng": "-75.8320"}, {"name": "Parkville", "state": "MD", "lat": "39.3832", "lng": "-76.5519"}, {"name": "Spring Ridge", "state": "MD", "lat": "39.4043", "lng": "-77.3413"}, {"name": "Forest Heights", "state": "MD", "lat": "38.8105", "lng": "-76.9995"}, {"name": "Vale Summit", "state": "MD", "lat": "39.6152", "lng": "-78.9084"}, {"name": "Mount Lena", "state": "MD", "lat": "39.5540", "lng": "-77.6218"}, {"name": "Calverton", "state": "MD", "lat": "39.0578", "lng": "-76.9488"}, {"name": "Mount Airy", "state": "MD", "lat": "39.3742", "lng": "-77.1534"}, {"name": "Chester", "state": "MD", "lat": "38.9677", "lng": "-76.2823"}, {"name": "Myersville", "state": "MD", "lat": "39.5063", "lng": "-77.5690"}, {"name": "Hagerstown", "state": "MD", "lat": "39.6402", "lng": "-77.7217"}, {"name": "Hampton", "state": "MD", "lat": "39.4222", "lng": "-76.5696"}, {"name": "Gaithersburg", "state": "MD", "lat": "39.1346", "lng": "-77.2132"}, {"name": "Friendship Heights Village", "state": "MD", "lat": "38.9633", "lng": "-77.0900"}, {"name": "Friendly", "state": "MD", "lat": "38.7601", "lng": "-76.9642"}, {"name": "Sudlersville", "state": "MD", "lat": "39.1833", "lng": "-75.8535"}, {"name": "Tyaskin", "state": "MD", "lat": "38.3193", "lng": "-75.8738"}, {"name": "Brooklyn Park", "state": "MD", "lat": "39.2170", "lng": "-76.6174"}, {"name": "Garretts Mill", "state": "MD", "lat": "39.3533", "lng": "-77.6892"}, {"name": "Stevensville", "state": "MD", "lat": "38.9745", "lng": "-76.3184"}, {"name": "Joppatowne", "state": "MD", "lat": "39.4181", "lng": "-76.3516"}, {"name": "Croom", "state": "MD", "lat": "38.7458", "lng": "-76.7555"}, {"name": "Eagle Harbor", "state": "MD", "lat": "38.5664", "lng": "-76.6872"}, {"name": "Cordova", "state": "MD", "lat": "38.8680", "lng": "-75.9989"}, {"name": "Capitol Heights", "state": "MD", "lat": "38.8766", "lng": "-76.9074"}, {"name": "Mardela Springs", "state": "MD", "lat": "38.4589", "lng": "-75.7566"}, {"name": "Riva", "state": "MD", "lat": "38.9449", "lng": "-76.5876"}, {"name": "Whitehaven", "state": "MD", "lat": "38.2707", "lng": "-75.7935"}, {"name": "Princess Anne", "state": "MD", "lat": "38.2053", "lng": "-75.6969"}, {"name": "Lexington Park", "state": "MD", "lat": "38.2543", "lng": "-76.4415"}, {"name": "Derwood", "state": "MD", "lat": "39.1136", "lng": "-77.1509"}, {"name": "Silver Spring", "state": "MD", "lat": "39.0028", "lng": "-77.0207"}, {"name": "Pondsville", "state": "MD", "lat": "39.6234", "lng": "-77.5916"}, {"name": "Walker Mill", "state": "MD", "lat": "38.8754", "lng": "-76.8862"}, {"name": "Springdale", "state": "MD", "lat": "38.9383", "lng": "-76.8423"}, {"name": "Edgewood", "state": "MD", "lat": "39.4210", "lng": "-76.2968"}, {"name": "Naval Academy", "state": "MD", "lat": "38.9859", "lng": "-76.4880"}, {"name": "Kettering", "state": "MD", "lat": "38.8888", "lng": "-76.7890"}, {"name": "North Kensington", "state": "MD", "lat": "39.0392", "lng": "-77.0723"}, {"name": "Pylesville", "state": "MD", "lat": "39.6880", "lng": "-76.3876"}, {"name": "Paramount-Long Meadow", "state": "MD", "lat": "39.6798", "lng": "-77.6921"}, {"name": "Konterra", "state": "MD", "lat": "39.0774", "lng": "-76.9023"}, {"name": "Adamstown", "state": "MD", "lat": "39.3065", "lng": "-77.4668"}, {"name": "Gilmore", "state": "MD", "lat": "39.5831", "lng": "-78.9512"}, {"name": "Morningside", "state": "MD", "lat": "38.8265", "lng": "-76.8896"}, {"name": "Overlea", "state": "MD", "lat": "39.3642", "lng": "-76.5176"}, {"name": "Deer Park", "state": "MD", "lat": "39.4240", "lng": "-79.3260"}, {"name": "Chevy Chase View", "state": "MD", "lat": "39.0192", "lng": "-77.0809"}, {"name": "Poolesville", "state": "MD", "lat": "39.1423", "lng": "-77.4102"}, {"name": "Herald Harbor", "state": "MD", "lat": "39.0516", "lng": "-76.5745"}, {"name": "Friendsville", "state": "MD", "lat": "39.6624", "lng": "-79.4044"}, {"name": "Ashton-Sandy Spring", "state": "MD", "lat": "39.1515", "lng": "-77.0065"}, {"name": "Mount Vernon", "state": "MD", "lat": "38.2448", "lng": "-75.7825"}, {"name": "Marydel", "state": "MD", "lat": "39.1130", "lng": "-75.7497"}, {"name": "North Laurel", "state": "MD", "lat": "39.1286", "lng": "-76.8476"}, {"name": "Potomac", "state": "MD", "lat": "39.0141", "lng": "-77.1943"}, {"name": "North Chevy Chase", "state": "MD", "lat": "39.0021", "lng": "-77.0743"}, {"name": "Fort Meade", "state": "MD", "lat": "39.1058", "lng": "-76.7438"}, {"name": "Dames Quarter", "state": "MD", "lat": "38.1697", "lng": "-75.8895"}, {"name": "Marlow Heights", "state": "MD", "lat": "38.8237", "lng": "-76.9485"}, {"name": "Kemps Mill", "state": "MD", "lat": "39.6268", "lng": "-77.8138"}, {"name": "Port Deposit", "state": "MD", "lat": "39.6111", "lng": "-76.0980"}, {"name": "Gambrills", "state": "MD", "lat": "39.0929", "lng": "-76.6512"}, {"name": "Perryville", "state": "MD", "lat": "39.5736", "lng": "-76.0668"}, {"name": "Georgetown", "state": "MD", "lat": "39.2194", "lng": "-76.1971"}, {"name": "La Plata", "state": "MD", "lat": "38.5352", "lng": "-76.9701"}, {"name": "Jesterville", "state": "MD", "lat": "38.2897", "lng": "-75.8928"}, {"name": "Sabillasville", "state": "MD", "lat": "39.6973", "lng": "-77.4562"}, {"name": "Tilghman Island", "state": "MD", "lat": "38.7027", "lng": "-76.3354"}, {"name": "Washington Grove", "state": "MD", "lat": "39.1405", "lng": "-77.1745"}, {"name": "Sharpsburg", "state": "MD", "lat": "39.4577", "lng": "-77.7496"}, {"name": "Germantown", "state": "MD", "lat": "39.1755", "lng": "-77.2643"}, {"name": "Frederick", "state": "MD", "lat": "39.4336", "lng": "-77.4157"}, {"name": "Mitchellville", "state": "MD", "lat": "38.9358", "lng": "-76.8146"}, {"name": "Waldorf", "state": "MD", "lat": "38.6085", "lng": "-76.9195"}, {"name": "Potomac Park", "state": "MD", "lat": "39.6124", "lng": "-78.8082"}, {"name": "Manchester", "state": "MD", "lat": "39.6584", "lng": "-76.8881"}, {"name": "Bier", "state": "MD", "lat": "39.5525", "lng": "-78.8692"}, {"name": "West Pocomoke", "state": "MD", "lat": "38.0956", "lng": "-75.5842"}, {"name": "Coral Hills", "state": "MD", "lat": "38.8709", "lng": "-76.9234"}, {"name": "Rossville", "state": "MD", "lat": "39.3572", "lng": "-76.4767"}, {"name": "Rosaryville", "state": "MD", "lat": "38.7672", "lng": "-76.8266"}, {"name": "Seabrook", "state": "MD", "lat": "38.9802", "lng": "-76.8502"}, {"name": "Reid", "state": "MD", "lat": "39.7126", "lng": "-77.6794"}, {"name": "Baltimore Highlands", "state": "MD", "lat": "39.2355", "lng": "-76.6367"}, {"name": "Ernstville", "state": "MD", "lat": "39.6304", "lng": "-78.0239"}, {"name": "National", "state": "MD", "lat": "39.6112", "lng": "-78.9400"}, {"name": "Oldtown", "state": "MD", "lat": "39.5428", "lng": "-78.6155"}, {"name": "St. Leonard", "state": "MD", "lat": "38.4659", "lng": "-76.4973"}, {"name": "Clear Spring", "state": "MD", "lat": "39.6561", "lng": "-77.9304"}, {"name": "Middletown", "state": "MD", "lat": "39.4408", "lng": "-77.5353"}, {"name": "Brentwood", "state": "MD", "lat": "38.9439", "lng": "-76.9571"}, {"name": "Butlertown", "state": "MD", "lat": "39.2820", "lng": "-76.0992"}, {"name": "Montgomery Village", "state": "MD", "lat": "39.1783", "lng": "-77.1957"}, {"name": "Bagtown", "state": "MD", "lat": "39.5830", "lng": "-77.6139"}, {"name": "Highland", "state": "MD", "lat": "39.1814", "lng": "-76.9570"}, {"name": "Takoma Park", "state": "MD", "lat": "38.9810", "lng": "-77.0028"}, {"name": "North Brentwood", "state": "MD", "lat": "38.9450", "lng": "-76.9510"}, {"name": "Suitland", "state": "MD", "lat": "38.8492", "lng": "-76.9225"}, {"name": "Bel Air", "state": "MD", "lat": "39.5348", "lng": "-76.3460"}, {"name": "Burtonsville", "state": "MD", "lat": "39.1166", "lng": "-76.9356"}, {"name": "Oakland", "state": "MD", "lat": "39.4165", "lng": "-79.4022"}, {"name": "Mountain Lake Park", "state": "MD", "lat": "39.4004", "lng": "-79.3812"}, {"name": "Whaleyville", "state": "MD", "lat": "38.3910", "lng": "-75.3000"}, {"name": "Midland", "state": "MD", "lat": "39.5897", "lng": "-78.9486"}, {"name": "Flintstone", "state": "MD", "lat": "39.7034", "lng": "-78.5758"}, {"name": "Point of Rocks", "state": "MD", "lat": "39.2781", "lng": "-77.5292"}, {"name": "Bowling Green", "state": "MD", "lat": "39.6272", "lng": "-78.8050"}, {"name": "Monrovia", "state": "MD", "lat": "39.3571", "lng": "-77.2753"}, {"name": "Lusby", "state": "MD", "lat": "38.3620", "lng": "-76.4372"}, {"name": "Marlboro Meadows", "state": "MD", "lat": "38.8374", "lng": "-76.7144"}, {"name": "Chevy Chase Section Three", "state": "MD", "lat": "38.9793", "lng": "-77.0742"}, {"name": "Deal Island", "state": "MD", "lat": "38.1444", "lng": "-75.9417"}, {"name": "Chesapeake Beach", "state": "MD", "lat": "38.6881", "lng": "-76.5448"}, {"name": "Columbia", "state": "MD", "lat": "39.2004", "lng": "-76.8590"}, {"name": "Little Orleans", "state": "MD", "lat": "39.6308", "lng": "-78.3921"}, {"name": "Fort Ritchie", "state": "MD", "lat": "39.7022", "lng": "-77.5021"}, {"name": "Chevy Chase Section Five", "state": "MD", "lat": "38.9840", "lng": "-77.0740"}, {"name": "Scaggsville", "state": "MD", "lat": "39.1416", "lng": "-76.8843"}, {"name": "Laurel", "state": "MD", "lat": "39.0950", "lng": "-76.8622"}, {"name": "Laytonsville", "state": "MD", "lat": "39.2094", "lng": "-77.1418"}, {"name": "Eldorado", "state": "MD", "lat": "38.5840", "lng": "-75.7893"}, {"name": "Fairlee", "state": "MD", "lat": "39.2268", "lng": "-76.1654"}, {"name": "Libertytown", "state": "MD", "lat": "39.4858", "lng": "-77.2481"}, {"name": "Riverside", "state": "MD", "lat": "39.4777", "lng": "-76.2385"}, {"name": "Centreville", "state": "MD", "lat": "39.0420", "lng": "-76.0631"}, {"name": "Cearfoss", "state": "MD", "lat": "39.6989", "lng": "-77.7766"}, {"name": "Boonsboro", "state": "MD", "lat": "39.5079", "lng": "-77.6585"}, {"name": "Betterton", "state": "MD", "lat": "39.3652", "lng": "-76.0690"}, {"name": "Clarksburg", "state": "MD", "lat": "39.2314", "lng": "-77.2617"}, {"name": "Dundalk", "state": "MD", "lat": "39.2703", "lng": "-76.4942"}, {"name": "Mount Savage", "state": "MD", "lat": "39.6971", "lng": "-78.8763"}, {"name": "Lansdowne", "state": "MD", "lat": "39.2365", "lng": "-76.6659"}, {"name": "Lochearn", "state": "MD", "lat": "39.3460", "lng": "-76.7307"}, {"name": "Chance", "state": "MD", "lat": "38.1772", "lng": "-75.9366"}, {"name": "Highland Beach", "state": "MD", "lat": "38.9312", "lng": "-76.4660"}, {"name": "Greensboro", "state": "MD", "lat": "38.9764", "lng": "-75.8080"}, {"name": "Millington", "state": "MD", "lat": "39.2629", "lng": "-75.8360"}, {"name": "Perryman", "state": "MD", "lat": "39.4633", "lng": "-76.2115"}, {"name": "North Potomac", "state": "MD", "lat": "39.0955", "lng": "-77.2372"}, {"name": "Ilchester", "state": "MD", "lat": "39.2187", "lng": "-76.7684"}, {"name": "Bowleys Quarters", "state": "MD", "lat": "39.3198", "lng": "-76.3858"}, {"name": "Ocean Pines", "state": "MD", "lat": "38.3825", "lng": "-75.1475"}, {"name": "Spencerville", "state": "MD", "lat": "39.1190", "lng": "-76.9828"}, {"name": "Mechanicsville", "state": "MD", "lat": "38.4355", "lng": "-76.7426"}, {"name": "San Mar", "state": "MD", "lat": "39.5524", "lng": "-77.6406"}, {"name": "Lake Shore", "state": "MD", "lat": "39.1029", "lng": "-76.4876"}, {"name": "Dawson", "state": "MD", "lat": "39.4789", "lng": "-78.9462"}, {"name": "McCoole", "state": "MD", "lat": "39.4534", "lng": "-78.9731"}, {"name": "Westminster", "state": "MD", "lat": "39.5797", "lng": "-77.0064"}, {"name": "Cavetown", "state": "MD", "lat": "39.6426", "lng": "-77.5932"}, {"name": "Potomac Heights", "state": "MD", "lat": "38.5987", "lng": "-77.1372"}, {"name": "Fountainhead-Orchard Hills", "state": "MD", "lat": "39.6878", "lng": "-77.7173"}, {"name": "Big Pool", "state": "MD", "lat": "39.6251", "lng": "-78.0161"}, {"name": "Nikep", "state": "MD", "lat": "39.5516", "lng": "-78.9978"}, {"name": "Bivalve", "state": "MD", "lat": "38.3059", "lng": "-75.8834"}, {"name": "Summerfield", "state": "MD", "lat": "38.9042", "lng": "-76.8678"}, {"name": "Tolchester", "state": "MD", "lat": "39.2218", "lng": "-76.2349"}, {"name": "Parole", "state": "MD", "lat": "38.9861", "lng": "-76.5519"}]