[{"name": "Sanford", "state": "ME", "lat": "43.4244", "lng": "-70.7573"}, {"name": "Westbrook", "state": "ME", "lat": "43.6954", "lng": "-70.3539"}, {"name": "Cousins Island", "state": "ME", "lat": "43.7631", "lng": "-70.1409"}, {"name": "Lisbon Falls", "state": "ME", "lat": "44.0086", "lng": "-70.0570"}, {"name": "Gardiner", "state": "ME", "lat": "44.1910", "lng": "-69.7921"}, {"name": "Steep Falls", "state": "ME", "lat": "43.7905", "lng": "-70.6275"}, {"name": "Lewiston", "state": "ME", "lat": "44.0915", "lng": "-70.1681"}, {"name": "Waterville", "state": "ME", "lat": "44.5441", "lng": "-69.6624"}, {"name": "Rockland", "state": "ME", "lat": "44.1274", "lng": "-69.1369"}, {"name": "Brewer", "state": "ME", "lat": "44.7835", "lng": "-68.7352"}, {"name": "Cape Neddick", "state": "ME", "lat": "43.1706", "lng": "-70.6220"}, {"name": "Hallowell", "state": "ME", "lat": "44.2904", "lng": "-69.8141"}, {"name": "Belfast", "state": "ME", "lat": "44.4280", "lng": "-69.0325"}, {"name": "Bath", "state": "ME", "lat": "43.9346", "lng": "-69.8346"}, {"name": "York Harbor", "state": "ME", "lat": "43.1435", "lng": "-70.6490"}, {"name": "South Paris", "state": "ME", "lat": "44.2190", "lng": "-70.5113"}, {"name": "Calais", "state": "ME", "lat": "45.1340", "lng": "-67.2240"}, {"name": "Little Falls", "state": "ME", "lat": "43.7312", "lng": "-70.4301"}, {"name": "Eastport", "state": "ME", "lat": "44.9137", "lng": "-67.0183"}, {"name": "South Eliot", "state": "ME", "lat": "43.1287", "lng": "-70.7952"}, {"name": "Falmouth Foreside", "state": "ME", "lat": "43.7348", "lng": "-70.2152"}, {"name": "Old Town", "state": "ME", "lat": "44.9491", "lng": "-68.7249"}, {"name": "South Portland", "state": "ME", "lat": "43.6309", "lng": "-70.2895"}, {"name": "Cumberland Center", "state": "ME", "lat": "43.7982", "lng": "-70.2541"}, {"name": "Kittery Point", "state": "ME", "lat": "43.0883", "lng": "-70.6988"}, {"name": "Caribou", "state": "ME", "lat": "46.8662", "lng": "-67.9919"}, {"name": "Bangor", "state": "ME", "lat": "44.8322", "lng": "-68.7906"}, {"name": "Augusta", "state": "ME", "lat": "44.3341", "lng": "-69.7319"}, {"name": "Brunswick Station", "state": "ME", "lat": "43.8866", "lng": "-69.9328"}, {"name": "Littlejohn Island", "state": "ME", "lat": "43.7599", "lng": "-70.1284"}, {"name": "West Kennebunk", "state": "ME", "lat": "43.4142", "lng": "-70.5810"}, {"name": "Auburn", "state": "ME", "lat": "44.0850", "lng": "-70.2492"}, {"name": "Portland", "state": "ME", "lat": "43.6773", "lng": "-70.2715"}, {"name": "Presque Isle", "state": "ME", "lat": "46.6868", "lng": "-67.9874"}, {"name": "Biddeford", "state": "ME", "lat": "43.4673", "lng": "-70.4511"}, {"name": "North Windham", "state": "ME", "lat": "43.8238", "lng": "-70.4288"}, {"name": "Saco", "state": "ME", "lat": "43.5390", "lng": "-70.4624"}, {"name": "Chisholm", "state": "ME", "lat": "44.4916", "lng": "-70.1923"}, {"name": "Lake Arrowhead", "state": "ME", "lat": "43.6634", "lng": "-70.7382"}, {"name": "Ellsworth", "state": "ME", "lat": "44.5847", "lng": "-68.4875"}, {"name": "South Windham", "state": "ME", "lat": "43.7380", "lng": "-70.4236"}]