[{"name": "Trenton", "state": "MI", "lat": "42.1395", "lng": "-83.1930"}, {"name": "Sanford", "state": "MI", "lat": "43.6777", "lng": "-84.3803"}, {"name": "Stanton", "state": "MI", "lat": "43.2928", "lng": "-85.0789"}, {"name": "Glen Arbor", "state": "MI", "lat": "44.8960", "lng": "-85.9900"}, {"name": "Rapid City", "state": "MI", "lat": "44.8366", "lng": "-85.2871"}, {"name": "Sturgis", "state": "MI", "lat": "41.8004", "lng": "-85.4181"}, {"name": "Inkster", "state": "MI", "lat": "42.2935", "lng": "-83.3148"}, {"name": "White Pine", "state": "MI", "lat": "46.7402", "lng": "-89.5813"}, {"name": "Norton Shores", "state": "MI", "lat": "43.1621", "lng": "-86.2519"}, {"name": "Wolf Lake", "state": "MI", "lat": "43.2451", "lng": "-86.1073"}, {"name": "Lake Fenton", "state": "MI", "lat": "42.8453", "lng": "-83.7086"}, {"name": "Almont", "state": "MI", "lat": "42.9208", "lng": "-83.0435"}, {"name": "Escanaba", "state": "MI", "lat": "45.7477", "lng": "-87.0900"}, {"name": "Alpena", "state": "MI", "lat": "45.0740", "lng": "-83.4399"}, {"name": "Grand Beach", "state": "MI", "lat": "41.7740", "lng": "-86.7887"}, {"name": "Dansville", "state": "MI", "lat": "42.5558", "lng": "-84.3030"}, {"name": "Delton", "state": "MI", "lat": "42.4951", "lng": "-85.4117"}, {"name": "Jasper", "state": "MI", "lat": "41.7859", "lng": "-84.0403"}, {"name": "Buckley", "state": "MI", "lat": "44.5033", "lng": "-85.6720"}, {"name": "Gwinn", "state": "MI", "lat": "46.2912", "lng": "-87.4372"}, {"name": "Wyoming", "state": "MI", "lat": "42.8909", "lng": "-85.7066"}, {"name": "Walloon Lake", "state": "MI", "lat": "45.2719", "lng": "-84.9413"}, {"name": "Eastwood", "state": "MI", "lat": "42.3027", "lng": "-85.5447"}, {"name": "Whittemore", "state": "MI", "lat": "44.2337", "lng": "-83.8033"}, {"name": "Port Hope", "state": "MI", "lat": "43.9395", "lng": "-82.7149"}, {"name": "Holt", "state": "MI", "lat": "42.6416", "lng": "-84.5307"}, {"name": "Rockford", "state": "MI", "lat": "43.1266", "lng": "-85.5582"}, {"name": "Norwood", "state": "MI", "lat": "45.2239", "lng": "-85.3791"}, {"name": "Lupton", "state": "MI", "lat": "44.4297", "lng": "-84.0225"}, {"name": "Ann Arbor", "state": "MI", "lat": "42.2755", "lng": "-83.7312"}, {"name": "Manistique", "state": "MI", "lat": "45.9591", "lng": "-86.2507"}, {"name": "Climax", "state": "MI", "lat": "42.2383", "lng": "-85.3360"}, {"name": "Livonia", "state": "MI", "lat": "42.3972", "lng": "-83.3733"}, {"name": "Barton Hills", "state": "MI", "lat": "42.3167", "lng": "-83.7561"}, {"name": "Grand Blanc", "state": "MI", "lat": "42.9258", "lng": "-83.6181"}, {"name": "Ossineke", "state": "MI", "lat": "44.9072", "lng": "-83.4287"}, {"name": "Eastlake", "state": "MI", "lat": "44.2449", "lng": "-86.2927"}, {"name": "Cadillac", "state": "MI", "lat": "44.2494", "lng": "-85.4163"}, {"name": "Montague", "state": "MI", "lat": "43.4128", "lng": "-86.3636"}, {"name": "Luna Pier", "state": "MI", "lat": "41.8049", "lng": "-83.4426"}, {"name": "Grant", "state": "MI", "lat": "43.3348", "lng": "-85.8094"}, {"name": "Boyne Falls", "state": "MI", "lat": "45.1678", "lng": "-84.9131"}, {"name": "Fair Plain", "state": "MI", "lat": "42.0823", "lng": "-86.4515"}, {"name": "Vermontville", "state": "MI", "lat": "42.6271", "lng": "-85.0249"}, {"name": "Westphalia", "state": "MI", "lat": "42.9303", "lng": "-84.7980"}, {"name": "Merrill", "state": "MI", "lat": "43.4091", "lng": "-84.3345"}, {"name": "Lake Odessa", "state": "MI", "lat": "42.7824", "lng": "-85.1374"}, {"name": "Caberfae", "state": "MI", "lat": "44.2492", "lng": "-85.7256"}, {"name": "Detroit", "state": "MI", "lat": "42.3834", "lng": "-83.1024"}, {"name": "Nessen City", "state": "MI", "lat": "44.5203", "lng": "-85.8728"}, {"name": "Concord", "state": "MI", "lat": "42.1762", "lng": "-84.6456"}, {"name": "Lake Orion", "state": "MI", "lat": "42.7827", "lng": "-83.2456"}, {"name": "Milan", "state": "MI", "lat": "42.0815", "lng": "-83.6854"}, {"name": "Frankenmuth", "state": "MI", "lat": "43.3321", "lng": "-83.7395"}, {"name": "Le Roy", "state": "MI", "lat": "44.0381", "lng": "-85.4538"}, {"name": "DeWitt", "state": "MI", "lat": "42.8364", "lng": "-84.5750"}, {"name": "Mason", "state": "MI", "lat": "42.5806", "lng": "-84.4427"}, {"name": "Keego Harbor", "state": "MI", "lat": "42.6088", "lng": "-83.3442"}, {"name": "Perrinton", "state": "MI", "lat": "43.1807", "lng": "-84.6793"}, {"name": "West Ishpeming", "state": "MI", "lat": "46.4884", "lng": "-87.7171"}, {"name": "Lewiston", "state": "MI", "lat": "44.8730", "lng": "-84.3281"}, {"name": "Madison Heights", "state": "MI", "lat": "42.5073", "lng": "-83.1034"}, {"name": "Tekonsha", "state": "MI", "lat": "42.0967", "lng": "-84.9899"}, {"name": "Harrisville", "state": "MI", "lat": "44.6575", "lng": "-83.2946"}, {"name": "New Era", "state": "MI", "lat": "43.5595", "lng": "-86.3477"}, {"name": "St. Johns", "state": "MI", "lat": "43.0001", "lng": "-84.5563"}, {"name": "Detroit Beach", "state": "MI", "lat": "41.9313", "lng": "-83.3292"}, {"name": "Powers", "state": "MI", "lat": "45.6880", "lng": "-87.5265"}, {"name": "Freeland", "state": "MI", "lat": "43.5198", "lng": "-84.1125"}, {"name": "Barryton", "state": "MI", "lat": "43.7505", "lng": "-85.1436"}, {"name": "Melvin", "state": "MI", "lat": "43.1864", "lng": "-82.8617"}, {"name": "Hardwood Acres", "state": "MI", "lat": "44.7213", "lng": "-85.8261"}, {"name": "Scottville", "state": "MI", "lat": "43.9511", "lng": "-86.2798"}, {"name": "Filer City", "state": "MI", "lat": "44.2149", "lng": "-86.2889"}, {"name": "Bay View", "state": "MI", "lat": "45.3834", "lng": "-84.9304"}, {"name": "Sterling Heights", "state": "MI", "lat": "42.5809", "lng": "-83.0305"}, {"name": "Dollar Bay", "state": "MI", "lat": "47.1277", "lng": "-88.5085"}, {"name": "New Lothrop", "state": "MI", "lat": "43.1168", "lng": "-83.9693"}, {"name": "Quinnesec", "state": "MI", "lat": "45.8030", "lng": "-87.9958"}, {"name": "Standish", "state": "MI", "lat": "43.9794", "lng": "-83.9637"}, {"name": "Bloomingdale", "state": "MI", "lat": "42.3833", "lng": "-85.9590"}, {"name": "Buchanan", "state": "MI", "lat": "41.8283", "lng": "-86.3657"}, {"name": "Clawson", "state": "MI", "lat": "42.5367", "lng": "-83.1504"}, {"name": "Deerfield", "state": "MI", "lat": "41.8901", "lng": "-83.7789"}, {"name": "St. Louis", "state": "MI", "lat": "43.4082", "lng": "-84.6118"}, {"name": "Au Sable", "state": "MI", "lat": "44.4105", "lng": "-83.3423"}, {"name": "East Lansing", "state": "MI", "lat": "42.7480", "lng": "-84.4835"}, {"name": "Grand Haven", "state": "MI", "lat": "43.0553", "lng": "-86.2201"}, {"name": "Lexington", "state": "MI", "lat": "43.2671", "lng": "-82.5370"}, {"name": "Breedsville", "state": "MI", "lat": "42.3489", "lng": "-86.0718"}, {"name": "Mackinaw City", "state": "MI", "lat": "45.7752", "lng": "-84.7477"}, {"name": "Benton Heights", "state": "MI", "lat": "42.1211", "lng": "-86.4137"}, {"name": "Port Austin", "state": "MI", "lat": "44.0431", "lng": "-82.9945"}, {"name": "Waldron", "state": "MI", "lat": "41.7242", "lng": "-84.4189"}, {"name": "Mackinac Island", "state": "MI", "lat": "45.8593", "lng": "-84.6253"}, {"name": "Skidway Lake", "state": "MI", "lat": "44.1919", "lng": "-84.0467"}, {"name": "Shields", "state": "MI", "lat": "43.4174", "lng": "-84.0731"}, {"name": "Vernon", "state": "MI", "lat": "42.9392", "lng": "-84.0329"}, {"name": "Caledonia", "state": "MI", "lat": "42.7945", "lng": "-85.5153"}, {"name": "Flat Rock", "state": "MI", "lat": "42.0991", "lng": "-83.2716"}, {"name": "Hillsdale", "state": "MI", "lat": "41.9266", "lng": "-84.6356"}, {"name": "Dryden", "state": "MI", "lat": "42.9456", "lng": "-83.1240"}, {"name": "Goodrich", "state": "MI", "lat": "42.9147", "lng": "-83.5092"}, {"name": "St. James", "state": "MI", "lat": "45.7474", "lng": "-85.5173"}, {"name": "Rose City", "state": "MI", "lat": "44.4209", "lng": "-84.1160"}, {"name": "Lake Linden", "state": "MI", "lat": "47.1939", "lng": "-88.4055"}, {"name": "Coldwater", "state": "MI", "lat": "41.9466", "lng": "-84.9989"}, {"name": "Davison", "state": "MI", "lat": "43.0319", "lng": "-83.5186"}, {"name": "Sheridan", "state": "MI", "lat": "43.2086", "lng": "-85.0739"}, {"name": "Tecumseh", "state": "MI", "lat": "42.0065", "lng": "-83.9450"}, {"name": "Dimondale", "state": "MI", "lat": "42.6485", "lng": "-84.6475"}, {"name": "Burr Oak", "state": "MI", "lat": "41.8472", "lng": "-85.3212"}, {"name": "Pontiac", "state": "MI", "lat": "42.6493", "lng": "-83.2878"}, {"name": "Dearborn Heights", "state": "MI", "lat": "42.3164", "lng": "-83.2769"}, {"name": "Parkdale", "state": "MI", "lat": "44.2720", "lng": "-86.2805"}, {"name": "Zeeland", "state": "MI", "lat": "42.8139", "lng": "-86.0129"}, {"name": "Grandville", "state": "MI", "lat": "42.9003", "lng": "-85.7564"}, {"name": "Reese", "state": "MI", "lat": "43.4527", "lng": "-83.6894"}, {"name": "Birmingham", "state": "MI", "lat": "42.5447", "lng": "-83.2166"}, {"name": "Clarksville", "state": "MI", "lat": "42.8421", "lng": "-85.2425"}, {"name": "Levering", "state": "MI", "lat": "45.6349", "lng": "-84.7837"}, {"name": "Posen", "state": "MI", "lat": "45.2622", "lng": "-83.6989"}, {"name": "Brownlee Park", "state": "MI", "lat": "42.3257", "lng": "-85.1356"}, {"name": "Stanwood", "state": "MI", "lat": "43.5805", "lng": "-85.4481"}, {"name": "Beecher", "state": "MI", "lat": "43.0903", "lng": "-83.7039"}, {"name": "Grawn", "state": "MI", "lat": "44.6611", "lng": "-85.6881"}, {"name": "Morenci", "state": "MI", "lat": "41.7226", "lng": "-84.2169"}, {"name": "Baroda", "state": "MI", "lat": "41.9540", "lng": "-86.4880"}, {"name": "New Haven", "state": "MI", "lat": "42.7306", "lng": "-82.7953"}, {"name": "Corunna", "state": "MI", "lat": "42.9838", "lng": "-84.1163"}, {"name": "Pigeon", "state": "MI", "lat": "43.8295", "lng": "-83.2702"}, {"name": "Burt", "state": "MI", "lat": "43.2348", "lng": "-83.9101"}, {"name": "Brown City", "state": "MI", "lat": "43.2115", "lng": "-82.9879"}, {"name": "Sunfield", "state": "MI", "lat": "42.7612", "lng": "-84.9951"}, {"name": "Decatur", "state": "MI", "lat": "42.1075", "lng": "-85.9746"}, {"name": "Rothbury", "state": "MI", "lat": "43.5200", "lng": "-86.3588"}, {"name": "Marshall", "state": "MI", "lat": "42.2617", "lng": "-84.9597"}, {"name": "Romulus", "state": "MI", "lat": "42.2237", "lng": "-83.3660"}, {"name": "Armada", "state": "MI", "lat": "42.8424", "lng": "-82.8832"}, {"name": "Novi", "state": "MI", "lat": "42.4786", "lng": "-83.4893"}, {"name": "Fife Lake", "state": "MI", "lat": "44.5731", "lng": "-85.3511"}, {"name": "Traverse City", "state": "MI", "lat": "44.7547", "lng": "-85.6035"}, {"name": "Petoskey", "state": "MI", "lat": "45.3650", "lng": "-84.9887"}, {"name": "South Haven", "state": "MI", "lat": "42.4011", "lng": "-86.2676"}, {"name": "Harrietta", "state": "MI", "lat": "44.3091", "lng": "-85.7007"}, {"name": "Edgemont Park", "state": "MI", "lat": "42.7468", "lng": "-84.5926"}, {"name": "Onekama", "state": "MI", "lat": "44.3656", "lng": "-86.2020"}, {"name": "Plymouth", "state": "MI", "lat": "42.3719", "lng": "-83.4680"}, {"name": "Lathrup Village", "state": "MI", "lat": "42.4921", "lng": "-83.2273"}, {"name": "Sebewaing", "state": "MI", "lat": "43.7321", "lng": "-83.4511"}, {"name": "Walled Lake", "state": "MI", "lat": "42.5380", "lng": "-83.4786"}, {"name": "Roseville", "state": "MI", "lat": "42.5074", "lng": "-82.9369"}, {"name": "Otter Lake", "state": "MI", "lat": "43.2138", "lng": "-83.4596"}, {"name": "East Jordan", "state": "MI", "lat": "45.1547", "lng": "-85.1300"}, {"name": "Ravenna", "state": "MI", "lat": "43.1888", "lng": "-85.9415"}, {"name": "Dowling", "state": "MI", "lat": "42.5227", "lng": "-85.2531"}, {"name": "De Tour Village", "state": "MI", "lat": "45.9891", "lng": "-83.9146"}, {"name": "Hillman", "state": "MI", "lat": "45.0647", "lng": "-83.8975"}, {"name": "Holly", "state": "MI", "lat": "42.7987", "lng": "-83.6234"}, {"name": "Bellevue", "state": "MI", "lat": "42.4443", "lng": "-85.0187"}, {"name": "Dearborn", "state": "MI", "lat": "42.3127", "lng": "-83.2129"}, {"name": "Lake Ann", "state": "MI", "lat": "44.7251", "lng": "-85.8450"}, {"name": "Beverly Hills", "state": "MI", "lat": "42.5220", "lng": "-83.2423"}, {"name": "Houghton Lake", "state": "MI", "lat": "44.3124", "lng": "-84.7625"}, {"name": "Jonesville", "state": "MI", "lat": "41.9785", "lng": "-84.6656"}, {"name": "Tawas City", "state": "MI", "lat": "44.2679", "lng": "-83.5244"}, {"name": "Marion", "state": "MI", "lat": "44.1006", "lng": "-85.1438"}, {"name": "South Gull Lake", "state": "MI", "lat": "42.3901", "lng": "-85.4008"}, {"name": "Owendale", "state": "MI", "lat": "43.7273", "lng": "-83.2671"}, {"name": "Petersburg", "state": "MI", "lat": "41.8993", "lng": "-83.7136"}, {"name": "Mendon", "state": "MI", "lat": "42.0089", "lng": "-85.4544"}, {"name": "Henderson", "state": "MI", "lat": "43.0872", "lng": "-84.1933"}, {"name": "Grosse Pointe", "state": "MI", "lat": "42.3915", "lng": "-82.9118"}, {"name": "Ponshewaing", "state": "MI", "lat": "45.4208", "lng": "-84.8060"}, {"name": "Muskegon", "state": "MI", "lat": "43.2281", "lng": "-86.2562"}, {"name": "Chesaning", "state": "MI", "lat": "43.1851", "lng": "-84.1200"}, {"name": "Wakefield", "state": "MI", "lat": "46.4767", "lng": "-89.9336"}, {"name": "Kingsford", "state": "MI", "lat": "45.8061", "lng": "-88.0994"}, {"name": "Lennon", "state": "MI", "lat": "42.9855", "lng": "-83.9325"}, {"name": "Harbor Beach", "state": "MI", "lat": "43.8456", "lng": "-82.6555"}, {"name": "Vanderbilt", "state": "MI", "lat": "45.1436", "lng": "-84.6639"}, {"name": "Arcadia", "state": "MI", "lat": "44.4931", "lng": "-86.2369"}, {"name": "Mancelona", "state": "MI", "lat": "44.9024", "lng": "-85.0613"}, {"name": "Canadian Lakes", "state": "MI", "lat": "43.5789", "lng": "-85.2973"}, {"name": "Franklin", "state": "MI", "lat": "42.5187", "lng": "-83.3030"}, {"name": "Allen Park", "state": "MI", "lat": "42.2595", "lng": "-83.2107"}, {"name": "Southfield", "state": "MI", "lat": "42.4765", "lng": "-83.2605"}, {"name": "Elk Rapids", "state": "MI", "lat": "44.8950", "lng": "-85.4055"}, {"name": "Athens", "state": "MI", "lat": "42.0866", "lng": "-85.2356"}, {"name": "Alba", "state": "MI", "lat": "44.9786", "lng": "-84.9695"}, {"name": "Vicksburg", "state": "MI", "lat": "42.1186", "lng": "-85.5412"}, {"name": "Milford", "state": "MI", "lat": "42.5870", "lng": "-83.6012"}, {"name": "Gaastra", "state": "MI", "lat": "46.0557", "lng": "-88.6050"}, {"name": "Tustin", "state": "MI", "lat": "44.1009", "lng": "-85.4589"}, {"name": "Gladstone", "state": "MI", "lat": "45.8522", "lng": "-87.0356"}, {"name": "Sault Ste. Marie", "state": "MI", "lat": "46.4817", "lng": "-84.3723"}, {"name": "Richland", "state": "MI", "lat": "42.3762", "lng": "-85.4553"}, {"name": "Twining", "state": "MI", "lat": "44.1131", "lng": "-83.8075"}, {"name": "Coleman", "state": "MI", "lat": "43.7589", "lng": "-84.5870"}, {"name": "Springfield", "state": "MI", "lat": "42.3246", "lng": "-85.2371"}, {"name": "Hemlock", "state": "MI", "lat": "43.4180", "lng": "-84.2326"}, {"name": "Omer", "state": "MI", "lat": "44.0487", "lng": "-83.8565"}, {"name": "Laingsburg", "state": "MI", "lat": "42.8906", "lng": "-84.3500"}, {"name": "Luther", "state": "MI", "lat": "44.0386", "lng": "-85.6827"}, {"name": "Oakley", "state": "MI", "lat": "43.1434", "lng": "-84.1684"}, {"name": "St. Clair", "state": "MI", "lat": "42.8262", "lng": "-82.4930"}, {"name": "Norway", "state": "MI", "lat": "45.8018", "lng": "-87.9132"}, {"name": "Onsted", "state": "MI", "lat": "42.0061", "lng": "-84.1893"}, {"name": "Laurium", "state": "MI", "lat": "47.2351", "lng": "-88.4382"}, {"name": "Flint", "state": "MI", "lat": "43.0235", "lng": "-83.6922"}, {"name": "Akron", "state": "MI", "lat": "43.5667", "lng": "-83.5143"}, {"name": "Bath", "state": "MI", "lat": "42.8203", "lng": "-84.4546"}, {"name": "Hancock", "state": "MI", "lat": "47.1355", "lng": "-88.5987"}, {"name": "Marlette", "state": "MI", "lat": "43.3268", "lng": "-83.0807"}, {"name": "Fairgrove", "state": "MI", "lat": "43.5245", "lng": "-83.5434"}, {"name": "Interlochen", "state": "MI", "lat": "44.6497", "lng": "-85.7678"}, {"name": "Jackson", "state": "MI", "lat": "42.2431", "lng": "-84.4037"}, {"name": "Eagle", "state": "MI", "lat": "42.8098", "lng": "-84.7909"}, {"name": "Eastport", "state": "MI", "lat": "45.1112", "lng": "-85.3518"}, {"name": "Otsego", "state": "MI", "lat": "42.4575", "lng": "-85.6979"}, {"name": "Caro", "state": "MI", "lat": "43.4894", "lng": "-83.4022"}, {"name": "Hubbardston", "state": "MI", "lat": "43.0939", "lng": "-84.8413"}, {"name": "River Rouge", "state": "MI", "lat": "42.2731", "lng": "-83.1246"}, {"name": "Advance", "state": "MI", "lat": "45.2161", "lng": "-85.0807"}, {"name": "Carney", "state": "MI", "lat": "45.5935", "lng": "-87.5547"}, {"name": "Lyons", "state": "MI", "lat": "42.9834", "lng": "-84.9456"}, {"name": "Huntington Woods", "state": "MI", "lat": "42.4816", "lng": "-83.1685"}, {"name": "Metamora", "state": "MI", "lat": "42.9422", "lng": "-83.2897"}, {"name": "Ontonagon", "state": "MI", "lat": "46.8665", "lng": "-89.3122"}, {"name": "Kentwood", "state": "MI", "lat": "42.8852", "lng": "-85.5925"}, {"name": "Newberry", "state": "MI", "lat": "46.3538", "lng": "-85.5098"}, {"name": "Hartford", "state": "MI", "lat": "42.2047", "lng": "-86.1661"}, {"name": "Peck", "state": "MI", "lat": "43.2588", "lng": "-82.8167"}, {"name": "Haslett", "state": "MI", "lat": "42.7525", "lng": "-84.4020"}, {"name": "Melvindale", "state": "MI", "lat": "42.2802", "lng": "-83.1782"}, {"name": "McBride", "state": "MI", "lat": "43.3521", "lng": "-85.0441"}, {"name": "Southgate", "state": "MI", "lat": "42.2047", "lng": "-83.2057"}, {"name": "Calumet", "state": "MI", "lat": "47.2477", "lng": "-88.4536"}, {"name": "Allen", "state": "MI", "lat": "41.9580", "lng": "-84.7683"}, {"name": "Turner", "state": "MI", "lat": "44.1422", "lng": "-83.7875"}, {"name": "Northview", "state": "MI", "lat": "43.0427", "lng": "-85.6016"}, {"name": "Middletown", "state": "MI", "lat": "42.9869", "lng": "-84.1445"}, {"name": "Lakewood Club", "state": "MI", "lat": "43.3761", "lng": "-86.2563"}, {"name": "Marysville", "state": "MI", "lat": "42.9084", "lng": "-82.4806"}, {"name": "Brutus", "state": "MI", "lat": "45.4942", "lng": "-84.7817"}, {"name": "Ovid", "state": "MI", "lat": "43.0030", "lng": "-84.3741"}, {"name": "Troy", "state": "MI", "lat": "42.5818", "lng": "-83.1457"}, {"name": "Forest Hills", "state": "MI", "lat": "42.9577", "lng": "-85.4895"}, {"name": "Bear Lake", "state": "MI", "lat": "44.4198", "lng": "-86.1453"}, {"name": "Ubly", "state": "MI", "lat": "43.7082", "lng": "-82.9356"}, {"name": "Lansing", "state": "MI", "lat": "42.7142", "lng": "-84.5601"}, {"name": "Estral Beach", "state": "MI", "lat": "41.9868", "lng": "-83.2357"}, {"name": "Hesperia", "state": "MI", "lat": "43.5691", "lng": "-86.0407"}, {"name": "Otisville", "state": "MI", "lat": "43.1661", "lng": "-83.5247"}, {"name": "Iron River", "state": "MI", "lat": "46.0966", "lng": "-88.6396"}, {"name": "Level Park-Oak Park", "state": "MI", "lat": "42.3642", "lng": "-85.2665"}, {"name": "Temperance", "state": "MI", "lat": "41.7653", "lng": "-83.5755"}, {"name": "Dexter", "state": "MI", "lat": "42.3320", "lng": "-83.8802"}, {"name": "Battle Creek", "state": "MI", "lat": "42.2986", "lng": "-85.2296"}, {"name": "Harvey", "state": "MI", "lat": "46.4882", "lng": "-87.3511"}, {"name": "Lost Lake Woods", "state": "MI", "lat": "44.7926", "lng": "-83.4223"}, {"name": "Reading", "state": "MI", "lat": "41.8396", "lng": "-84.7478"}, {"name": "West Monroe", "state": "MI", "lat": "41.9143", "lng": "-83.4317"}, {"name": "Clayton", "state": "MI", "lat": "41.8649", "lng": "-84.2347"}, {"name": "Pinckney", "state": "MI", "lat": "42.4543", "lng": "-83.9457"}, {"name": "Buena Vista", "state": "MI", "lat": "43.4196", "lng": "-83.8992"}, {"name": "Horton Bay", "state": "MI", "lat": "45.2814", "lng": "-85.0742"}, {"name": "Elberta", "state": "MI", "lat": "44.6209", "lng": "-86.2310"}, {"name": "Lawton", "state": "MI", "lat": "42.1678", "lng": "-85.8460"}, {"name": "Highland Park", "state": "MI", "lat": "42.4052", "lng": "-83.0977"}, {"name": "Marquette", "state": "MI", "lat": "46.5440", "lng": "-87.4082"}, {"name": "Olivet", "state": "MI", "lat": "42.4440", "lng": "-84.9246"}, {"name": "Oden", "state": "MI", "lat": "45.4251", "lng": "-84.8257"}, {"name": "Breckenridge", "state": "MI", "lat": "43.4074", "lng": "-84.4784"}, {"name": "Baraga", "state": "MI", "lat": "46.7766", "lng": "-88.4965"}, {"name": "Imlay City", "state": "MI", "lat": "43.0169", "lng": "-83.0765"}, {"name": "Center Line", "state": "MI", "lat": "42.4805", "lng": "-83.0274"}, {"name": "Woodland", "state": "MI", "lat": "42.7268", "lng": "-85.1344"}, {"name": "Eaton Rapids", "state": "MI", "lat": "42.5092", "lng": "-84.6530"}, {"name": "Sterling", "state": "MI", "lat": "44.0325", "lng": "-84.0194"}, {"name": "Millersburg", "state": "MI", "lat": "45.3344", "lng": "-84.0601"}, {"name": "Mattawan", "state": "MI", "lat": "42.2165", "lng": "-85.7858"}, {"name": "Indian River", "state": "MI", "lat": "45.4236", "lng": "-84.6236"}, {"name": "St. Ignace", "state": "MI", "lat": "45.8695", "lng": "-84.7255"}, {"name": "Wacousta", "state": "MI", "lat": "42.8202", "lng": "-84.6907"}, {"name": "Harrison", "state": "MI", "lat": "44.0168", "lng": "-84.8080"}, {"name": "Caseville", "state": "MI", "lat": "43.9416", "lng": "-83.2739"}, {"name": "Ithaca", "state": "MI", "lat": "43.2912", "lng": "-84.5956"}, {"name": "Zilwaukee", "state": "MI", "lat": "43.4809", "lng": "-83.9223"}, {"name": "Roosevelt Park", "state": "MI", "lat": "43.1981", "lng": "-86.2733"}, {"name": "Republic", "state": "MI", "lat": "46.3957", "lng": "-87.9819"}, {"name": "Three Oaks", "state": "MI", "lat": "41.7987", "lng": "-86.6130"}, {"name": "Manton", "state": "MI", "lat": "44.4114", "lng": "-85.4010"}, {"name": "Riverview", "state": "MI", "lat": "42.1728", "lng": "-83.1935"}, {"name": "Ferndale", "state": "MI", "lat": "42.4592", "lng": "-83.1314"}, {"name": "Dowagiac", "state": "MI", "lat": "41.9834", "lng": "-86.1125"}, {"name": "Fennville", "state": "MI", "lat": "42.5947", "lng": "-86.1052"}, {"name": "Stronach", "state": "MI", "lat": "44.2131", "lng": "-86.2731"}, {"name": "Carson City", "state": "MI", "lat": "43.1816", "lng": "-84.8463"}, {"name": "Croswell", "state": "MI", "lat": "43.2736", "lng": "-82.6177"}, {"name": "Barnes Lake-Millers Lake", "state": "MI", "lat": "43.1796", "lng": "-83.3122"}, {"name": "Cement City", "state": "MI", "lat": "42.0682", "lng": "-84.3282"}, {"name": "Zeba", "state": "MI", "lat": "46.7928", "lng": "-88.4133"}, {"name": "Jennings", "state": "MI", "lat": "44.3325", "lng": "-85.2969"}, {"name": "Trowbridge Park", "state": "MI", "lat": "46.5565", "lng": "-87.4417"}, {"name": "Brighton", "state": "MI", "lat": "42.5298", "lng": "-83.7847"}, {"name": "Hopkins", "state": "MI", "lat": "42.6251", "lng": "-85.7633"}, {"name": "North Adams", "state": "MI", "lat": "41.9707", "lng": "-84.5251"}, {"name": "Bay City", "state": "MI", "lat": "43.5903", "lng": "-83.8886"}, {"name": "Burton", "state": "MI", "lat": "42.9974", "lng": "-83.6175"}, {"name": "Manistee", "state": "MI", "lat": "44.2440", "lng": "-86.3242"}, {"name": "Deckerville", "state": "MI", "lat": "43.5265", "lng": "-82.7420"}, {"name": "Rosebush", "state": "MI", "lat": "43.6998", "lng": "-84.7657"}, {"name": "Snover", "state": "MI", "lat": "43.4653", "lng": "-82.9709"}, {"name": "Weidman", "state": "MI", "lat": "43.7014", "lng": "-84.9745"}, {"name": "Taylor", "state": "MI", "lat": "42.2260", "lng": "-83.2688"}, {"name": "Schoolcraft", "state": "MI", "lat": "42.1170", "lng": "-85.6337"}, {"name": "Berrien Springs", "state": "MI", "lat": "41.9474", "lng": "-86.3403"}, {"name": "Colon", "state": "MI", "lat": "41.9592", "lng": "-85.3229"}, {"name": "Bay Port", "state": "MI", "lat": "43.8378", "lng": "-83.3741"}, {"name": "Kingsley", "state": "MI", "lat": "44.5845", "lng": "-85.5347"}, {"name": "Ahmeek", "state": "MI", "lat": "47.2984", "lng": "-88.3970"}, {"name": "Marenisco", "state": "MI", "lat": "46.3737", "lng": "-89.7120"}, {"name": "Mesick", "state": "MI", "lat": "44.4042", "lng": "-85.7171"}, {"name": "Bellaire", "state": "MI", "lat": "44.9738", "lng": "-85.2057"}, {"name": "Fostoria", "state": "MI", "lat": "43.2495", "lng": "-83.3714"}, {"name": "Farmington", "state": "MI", "lat": "42.4614", "lng": "-83.3784"}, {"name": "Woodland Beach", "state": "MI", "lat": "41.9418", "lng": "-83.3141"}, {"name": "Onaway", "state": "MI", "lat": "45.3589", "lng": "-84.2274"}, {"name": "Waverly", "state": "MI", "lat": "42.7401", "lng": "-84.6353"}, {"name": "Morrice", "state": "MI", "lat": "42.8362", "lng": "-84.1832"}, {"name": "Vassar", "state": "MI", "lat": "43.3719", "lng": "-83.5769"}, {"name": "Alma", "state": "MI", "lat": "43.3800", "lng": "-84.6556"}, {"name": "Morley", "state": "MI", "lat": "43.4908", "lng": "-85.4456"}, {"name": "Bridgeport", "state": "MI", "lat": "43.3706", "lng": "-83.8828"}, {"name": "Cass City", "state": "MI", "lat": "43.6007", "lng": "-83.1767"}, {"name": "Bangor", "state": "MI", "lat": "42.3120", "lng": "-86.1135"}, {"name": "Au Gres", "state": "MI", "lat": "44.0431", "lng": "-83.6933"}, {"name": "Maybee", "state": "MI", "lat": "42.0062", "lng": "-83.5150"}, {"name": "Farmington Hills", "state": "MI", "lat": "42.4860", "lng": "-83.3771"}, {"name": "Greenville", "state": "MI", "lat": "43.1797", "lng": "-85.2533"}, {"name": "Northville", "state": "MI", "lat": "42.4355", "lng": "-83.4890"}, {"name": "Canada Creek Ranch", "state": "MI", "lat": "45.1751", "lng": "-84.2075"}, {"name": "Okemos", "state": "MI", "lat": "42.7057", "lng": "-84.4135"}, {"name": "Wedgewood", "state": "MI", "lat": "44.1937", "lng": "-85.4902"}, {"name": "Fruitport", "state": "MI", "lat": "43.1248", "lng": "-86.1561"}, {"name": "Wolverine Lake", "state": "MI", "lat": "42.5550", "lng": "-83.4883"}, {"name": "Clifford", "state": "MI", "lat": "43.3148", "lng": "-83.1793"}, {"name": "Ferrysburg", "state": "MI", "lat": "43.0850", "lng": "-86.2221"}, {"name": "Paw Paw", "state": "MI", "lat": "42.2146", "lng": "-85.8918"}, {"name": "Whitmore Lake", "state": "MI", "lat": "42.4235", "lng": "-83.7524"}, {"name": "Burlington", "state": "MI", "lat": "42.1047", "lng": "-85.0776"}, {"name": "Linden", "state": "MI", "lat": "42.8194", "lng": "-83.7811"}, {"name": "St. Charles", "state": "MI", "lat": "43.2988", "lng": "-84.1476"}, {"name": "Leonard", "state": "MI", "lat": "42.8652", "lng": "-83.1429"}, {"name": "Port Sanilac", "state": "MI", "lat": "43.4277", "lng": "-82.5446"}, {"name": "Williamston", "state": "MI", "lat": "42.6835", "lng": "-84.2836"}, {"name": "Village of Grosse Pointe Shores", "state": "MI", "lat": "42.4370", "lng": "-82.8787"}, {"name": "Charlevoix", "state": "MI", "lat": "45.3138", "lng": "-85.2557"}, {"name": "Galesburg", "state": "MI", "lat": "42.2911", "lng": "-85.4182"}, {"name": "Columbiaville", "state": "MI", "lat": "43.1567", "lng": "-83.4069"}, {"name": "Bad Axe", "state": "MI", "lat": "43.8037", "lng": "-82.9981"}, {"name": "Galien", "state": "MI", "lat": "41.8015", "lng": "-86.4995"}, {"name": "Bay Shore", "state": "MI", "lat": "45.3609", "lng": "-85.1116"}, {"name": "Birch Run", "state": "MI", "lat": "43.2503", "lng": "-83.7911"}, {"name": "Plainwell", "state": "MI", "lat": "42.4457", "lng": "-85.6435"}, {"name": "Michiana", "state": "MI", "lat": "41.7637", "lng": "-86.8113"}, {"name": "Greilickville", "state": "MI", "lat": "44.8049", "lng": "-85.6630"}, {"name": "Fraser", "state": "MI", "lat": "42.5388", "lng": "-82.9496"}, {"name": "Auburn", "state": "MI", "lat": "43.6021", "lng": "-84.0757"}, {"name": "Evart", "state": "MI", "lat": "43.9002", "lng": "-85.2748"}, {"name": "Menominee", "state": "MI", "lat": "45.1220", "lng": "-87.6234"}, {"name": "Copper City", "state": "MI", "lat": "47.2842", "lng": "-88.3875"}, {"name": "Ishpeming", "state": "MI", "lat": "46.4862", "lng": "-87.6658"}, {"name": "Watervliet", "state": "MI", "lat": "42.1882", "lng": "-86.2576"}, {"name": "Argentine", "state": "MI", "lat": "42.7905", "lng": "-83.8356"}, {"name": "Lowell", "state": "MI", "lat": "42.9351", "lng": "-85.3457"}, {"name": "Big Bay", "state": "MI", "lat": "46.8148", "lng": "-87.6995"}, {"name": "Westland", "state": "MI", "lat": "42.3192", "lng": "-83.3805"}, {"name": "Oxford", "state": "MI", "lat": "42.8217", "lng": "-83.2563"}, {"name": "Alanson", "state": "MI", "lat": "45.4425", "lng": "-84.7871"}, {"name": "Wixom", "state": "MI", "lat": "42.5244", "lng": "-83.5346"}, {"name": "Edwardsburg", "state": "MI", "lat": "41.7965", "lng": "-86.0835"}, {"name": "Portland", "state": "MI", "lat": "42.8696", "lng": "-84.8990"}, {"name": "Hart", "state": "MI", "lat": "43.6972", "lng": "-86.3639"}, {"name": "Perry", "state": "MI", "lat": "42.8195", "lng": "-84.2320"}, {"name": "Quincy", "state": "MI", "lat": "41.9432", "lng": "-84.8844"}, {"name": "Forestville", "state": "MI", "lat": "43.6600", "lng": "-82.6125"}, {"name": "Douglas", "state": "MI", "lat": "42.6411", "lng": "-86.2084"}, {"name": "Wolverine", "state": "MI", "lat": "45.2732", "lng": "-84.6052"}, {"name": "Fountain", "state": "MI", "lat": "44.0484", "lng": "-86.1810"}, {"name": "Lawrence", "state": "MI", "lat": "42.2157", "lng": "-86.0534"}, {"name": "Yale", "state": "MI", "lat": "43.1277", "lng": "-82.7973"}, {"name": "Port Huron", "state": "MI", "lat": "42.9822", "lng": "-82.4387"}, {"name": "McBain", "state": "MI", "lat": "44.1961", "lng": "-85.2154"}, {"name": "Belleville", "state": "MI", "lat": "42.2021", "lng": "-83.4838"}, {"name": "Prudenville", "state": "MI", "lat": "44.3015", "lng": "-84.6652"}, {"name": "Swartz Creek", "state": "MI", "lat": "42.9626", "lng": "-83.8260"}, {"name": "Mount Pleasant", "state": "MI", "lat": "43.5966", "lng": "-84.7759"}, {"name": "Sandusky", "state": "MI", "lat": "43.4212", "lng": "-82.8333"}, {"name": "West Branch", "state": "MI", "lat": "44.2736", "lng": "-84.2362"}, {"name": "Gibraltar", "state": "MI", "lat": "42.0960", "lng": "-83.2029"}, {"name": "Sand Lake", "state": "MI", "lat": "43.2900", "lng": "-85.5192"}, {"name": "Edmore", "state": "MI", "lat": "43.4073", "lng": "-85.0367"}, {"name": "Houghton", "state": "MI", "lat": "47.1119", "lng": "-88.5672"}, {"name": "Middleville", "state": "MI", "lat": "42.7137", "lng": "-85.4692"}, {"name": "South Lyon", "state": "MI", "lat": "42.4614", "lng": "-83.6526"}, {"name": "Coopersville", "state": "MI", "lat": "43.0658", "lng": "-85.9341"}, {"name": "Prescott", "state": "MI", "lat": "44.1916", "lng": "-83.9323"}, {"name": "Charlotte", "state": "MI", "lat": "42.5662", "lng": "-84.8304"}, {"name": "New Baltimore", "state": "MI", "lat": "42.6903", "lng": "-82.7398"}, {"name": "Copemish", "state": "MI", "lat": "44.4804", "lng": "-85.9242"}, {"name": "Rochester", "state": "MI", "lat": "42.6866", "lng": "-83.1197"}, {"name": "Sherwood", "state": "MI", "lat": "41.9997", "lng": "-85.2394"}, {"name": "Grand Rapids", "state": "MI", "lat": "42.9615", "lng": "-85.6557"}, {"name": "Kaleva", "state": "MI", "lat": "44.3723", "lng": "-86.0135"}, {"name": "St. Helen", "state": "MI", "lat": "44.3579", "lng": "-84.4134"}, {"name": "Mount Morris", "state": "MI", "lat": "43.1176", "lng": "-83.6987"}, {"name": "Brooklyn", "state": "MI", "lat": "42.1057", "lng": "-84.2491"}, {"name": "Alpha", "state": "MI", "lat": "46.0440", "lng": "-88.3776"}, {"name": "North Muskegon", "state": "MI", "lat": "43.2518", "lng": "-86.2714"}, {"name": "Woodhaven", "state": "MI", "lat": "42.1320", "lng": "-83.2374"}, {"name": "Belding", "state": "MI", "lat": "43.0968", "lng": "-85.2331"}, {"name": "Lambertville", "state": "MI", "lat": "41.7502", "lng": "-83.6250"}, {"name": "Howard City", "state": "MI", "lat": "43.3947", "lng": "-85.4683"}, {"name": "L'Anse", "state": "MI", "lat": "46.7525", "lng": "-88.4477"}, {"name": "Leland", "state": "MI", "lat": "45.0214", "lng": "-85.7575"}, {"name": "Wayne", "state": "MI", "lat": "42.2774", "lng": "-83.3877"}, {"name": "Shepherd", "state": "MI", "lat": "43.5235", "lng": "-84.6927"}, {"name": "Whitehall", "state": "MI", "lat": "43.4003", "lng": "-86.3406"}, {"name": "Hersey", "state": "MI", "lat": "43.8513", "lng": "-85.4419"}, {"name": "Kalamazoo", "state": "MI", "lat": "42.2749", "lng": "-85.5882"}, {"name": "Carp Lake", "state": "MI", "lat": "45.6890", "lng": "-84.7582"}, {"name": "Byron", "state": "MI", "lat": "42.8239", "lng": "-83.9467"}, {"name": "Leslie", "state": "MI", "lat": "42.4505", "lng": "-84.4331"}, {"name": "Baldwin", "state": "MI", "lat": "43.8971", "lng": "-85.8531"}, {"name": "Nashville", "state": "MI", "lat": "42.6032", "lng": "-85.0941"}, {"name": "Berkley", "state": "MI", "lat": "42.4986", "lng": "-83.1853"}, {"name": "Cutlerville", "state": "MI", "lat": "42.8406", "lng": "-85.6739"}, {"name": "Ironwood", "state": "MI", "lat": "46.4522", "lng": "-90.1505"}, {"name": "Negaunee", "state": "MI", "lat": "46.4970", "lng": "-87.5968"}, {"name": "Beal City", "state": "MI", "lat": "43.6692", "lng": "-84.9086"}, {"name": "Niles", "state": "MI", "lat": "41.8346", "lng": "-86.2473"}, {"name": "Pilgrim", "state": "MI", "lat": "44.6646", "lng": "-86.2498"}, {"name": "Amasa", "state": "MI", "lat": "46.2295", "lng": "-88.4579"}, {"name": "Free Soil", "state": "MI", "lat": "44.1071", "lng": "-86.2110"}, {"name": "Custer", "state": "MI", "lat": "43.9511", "lng": "-86.2196"}, {"name": "Monroe", "state": "MI", "lat": "41.9154", "lng": "-83.3850"}, {"name": "Saline", "state": "MI", "lat": "42.1737", "lng": "-83.7782"}, {"name": "Loomis", "state": "MI", "lat": "43.7882", "lng": "-84.6659"}, {"name": "Shoreham", "state": "MI", "lat": "42.0604", "lng": "-86.5115"}, {"name": "Casnovia", "state": "MI", "lat": "43.2336", "lng": "-85.7895"}, {"name": "Eastpointe", "state": "MI", "lat": "42.4657", "lng": "-82.9461"}, {"name": "Shelby", "state": "MI", "lat": "43.6114", "lng": "-86.3648"}, {"name": "Maple Rapids", "state": "MI", "lat": "43.1077", "lng": "-84.6897"}, {"name": "Newaygo", "state": "MI", "lat": "43.4163", "lng": "-85.8032"}, {"name": "Hastings", "state": "MI", "lat": "42.6498", "lng": "-85.2886"}, {"name": "Bancroft", "state": "MI", "lat": "42.8767", "lng": "-84.0659"}, {"name": "Lincoln Park", "state": "MI", "lat": "42.2432", "lng": "-83.1811"}, {"name": "Boyne City", "state": "MI", "lat": "45.2135", "lng": "-85.0131"}, {"name": "Gobles", "state": "MI", "lat": "42.3617", "lng": "-85.8774"}, {"name": "Sparta", "state": "MI", "lat": "43.1575", "lng": "-85.7091"}, {"name": "Wayland", "state": "MI", "lat": "42.6725", "lng": "-85.6408"}, {"name": "Presque Isle Harbor", "state": "MI", "lat": "45.3227", "lng": "-83.4849"}, {"name": "Gaylord", "state": "MI", "lat": "45.0214", "lng": "-84.6803"}, {"name": "Muskegon Heights", "state": "MI", "lat": "43.2024", "lng": "-86.2420"}, {"name": "Fremont", "state": "MI", "lat": "43.4630", "lng": "-85.9540"}, {"name": "Parma", "state": "MI", "lat": "42.2633", "lng": "-84.5793"}, {"name": "Saginaw", "state": "MI", "lat": "43.4199", "lng": "-83.9501"}, {"name": "Lake Angelus", "state": "MI", "lat": "42.6921", "lng": "-83.3215"}, {"name": "Howell", "state": "MI", "lat": "42.6078", "lng": "-83.9339"}, {"name": "Rochester Hills", "state": "MI", "lat": "42.6645", "lng": "-83.1563"}, {"name": "Daggett", "state": "MI", "lat": "45.4620", "lng": "-87.6047"}, {"name": "Attica", "state": "MI", "lat": "43.0314", "lng": "-83.1607"}, {"name": "Caspian", "state": "MI", "lat": "46.0653", "lng": "-88.6266"}, {"name": "Watersmeet", "state": "MI", "lat": "46.2872", "lng": "-89.1937"}, {"name": "Marine City", "state": "MI", "lat": "42.7138", "lng": "-82.5012"}, {"name": "Bendon", "state": "MI", "lat": "44.6370", "lng": "-85.8378"}, {"name": "Palmer", "state": "MI", "lat": "46.4436", "lng": "-87.5816"}, {"name": "Allendale", "state": "MI", "lat": "42.9851", "lng": "-85.9509"}, {"name": "Beaverton", "state": "MI", "lat": "43.8811", "lng": "-84.4887"}, {"name": "Robin Glen-Indiantown", "state": "MI", "lat": "43.4620", "lng": "-83.8370"}, {"name": "Lake City", "state": "MI", "lat": "44.3297", "lng": "-85.2085"}, {"name": "Clinton", "state": "MI", "lat": "42.0699", "lng": "-83.9687"}, {"name": "Britton", "state": "MI", "lat": "41.9877", "lng": "-83.8304"}, {"name": "Kent City", "state": "MI", "lat": "43.2203", "lng": "-85.7539"}, {"name": "Spring Lake", "state": "MI", "lat": "43.0733", "lng": "-86.1944"}, {"name": "Kalkaska", "state": "MI", "lat": "44.7322", "lng": "-85.1782"}, {"name": "Vineyard Lake", "state": "MI", "lat": "42.0868", "lng": "-84.2102"}, {"name": "Benton Harbor", "state": "MI", "lat": "42.1159", "lng": "-86.4488"}, {"name": "K. I. Sawyer", "state": "MI", "lat": "46.3298", "lng": "-87.3673"}, {"name": "Chelsea", "state": "MI", "lat": "42.3132", "lng": "-84.0188"}, {"name": "Omena", "state": "MI", "lat": "45.0599", "lng": "-85.5952"}, {"name": "Brethren", "state": "MI", "lat": "44.2987", "lng": "-86.0183"}, {"name": "South Boardman", "state": "MI", "lat": "44.6400", "lng": "-85.2864"}, {"name": "Twin Lake", "state": "MI", "lat": "43.3695", "lng": "-86.1805"}, {"name": "Bloomfield Hills", "state": "MI", "lat": "42.5780", "lng": "-83.2456"}, {"name": "Northport", "state": "MI", "lat": "45.1301", "lng": "-85.6173"}, {"name": "Grand Ledge", "state": "MI", "lat": "42.7534", "lng": "-84.7448"}, {"name": "Lake Leelanau", "state": "MI", "lat": "44.9806", "lng": "-85.7157"}, {"name": "Hanover", "state": "MI", "lat": "42.1001", "lng": "-84.5542"}, {"name": "Manistee Lake", "state": "MI", "lat": "44.7841", "lng": "-85.0211"}, {"name": "Walker", "state": "MI", "lat": "42.9858", "lng": "-85.7442"}, {"name": "Albion", "state": "MI", "lat": "42.2478", "lng": "-84.7572"}, {"name": "Eagle River", "state": "MI", "lat": "47.4100", "lng": "-88.2644"}, {"name": "Westwood", "state": "MI", "lat": "42.3030", "lng": "-85.6286"}, {"name": "Ironton", "state": "MI", "lat": "45.2565", "lng": "-85.1927"}, {"name": "Allegan", "state": "MI", "lat": "42.5299", "lng": "-85.8462"}, {"name": "Garden", "state": "MI", "lat": "45.7730", "lng": "-86.5529"}, {"name": "Alden", "state": "MI", "lat": "44.8792", "lng": "-85.2729"}, {"name": "Lakes of the North", "state": "MI", "lat": "44.9361", "lng": "-84.8845"}, {"name": "Hamtramck", "state": "MI", "lat": "42.3954", "lng": "-83.0560"}, {"name": "Grosse Pointe Park", "state": "MI", "lat": "42.3794", "lng": "-82.9288"}, {"name": "Webberville", "state": "MI", "lat": "42.6643", "lng": "-84.1797"}, {"name": "Stevensville", "state": "MI", "lat": "42.0139", "lng": "-86.5243"}, {"name": "Hudsonville", "state": "MI", "lat": "42.8631", "lng": "-85.8628"}, {"name": "New Buffalo", "state": "MI", "lat": "41.7922", "lng": "-86.7424"}, {"name": "Byron Center", "state": "MI", "lat": "42.8121", "lng": "-85.7279"}, {"name": "Eagle Harbor", "state": "MI", "lat": "47.4543", "lng": "-88.1568"}, {"name": "Richmond", "state": "MI", "lat": "42.8094", "lng": "-82.7517"}, {"name": "Stockbridge", "state": "MI", "lat": "42.4483", "lng": "-84.1757"}, {"name": "Saranac", "state": "MI", "lat": "42.9294", "lng": "-85.2105"}, {"name": "Litchfield", "state": "MI", "lat": "42.0410", "lng": "-84.7567"}, {"name": "Honor", "state": "MI", "lat": "44.6666", "lng": "-86.0201"}, {"name": "Clare", "state": "MI", "lat": "43.8259", "lng": "-84.7630"}, {"name": "Grosse Pointe Woods", "state": "MI", "lat": "42.4366", "lng": "-82.8987"}, {"name": "Hudson", "state": "MI", "lat": "41.8569", "lng": "-84.3451"}, {"name": "Maple City", "state": "MI", "lat": "44.8557", "lng": "-85.8573"}, {"name": "Hubbell", "state": "MI", "lat": "47.1770", "lng": "-88.4360"}, {"name": "Minden City", "state": "MI", "lat": "43.6715", "lng": "-82.7757"}, {"name": "Sylvan Lake", "state": "MI", "lat": "42.6172", "lng": "-83.3331"}, {"name": "Saugatuck", "state": "MI", "lat": "42.6592", "lng": "-86.2061"}, {"name": "Farwell", "state": "MI", "lat": "43.8363", "lng": "-84.8677"}, {"name": "Michigan Center", "state": "MI", "lat": "42.2267", "lng": "-84.3230"}, {"name": "Comstock Northwest", "state": "MI", "lat": "42.3219", "lng": "-85.5180"}, {"name": "Spring Arbor", "state": "MI", "lat": "42.2055", "lng": "-84.5551"}, {"name": "Big Rapids", "state": "MI", "lat": "43.6992", "lng": "-85.4806"}, {"name": "Oak Hill", "state": "MI", "lat": "44.2197", "lng": "-86.3031"}, {"name": "Portage", "state": "MI", "lat": "42.2000", "lng": "-85.5906"}, {"name": "St. Clair Shores", "state": "MI", "lat": "42.4921", "lng": "-82.8957"}, {"name": "Stony Point", "state": "MI", "lat": "41.9448", "lng": "-83.2730"}, {"name": "Roscommon", "state": "MI", "lat": "44.4915", "lng": "-84.5914"}, {"name": "Pewamo", "state": "MI", "lat": "43.0020", "lng": "-84.8473"}, {"name": "Crystal Mountain", "state": "MI", "lat": "44.5220", "lng": "-86.0022"}, {"name": "Shorewood-Tower Hills-Harbert", "state": "MI", "lat": "41.8817", "lng": "-86.6142"}, {"name": "Eau Claire", "state": "MI", "lat": "41.9855", "lng": "-86.3040"}, {"name": "Warren", "state": "MI", "lat": "42.4934", "lng": "-83.0270"}, {"name": "Cross Village", "state": "MI", "lat": "45.6439", "lng": "-85.0312"}, {"name": "Conway", "state": "MI", "lat": "45.4188", "lng": "-84.8634"}, {"name": "Union City", "state": "MI", "lat": "42.0662", "lng": "-85.1432"}, {"name": "Chums Corner", "state": "MI", "lat": "44.6767", "lng": "-85.6564"}, {"name": "Grayling", "state": "MI", "lat": "44.6566", "lng": "-84.7091"}, {"name": "Harper Woods", "state": "MI", "lat": "42.4390", "lng": "-82.9292"}, {"name": "Lakeview", "state": "MI", "lat": "43.4434", "lng": "-85.2738"}, {"name": "Potterville", "state": "MI", "lat": "42.6299", "lng": "-84.7433"}, {"name": "Crystal Downs Country Club", "state": "MI", "lat": "44.7013", "lng": "-86.2311"}, {"name": "Flushing", "state": "MI", "lat": "43.0637", "lng": "-83.8403"}, {"name": "Ecorse", "state": "MI", "lat": "42.2489", "lng": "-83.1399"}, {"name": "Ypsilanti", "state": "MI", "lat": "42.2437", "lng": "-83.6205"}, {"name": "Benzonia", "state": "MI", "lat": "44.6160", "lng": "-86.0989"}, {"name": "Vandalia", "state": "MI", "lat": "41.9189", "lng": "-85.9143"}, {"name": "Gagetown", "state": "MI", "lat": "43.6572", "lng": "-83.2449"}, {"name": "Wyandotte", "state": "MI", "lat": "42.2113", "lng": "-83.1558"}, {"name": "Adrian", "state": "MI", "lat": "41.8994", "lng": "-84.0446"}, {"name": "Ionia", "state": "MI", "lat": "42.9772", "lng": "-85.0727"}, {"name": "Orchard Lake Village", "state": "MI", "lat": "42.5859", "lng": "-83.3756"}, {"name": "Capac", "state": "MI", "lat": "43.0076", "lng": "-82.9270"}, {"name": "Holland", "state": "MI", "lat": "42.7677", "lng": "-86.0984"}, {"name": "Three Rivers", "state": "MI", "lat": "41.9465", "lng": "-85.6280"}, {"name": "Thompsonville", "state": "MI", "lat": "44.5205", "lng": "-85.9388"}, {"name": "Emmett", "state": "MI", "lat": "42.9934", "lng": "-82.7653"}, {"name": "Muir", "state": "MI", "lat": "42.9973", "lng": "-84.9359"}, {"name": "Vandercook Lake", "state": "MI", "lat": "42.1916", "lng": "-84.3854"}, {"name": "Clio", "state": "MI", "lat": "43.1773", "lng": "-83.7356"}, {"name": "Mio", "state": "MI", "lat": "44.6605", "lng": "-84.1418"}, {"name": "Montgomery", "state": "MI", "lat": "41.7775", "lng": "-84.8064"}, {"name": "Michigamme", "state": "MI", "lat": "46.5334", "lng": "-88.0627"}, {"name": "Hazel Park", "state": "MI", "lat": "42.4619", "lng": "-83.0977"}, {"name": "East Grand Rapids", "state": "MI", "lat": "42.9464", "lng": "-85.6088"}, {"name": "Central Lake", "state": "MI", "lat": "45.0691", "lng": "-85.2613"}, {"name": "Lake Victoria", "state": "MI", "lat": "42.9168", "lng": "-84.3749"}, {"name": "Fowler", "state": "MI", "lat": "43.0041", "lng": "-84.7413"}, {"name": "Owosso", "state": "MI", "lat": "42.9955", "lng": "-84.1759"}, {"name": "Suttons Bay", "state": "MI", "lat": "44.9798", "lng": "-85.6506"}, {"name": "Manchester", "state": "MI", "lat": "42.1484", "lng": "-84.0346"}, {"name": "Harbor Springs", "state": "MI", "lat": "45.4324", "lng": "-84.9890"}, {"name": "Gladwin", "state": "MI", "lat": "43.9837", "lng": "-84.4877"}, {"name": "Springport", "state": "MI", "lat": "42.3783", "lng": "-84.6965"}, {"name": "Durand", "state": "MI", "lat": "42.9127", "lng": "-83.9890"}, {"name": "Iron Mountain", "state": "MI", "lat": "45.8275", "lng": "-88.0599"}, {"name": "Unionville", "state": "MI", "lat": "43.6533", "lng": "-83.4670"}, {"name": "Frankfort", "state": "MI", "lat": "44.6361", "lng": "-86.2332"}, {"name": "Auburn Hills", "state": "MI", "lat": "42.6735", "lng": "-83.2447"}, {"name": "Dundee", "state": "MI", "lat": "41.9643", "lng": "-83.6636"}, {"name": "Ludington", "state": "MI", "lat": "43.9573", "lng": "-86.4434"}, {"name": "Walkerville", "state": "MI", "lat": "43.7143", "lng": "-86.1259"}, {"name": "Pentwater", "state": "MI", "lat": "43.7793", "lng": "-86.4303"}, {"name": "Lapeer", "state": "MI", "lat": "43.0448", "lng": "-83.3255"}, {"name": "Cedar Springs", "state": "MI", "lat": "43.2202", "lng": "-85.5534"}, {"name": "Village of Clarkston", "state": "MI", "lat": "42.7342", "lng": "-83.4207"}, {"name": "Constantine", "state": "MI", "lat": "41.8379", "lng": "-85.6649"}, {"name": "Bronson", "state": "MI", "lat": "41.8728", "lng": "-85.1915"}, {"name": "Carsonville", "state": "MI", "lat": "43.4257", "lng": "-82.6730"}, {"name": "Ellsworth", "state": "MI", "lat": "45.1665", "lng": "-85.2435"}, {"name": "Maple Grove", "state": "MI", "lat": "44.7091", "lng": "-85.8536"}, {"name": "Midland", "state": "MI", "lat": "43.6239", "lng": "-84.2316"}, {"name": "Rogers City", "state": "MI", "lat": "45.4150", "lng": "-83.8181"}, {"name": "New Troy", "state": "MI", "lat": "41.8790", "lng": "-86.5475"}, {"name": "Oscoda", "state": "MI", "lat": "44.4250", "lng": "-83.3339"}, {"name": "Marcellus", "state": "MI", "lat": "42.0261", "lng": "-85.8131"}, {"name": "Pleasant Ridge", "state": "MI", "lat": "42.4715", "lng": "-83.1443"}, {"name": "Atlanta", "state": "MI", "lat": "45.0017", "lng": "-84.1536"}, {"name": "Napoleon", "state": "MI", "lat": "42.1658", "lng": "-84.2416"}, {"name": "Homer", "state": "MI", "lat": "42.1462", "lng": "-84.8104"}, {"name": "Paw Paw Lake", "state": "MI", "lat": "42.2113", "lng": "-86.2759"}, {"name": "Algonac", "state": "MI", "lat": "42.6208", "lng": "-82.5340"}, {"name": "Freeport", "state": "MI", "lat": "42.7642", "lng": "-85.3160"}, {"name": "Augusta", "state": "MI", "lat": "42.3378", "lng": "-85.3525"}, {"name": "Lake Isabella", "state": "MI", "lat": "43.6417", "lng": "-85.0030"}, {"name": "Garden City", "state": "MI", "lat": "42.3244", "lng": "-83.3412"}, {"name": "Carleton", "state": "MI", "lat": "42.0572", "lng": "-83.3898"}, {"name": "Hickory Corners", "state": "MI", "lat": "42.4363", "lng": "-85.3793"}, {"name": "Mayville", "state": "MI", "lat": "43.3363", "lng": "-83.3520"}, {"name": "Pellston", "state": "MI", "lat": "45.5519", "lng": "-84.7830"}, {"name": "Blissfield", "state": "MI", "lat": "41.8311", "lng": "-83.8634"}, {"name": "Rockwood", "state": "MI", "lat": "42.0705", "lng": "-83.2430"}, {"name": "Utica", "state": "MI", "lat": "42.6290", "lng": "-83.0218"}, {"name": "White Cloud", "state": "MI", "lat": "43.5541", "lng": "-85.7720"}, {"name": "Romeo", "state": "MI", "lat": "42.8049", "lng": "-83.0041"}, {"name": "Oak Park", "state": "MI", "lat": "42.4649", "lng": "-83.1824"}, {"name": "Ashley", "state": "MI", "lat": "43.1873", "lng": "-84.4762"}, {"name": "South Range", "state": "MI", "lat": "47.0703", "lng": "-88.6441"}, {"name": "Beechwood", "state": "MI", "lat": "42.7982", "lng": "-86.1229"}, {"name": "St. Joseph", "state": "MI", "lat": "42.0967", "lng": "-86.4850"}, {"name": "Parchment", "state": "MI", "lat": "42.3277", "lng": "-85.5667"}, {"name": "Centreville", "state": "MI", "lat": "41.9213", "lng": "-85.5259"}, {"name": "Mecosta", "state": "MI", "lat": "43.6211", "lng": "-85.2304"}, {"name": "Cedar", "state": "MI", "lat": "44.8466", "lng": "-85.7941"}, {"name": "Manitou Beach-Devils Lake", "state": "MI", "lat": "41.9757", "lng": "-84.2861"}, {"name": "Crystal Falls", "state": "MI", "lat": "46.0967", "lng": "-88.3264"}, {"name": "Lincoln", "state": "MI", "lat": "44.6842", "lng": "-83.4133"}, {"name": "Mulliken", "state": "MI", "lat": "42.7630", "lng": "-84.8963"}, {"name": "White Pigeon", "state": "MI", "lat": "41.7977", "lng": "-85.6485"}, {"name": "Martin", "state": "MI", "lat": "42.5370", "lng": "-85.6389"}, {"name": "Bingham Farms", "state": "MI", "lat": "42.5176", "lng": "-83.2780"}, {"name": "Empire", "state": "MI", "lat": "44.8126", "lng": "-86.0594"}, {"name": "Grosse Pointe Farms", "state": "MI", "lat": "42.4067", "lng": "-82.8992"}, {"name": "Munising", "state": "MI", "lat": "46.4172", "lng": "-86.6439"}, {"name": "Fowlerville", "state": "MI", "lat": "42.6596", "lng": "-84.0743"}, {"name": "Jenison", "state": "MI", "lat": "42.9063", "lng": "-85.8269"}, {"name": "Pearl Beach", "state": "MI", "lat": "42.6260", "lng": "-82.5943"}, {"name": "Bessemer", "state": "MI", "lat": "46.4775", "lng": "-90.0498"}, {"name": "Elkton", "state": "MI", "lat": "43.8183", "lng": "-83.1809"}, {"name": "North Branch", "state": "MI", "lat": "43.2294", "lng": "-83.1904"}, {"name": "Wellston", "state": "MI", "lat": "44.2179", "lng": "-85.9620"}, {"name": "Coloma", "state": "MI", "lat": "42.1864", "lng": "-86.3083"}, {"name": "Stephenson", "state": "MI", "lat": "45.4137", "lng": "-87.6091"}, {"name": "Comstock Park", "state": "MI", "lat": "43.0438", "lng": "-85.6779"}, {"name": "South Rockwood", "state": "MI", "lat": "42.0597", "lng": "-83.2654"}, {"name": "Gaines", "state": "MI", "lat": "42.8725", "lng": "-83.9108"}, {"name": "Copper Harbor", "state": "MI", "lat": "47.4700", "lng": "-87.8766"}, {"name": "Beulah", "state": "MI", "lat": "44.6292", "lng": "-86.0964"}, {"name": "Mount Clemens", "state": "MI", "lat": "42.5976", "lng": "-82.8820"}, {"name": "Essexville", "state": "MI", "lat": "43.6123", "lng": "-83.8423"}, {"name": "South Monroe", "state": "MI", "lat": "41.8930", "lng": "-83.4179"}, {"name": "Millington", "state": "MI", "lat": "43.2784", "lng": "-83.5273"}, {"name": "Camden", "state": "MI", "lat": "41.7550", "lng": "-84.7562"}, {"name": "Pinconning", "state": "MI", "lat": "43.8573", "lng": "-83.9638"}, {"name": "Hubbard Lake", "state": "MI", "lat": "44.8108", "lng": "-83.5605"}, {"name": "Applegate", "state": "MI", "lat": "43.3554", "lng": "-82.6371"}, {"name": "Cassopolis", "state": "MI", "lat": "41.9116", "lng": "-86.0085"}, {"name": "Reed City", "state": "MI", "lat": "43.8725", "lng": "-85.5068"}, {"name": "Bridgman", "state": "MI", "lat": "41.9396", "lng": "-86.5652"}, {"name": "Haring", "state": "MI", "lat": "44.2821", "lng": "-85.4005"}, {"name": "Memphis", "state": "MI", "lat": "42.8956", "lng": "-82.7689"}, {"name": "Cheboygan", "state": "MI", "lat": "45.6415", "lng": "-84.4685"}, {"name": "Royal Oak", "state": "MI", "lat": "42.5084", "lng": "-83.1539"}, {"name": "Fenton", "state": "MI", "lat": "42.7994", "lng": "-83.7144"}, {"name": "East Tawas", "state": "MI", "lat": "44.2884", "lng": "-83.4849"}, {"name": "Addison", "state": "MI", "lat": "41.9862", "lng": "-84.3491"}, {"name": "Kingston", "state": "MI", "lat": "43.4128", "lng": "-83.1863"}, {"name": "Lake Michigan Beach", "state": "MI", "lat": "42.2127", "lng": "-86.3760"}, {"name": "Grass Lake", "state": "MI", "lat": "42.2511", "lng": "-84.2075"}, {"name": "Boon", "state": "MI", "lat": "44.2880", "lng": "-85.5975"}, {"name": "Elsie", "state": "MI", "lat": "43.0895", "lng": "-84.3889"}, {"name": "Chatham", "state": "MI", "lat": "46.3441", "lng": "-86.9313"}, {"name": "Kinde", "state": "MI", "lat": "43.9405", "lng": "-82.9963"}, {"name": "Montrose", "state": "MI", "lat": "43.1764", "lng": "-83.8932"}, {"name": "Pierson", "state": "MI", "lat": "43.3196", "lng": "-85.4975"}, {"name": "Ortonville", "state": "MI", "lat": "42.8511", "lng": "-83.4427"}]