[{"name": "Birchwood Village", "state": "MN", "lat": "45.0598", "lng": "-92.9777"}, {"name": "Regal", "state": "MN", "lat": "45.4054", "lng": "-94.8397"}, {"name": "St. Peter", "state": "MN", "lat": "44.3296", "lng": "-93.9659"}, {"name": "Aurora", "state": "MN", "lat": "47.5312", "lng": "-92.2399"}, {"name": "Glencoe", "state": "MN", "lat": "44.7699", "lng": "-94.1513"}, {"name": "Fairfax", "state": "MN", "lat": "44.5283", "lng": "-94.7231"}, {"name": "Aitkin", "state": "MN", "lat": "46.5303", "lng": "-93.7051"}, {"name": "Sanborn", "state": "MN", "lat": "44.2098", "lng": "-95.1297"}, {"name": "Columbia Heights", "state": "MN", "lat": "45.0484", "lng": "-93.2472"}, {"name": "Wolf Lake", "state": "MN", "lat": "46.8066", "lng": "-95.3526"}, {"name": "Currie", "state": "MN", "lat": "44.0704", "lng": "-95.6668"}, {"name": "New Auburn", "state": "MN", "lat": "44.6728", "lng": "-94.2320"}, {"name": "New London", "state": "MN", "lat": "45.2974", "lng": "-94.9477"}, {"name": "Hanska", "state": "MN", "lat": "44.1488", "lng": "-94.4945"}, {"name": "Remer", "state": "MN", "lat": "47.0568", "lng": "-93.9126"}, {"name": "Ostrander", "state": "MN", "lat": "43.6137", "lng": "-92.4263"}, {"name": "Mentor", "state": "MN", "lat": "47.6966", "lng": "-96.1440"}, {"name": "Fort Ripley", "state": "MN", "lat": "46.1690", "lng": "-94.3630"}, {"name": "Riverland", "state": "MN", "lat": "47.3219", "lng": "-95.9512"}, {"name": "Midway", "state": "MN", "lat": "47.3170", "lng": "-95.7838"}, {"name": "Brownsville", "state": "MN", "lat": "43.6992", "lng": "-91.2823"}, {"name": "Clara City", "state": "MN", "lat": "44.9583", "lng": "-95.3672"}, {"name": "Donnelly", "state": "MN", "lat": "45.6895", "lng": "-96.0143"}, {"name": "Manhattan Beach", "state": "MN", "lat": "46.7370", "lng": "-94.1396"}, {"name": "Chickamaw Beach", "state": "MN", "lat": "46.7452", "lng": "-94.3844"}, {"name": "Delavan", "state": "MN", "lat": "43.7677", "lng": "-94.0174"}, {"name": "Maplewood", "state": "MN", "lat": "44.9840", "lng": "-93.0247"}, {"name": "Holt", "state": "MN", "lat": "48.2929", "lng": "-96.1945"}, {"name": "Martin Lake", "state": "MN", "lat": "45.3824", "lng": "-93.0886"}, {"name": "Rockford", "state": "MN", "lat": "45.0920", "lng": "-93.7453"}, {"name": "Vernon Center", "state": "MN", "lat": "43.9626", "lng": "-94.1666"}, {"name": "Kinbrae", "state": "MN", "lat": "43.8266", "lng": "-95.4823"}, {"name": "Clearbrook", "state": "MN", "lat": "47.6962", "lng": "-95.4287"}, {"name": "Lismore", "state": "MN", "lat": "43.7491", "lng": "-95.9482"}, {"name": "Pierz", "state": "MN", "lat": "45.9772", "lng": "-94.1008"}, {"name": "St. Paul", "state": "MN", "lat": "44.9477", "lng": "-93.1040"}, {"name": "Danvers", "state": "MN", "lat": "45.2814", "lng": "-95.7559"}, {"name": "Climax", "state": "MN", "lat": "47.6095", "lng": "-96.8122"}, {"name": "Minnetonka Beach", "state": "MN", "lat": "44.9394", "lng": "-93.5891"}, {"name": "Amboy", "state": "MN", "lat": "43.8879", "lng": "-94.1583"}, {"name": "Stewartville", "state": "MN", "lat": "43.8606", "lng": "-92.4896"}, {"name": "Loretto", "state": "MN", "lat": "45.0548", "lng": "-93.6353"}, {"name": "West Concord", "state": "MN", "lat": "44.1529", "lng": "-92.8995"}, {"name": "Blooming Prairie", "state": "MN", "lat": "43.8683", "lng": "-93.0552"}, {"name": "Elizabeth", "state": "MN", "lat": "46.3798", "lng": "-96.1309"}, {"name": "Adrian", "state": "MN", "lat": "43.6332", "lng": "-95.9331"}, {"name": "Arco", "state": "MN", "lat": "44.3814", "lng": "-96.1812"}, {"name": "Wabasha", "state": "MN", "lat": "44.3707", "lng": "-92.0420"}, {"name": "Willmar", "state": "MN", "lat": "45.1220", "lng": "-95.0569"}, {"name": "Eveleth", "state": "MN", "lat": "47.4637", "lng": "-92.5443"}, {"name": "Baker", "state": "MN", "lat": "46.7105", "lng": "-96.5579"}, {"name": "Minnetrista", "state": "MN", "lat": "44.9354", "lng": "-93.7089"}, {"name": "Northfield", "state": "MN", "lat": "44.4551", "lng": "-93.1697"}, {"name": "Anoka", "state": "MN", "lat": "45.2099", "lng": "-93.3893"}, {"name": "Renville", "state": "MN", "lat": "44.7908", "lng": "-95.2048"}, {"name": "West Roy Lake", "state": "MN", "lat": "47.3116", "lng": "-95.5954"}, {"name": "Mabel", "state": "MN", "lat": "43.5198", "lng": "-91.7680"}, {"name": "Wilton", "state": "MN", "lat": "47.5065", "lng": "-94.9970"}, {"name": "Maple Plain", "state": "MN", "lat": "45.0088", "lng": "-93.6618"}, {"name": "Pine City", "state": "MN", "lat": "45.8367", "lng": "-92.9683"}, {"name": "Rockville", "state": "MN", "lat": "45.4650", "lng": "-94.3222"}, {"name": "Newport", "state": "MN", "lat": "44.8744", "lng": "-92.9975"}, {"name": "Grasston", "state": "MN", "lat": "45.7957", "lng": "-93.1524"}, {"name": "Carlos", "state": "MN", "lat": "45.9741", "lng": "-95.2925"}, {"name": "Forest Lake", "state": "MN", "lat": "45.2536", "lng": "-92.9583"}, {"name": "Fairmont", "state": "MN", "lat": "43.6441", "lng": "-94.4621"}, {"name": "Milan", "state": "MN", "lat": "45.1126", "lng": "-95.9117"}, {"name": "Truman", "state": "MN", "lat": "43.8279", "lng": "-94.4366"}, {"name": "Urbank", "state": "MN", "lat": "46.1245", "lng": "-95.5110"}, {"name": "Le Roy", "state": "MN", "lat": "43.5133", "lng": "-92.5078"}, {"name": "Independence", "state": "MN", "lat": "45.0219", "lng": "-93.7077"}, {"name": "Lilydale", "state": "MN", "lat": "44.9096", "lng": "-93.1301"}, {"name": "Freeborn", "state": "MN", "lat": "43.7659", "lng": "-93.5645"}, {"name": "Wykoff", "state": "MN", "lat": "43.7086", "lng": "-92.2674"}, {"name": "Shevlin", "state": "MN", "lat": "47.5302", "lng": "-95.2595"}, {"name": "South End", "state": "MN", "lat": "47.3231", "lng": "-95.4788"}, {"name": "Zemple", "state": "MN", "lat": "47.3207", "lng": "-93.7859"}, {"name": "Buffalo Lake", "state": "MN", "lat": "44.7370", "lng": "-94.6173"}, {"name": "Lewiston", "state": "MN", "lat": "43.9837", "lng": "-91.8680"}, {"name": "St. Anthony", "state": "MN", "lat": "45.0277", "lng": "-93.2174"}, {"name": "Rush City", "state": "MN", "lat": "45.6875", "lng": "-92.9654"}, {"name": "Sunfish Lake", "state": "MN", "lat": "44.8722", "lng": "-93.0943"}, {"name": "Foxhome", "state": "MN", "lat": "46.2769", "lng": "-96.3122"}, {"name": "Inger", "state": "MN", "lat": "47.5580", "lng": "-93.9794"}, {"name": "Hayfield", "state": "MN", "lat": "43.8903", "lng": "-92.8471"}, {"name": "Floodwood", "state": "MN", "lat": "46.9173", "lng": "-92.9187"}, {"name": "Geneva", "state": "MN", "lat": "43.8227", "lng": "-93.2683"}, {"name": "Ogema", "state": "MN", "lat": "47.1016", "lng": "-95.9225"}, {"name": "Leota", "state": "MN", "lat": "43.8292", "lng": "-96.0231"}, {"name": "Sacred Heart", "state": "MN", "lat": "44.7817", "lng": "-95.3507"}, {"name": "Cohasset", "state": "MN", "lat": "47.2389", "lng": "-93.6396"}, {"name": "Princeton", "state": "MN", "lat": "45.5689", "lng": "-93.5900"}, {"name": "Tenstrike", "state": "MN", "lat": "47.6603", "lng": "-94.6843"}, {"name": "Milroy", "state": "MN", "lat": "44.4178", "lng": "-95.5536"}, {"name": "Mahtowa", "state": "MN", "lat": "46.5616", "lng": "-92.6279"}, {"name": "Long Lake", "state": "MN", "lat": "44.9840", "lng": "-93.5688"}, {"name": "Comfrey", "state": "MN", "lat": "44.1110", "lng": "-94.9029"}, {"name": "Slayton", "state": "MN", "lat": "43.9902", "lng": "-95.7577"}, {"name": "Grygla", "state": "MN", "lat": "48.2996", "lng": "-95.6239"}, {"name": "Morristown", "state": "MN", "lat": "44.2240", "lng": "-93.4445"}, {"name": "New Brighton", "state": "MN", "lat": "45.0658", "lng": "-93.2061"}, {"name": "Hammond", "state": "MN", "lat": "44.2221", "lng": "-92.3738"}, {"name": "Wells", "state": "MN", "lat": "43.7432", "lng": "-93.7278"}, {"name": "Victoria", "state": "MN", "lat": "44.8634", "lng": "-93.6586"}, {"name": "Lake Elmo", "state": "MN", "lat": "44.9944", "lng": "-92.9031"}, {"name": "Fosston", "state": "MN", "lat": "47.5855", "lng": "-95.7579"}, {"name": "Rogers", "state": "MN", "lat": "45.1865", "lng": "-93.5783"}, {"name": "St. Stephen", "state": "MN", "lat": "45.7010", "lng": "-94.2742"}, {"name": "Lyle", "state": "MN", "lat": "43.5057", "lng": "-92.9412"}, {"name": "Belview", "state": "MN", "lat": "44.6067", "lng": "-95.3289"}, {"name": "Braham", "state": "MN", "lat": "45.7223", "lng": "-93.1717"}, {"name": "Sebeka", "state": "MN", "lat": "46.6290", "lng": "-95.0878"}, {"name": "Dover", "state": "MN", "lat": "43.9698", "lng": "-92.1340"}, {"name": "Roseau", "state": "MN", "lat": "48.8445", "lng": "-95.7624"}, {"name": "Chatfield", "state": "MN", "lat": "43.8445", "lng": "-92.1829"}, {"name": "Waterville", "state": "MN", "lat": "44.2236", "lng": "-93.5747"}, {"name": "Kiester", "state": "MN", "lat": "43.5365", "lng": "-93.7111"}, {"name": "Rice", "state": "MN", "lat": "45.7525", "lng": "-94.2317"}, {"name": "Bingham Lake", "state": "MN", "lat": "43.9096", "lng": "-95.0461"}, {"name": "St. Paul Park", "state": "MN", "lat": "44.8360", "lng": "-92.9949"}, {"name": "Fulda", "state": "MN", "lat": "43.8691", "lng": "-95.6023"}, {"name": "Plato", "state": "MN", "lat": "44.7722", "lng": "-94.0396"}, {"name": "Watson", "state": "MN", "lat": "45.0099", "lng": "-95.8000"}, {"name": "Silver Lake", "state": "MN", "lat": "44.9042", "lng": "-94.1984"}, {"name": "Falcon Heights", "state": "MN", "lat": "44.9899", "lng": "-93.1770"}, {"name": "Lexington", "state": "MN", "lat": "45.1381", "lng": "-93.1714"}, {"name": "Pequot Lakes", "state": "MN", "lat": "46.5875", "lng": "-94.2983"}, {"name": "Kilkenny", "state": "MN", "lat": "44.3153", "lng": "-93.5742"}, {"name": "Lake Wilson", "state": "MN", "lat": "43.9953", "lng": "-95.9533"}, {"name": "Bowlus", "state": "MN", "lat": "45.8191", "lng": "-94.4072"}, {"name": "Ebro", "state": "MN", "lat": "47.4942", "lng": "-95.5411"}, {"name": "New Munich", "state": "MN", "lat": "45.6309", "lng": "-94.7525"}, {"name": "Ham Lake", "state": "MN", "lat": "45.2545", "lng": "-93.2039"}, {"name": "Lancaster", "state": "MN", "lat": "48.8577", "lng": "-96.8019"}, {"name": "Doran", "state": "MN", "lat": "46.1852", "lng": "-96.4857"}, {"name": "Burnsville", "state": "MN", "lat": "44.7648", "lng": "-93.2795"}, {"name": "Meadowlands", "state": "MN", "lat": "47.0732", "lng": "-92.7312"}, {"name": "McIntosh", "state": "MN", "lat": "47.6369", "lng": "-95.8864"}, {"name": "Caledonia", "state": "MN", "lat": "43.6344", "lng": "-91.5009"}, {"name": "Lanesboro", "state": "MN", "lat": "43.7181", "lng": "-91.9719"}, {"name": "Fairhaven", "state": "MN", "lat": "45.3232", "lng": "-94.2040"}, {"name": "Courtland", "state": "MN", "lat": "44.2701", "lng": "-94.3464"}, {"name": "Perley", "state": "MN", "lat": "47.1761", "lng": "-96.8015"}, {"name": "Cyrus", "state": "MN", "lat": "45.6148", "lng": "-95.7382"}, {"name": "Westport", "state": "MN", "lat": "45.7146", "lng": "-95.1680"}, {"name": "Dilworth", "state": "MN", "lat": "46.8795", "lng": "-96.6986"}, {"name": "Darfur", "state": "MN", "lat": "44.0535", "lng": "-94.8378"}, {"name": "Lauderdale", "state": "MN", "lat": "44.9942", "lng": "-93.2026"}, {"name": "Stillwater", "state": "MN", "lat": "45.0573", "lng": "-92.8313"}, {"name": "Halma", "state": "MN", "lat": "48.6600", "lng": "-96.5972"}, {"name": "Bemidji", "state": "MN", "lat": "47.4830", "lng": "-94.8788"}, {"name": "South St. Paul", "state": "MN", "lat": "44.8877", "lng": "-93.0411"}, {"name": "Hewitt", "state": "MN", "lat": "46.3240", "lng": "-95.0903"}, {"name": "Hatfield", "state": "MN", "lat": "43.9546", "lng": "-96.1905"}, {"name": "Cuyuna", "state": "MN", "lat": "46.5115", "lng": "-93.9264"}, {"name": "Lake Crystal", "state": "MN", "lat": "44.1054", "lng": "-94.2189"}, {"name": "Moorhead", "state": "MN", "lat": "46.8674", "lng": "-96.7460"}, {"name": "Harmony", "state": "MN", "lat": "43.5540", "lng": "-92.0075"}, {"name": "Browns Valley", "state": "MN", "lat": "45.5947", "lng": "-96.8327"}, {"name": "Cloquet", "state": "MN", "lat": "46.7221", "lng": "-92.4923"}, {"name": "Glenville", "state": "MN", "lat": "43.5738", "lng": "-93.2817"}, {"name": "Waubun", "state": "MN", "lat": "47.1840", "lng": "-95.9401"}, {"name": "Lucan", "state": "MN", "lat": "44.4100", "lng": "-95.4134"}, {"name": "Sleepy Eye", "state": "MN", "lat": "44.2990", "lng": "-94.7244"}, {"name": "Crosslake", "state": "MN", "lat": "46.6755", "lng": "-94.0955"}, {"name": "Campbell", "state": "MN", "lat": "46.0975", "lng": "-96.4057"}, {"name": "Biscay", "state": "MN", "lat": "44.8262", "lng": "-94.2740"}, {"name": "Hills", "state": "MN", "lat": "43.5275", "lng": "-96.3591"}, {"name": "St. James", "state": "MN", "lat": "43.9832", "lng": "-94.6249"}, {"name": "Woodstock", "state": "MN", "lat": "44.0110", "lng": "-96.0967"}, {"name": "Hanley Falls", "state": "MN", "lat": "44.6918", "lng": "-95.6194"}, {"name": "Wright", "state": "MN", "lat": "46.6725", "lng": "-93.0069"}, {"name": "Ely", "state": "MN", "lat": "47.9054", "lng": "-91.8516"}, {"name": "Whalan", "state": "MN", "lat": "43.7340", "lng": "-91.9237"}, {"name": "Viking", "state": "MN", "lat": "48.2182", "lng": "-96.4068"}, {"name": "Oakdale", "state": "MN", "lat": "44.9877", "lng": "-92.9641"}, {"name": "Rothsay", "state": "MN", "lat": "46.4735", "lng": "-96.2845"}, {"name": "Parkers Prairie", "state": "MN", "lat": "46.1530", "lng": "-95.3296"}, {"name": "Red Lake Falls", "state": "MN", "lat": "47.8837", "lng": "-96.2727"}, {"name": "Dellwood", "state": "MN", "lat": "45.0986", "lng": "-92.9672"}, {"name": "Oronoco", "state": "MN", "lat": "44.1598", "lng": "-92.5401"}, {"name": "Plainview", "state": "MN", "lat": "44.1649", "lng": "-92.1697"}, {"name": "Mizpah", "state": "MN", "lat": "47.9209", "lng": "-94.2132"}, {"name": "Hibbing", "state": "MN", "lat": "47.3981", "lng": "-92.9487"}, {"name": "Landfall", "state": "MN", "lat": "44.9506", "lng": "-92.9769"}, {"name": "Butterfield", "state": "MN", "lat": "43.9586", "lng": "-94.7939"}, {"name": "Aldrich", "state": "MN", "lat": "46.3747", "lng": "-94.9394"}, {"name": "Maple Lake", "state": "MN", "lat": "45.2334", "lng": "-94.0059"}, {"name": "Jeffers", "state": "MN", "lat": "44.0558", "lng": "-95.1953"}, {"name": "Baudette", "state": "MN", "lat": "48.7119", "lng": "-94.5924"}, {"name": "Duluth", "state": "MN", "lat": "46.7757", "lng": "-92.1392"}, {"name": "Nielsville", "state": "MN", "lat": "47.5284", "lng": "-96.8174"}, {"name": "Pine Bend", "state": "MN", "lat": "47.4222", "lng": "-95.5979"}, {"name": "Rice Lake", "state": "MN", "lat": "46.8977", "lng": "-92.1137"}, {"name": "Columbus", "state": "MN", "lat": "45.2685", "lng": "-93.0810"}, {"name": "Kerkhoven", "state": "MN", "lat": "45.1924", "lng": "-95.3201"}, {"name": "Winona", "state": "MN", "lat": "44.0509", "lng": "-91.6689"}, {"name": "Fridley", "state": "MN", "lat": "45.0841", "lng": "-93.2595"}, {"name": "Hackensack", "state": "MN", "lat": "46.9269", "lng": "-94.5159"}, {"name": "Hutchinson", "state": "MN", "lat": "44.8856", "lng": "-94.3768"}, {"name": "Palisade", "state": "MN", "lat": "46.7127", "lng": "-93.4889"}, {"name": "Soudan", "state": "MN", "lat": "47.8130", "lng": "-92.2356"}, {"name": "Dunnell", "state": "MN", "lat": "43.5604", "lng": "-94.7751"}, {"name": "Granite Falls", "state": "MN", "lat": "44.8107", "lng": "-95.5374"}, {"name": "Marshall", "state": "MN", "lat": "44.4488", "lng": "-95.7897"}, {"name": "Owatonna", "state": "MN", "lat": "44.0914", "lng": "-93.2304"}, {"name": "Nashwauk", "state": "MN", "lat": "47.3805", "lng": "-93.1666"}, {"name": "Halstad", "state": "MN", "lat": "47.3510", "lng": "-96.8249"}, {"name": "Osakis", "state": "MN", "lat": "45.8649", "lng": "-95.1524"}, {"name": "Prinsburg", "state": "MN", "lat": "44.9349", "lng": "-95.1870"}, {"name": "New Ulm", "state": "MN", "lat": "44.3119", "lng": "-94.4680"}, {"name": "Grey Eagle", "state": "MN", "lat": "45.8245", "lng": "-94.7491"}, {"name": "Cedar Mills", "state": "MN", "lat": "44.9431", "lng": "-94.5197"}, {"name": "Northrop", "state": "MN", "lat": "43.7359", "lng": "-94.4367"}, {"name": "South Haven", "state": "MN", "lat": "45.2928", "lng": "-94.2174"}, {"name": "Mora", "state": "MN", "lat": "45.8766", "lng": "-93.2916"}, {"name": "Crystal", "state": "MN", "lat": "45.0377", "lng": "-93.3599"}, {"name": "Plymouth", "state": "MN", "lat": "45.0224", "lng": "-93.4615"}, {"name": "Cosmos", "state": "MN", "lat": "44.9354", "lng": "-94.6949"}, {"name": "Little Rock", "state": "MN", "lat": "47.8667", "lng": "-95.1060"}, {"name": "Roseville", "state": "MN", "lat": "45.0155", "lng": "-93.1544"}, {"name": "Brownsdale", "state": "MN", "lat": "43.7401", "lng": "-92.8679"}, {"name": "Norcross", "state": "MN", "lat": "45.8687", "lng": "-96.1964"}, {"name": "Prior Lake", "state": "MN", "lat": "44.7251", "lng": "-93.4409"}, {"name": "Gem Lake", "state": "MN", "lat": "45.0579", "lng": "-93.0405"}, {"name": "Battle Lake", "state": "MN", "lat": "46.2845", "lng": "-95.7191"}, {"name": "Hillman", "state": "MN", "lat": "46.0063", "lng": "-93.8887"}, {"name": "Jenkins", "state": "MN", "lat": "46.6527", "lng": "-94.3299"}, {"name": "New Richland", "state": "MN", "lat": "43.8938", "lng": "-93.4939"}, {"name": "Wahkon", "state": "MN", "lat": "46.1206", "lng": "-93.5223"}, {"name": "Welcome", "state": "MN", "lat": "43.6662", "lng": "-94.6071"}, {"name": "Winger", "state": "MN", "lat": "47.5376", "lng": "-95.9864"}, {"name": "Ponemah", "state": "MN", "lat": "48.0348", "lng": "-94.8983"}, {"name": "Deer Creek", "state": "MN", "lat": "46.3909", "lng": "-95.3218"}, {"name": "Le Center", "state": "MN", "lat": "44.3866", "lng": "-93.7311"}, {"name": "Center City", "state": "MN", "lat": "45.3941", "lng": "-92.8141"}, {"name": "Dalton", "state": "MN", "lat": "46.1739", "lng": "-95.9156"}, {"name": "Brook Park", "state": "MN", "lat": "45.9484", "lng": "-93.0728"}, {"name": "Montevideo", "state": "MN", "lat": "44.9505", "lng": "-95.7154"}, {"name": "Appleton", "state": "MN", "lat": "45.1997", "lng": "-96.0225"}, {"name": "Edgerton", "state": "MN", "lat": "43.8752", "lng": "-96.1303"}, {"name": "Cook", "state": "MN", "lat": "47.8414", "lng": "-92.6888"}, {"name": "Henriette", "state": "MN", "lat": "45.8713", "lng": "-93.1197"}, {"name": "Blomkest", "state": "MN", "lat": "44.9428", "lng": "-95.0235"}, {"name": "De Graff", "state": "MN", "lat": "45.2599", "lng": "-95.4683"}, {"name": "Elmdale", "state": "MN", "lat": "45.8340", "lng": "-94.4942"}, {"name": "Plummer", "state": "MN", "lat": "47.9152", "lng": "-96.0416"}, {"name": "Bock", "state": "MN", "lat": "45.7844", "lng": "-93.5528"}, {"name": "Lake Henry", "state": "MN", "lat": "45.4619", "lng": "-94.7965"}, {"name": "Chisholm", "state": "MN", "lat": "47.4877", "lng": "-92.8788"}, {"name": "Clarkfield", "state": "MN", "lat": "44.7907", "lng": "-95.8079"}, {"name": "Emmons", "state": "MN", "lat": "43.5068", "lng": "-93.4851"}, {"name": "Rollingstone", "state": "MN", "lat": "44.0993", "lng": "-91.8187"}, {"name": "Walnut Grove", "state": "MN", "lat": "44.2250", "lng": "-95.4692"}, {"name": "Rushford Village", "state": "MN", "lat": "43.8033", "lng": "-91.7915"}, {"name": "Ormsby", "state": "MN", "lat": "43.8503", "lng": "-94.6986"}, {"name": "Westbrook", "state": "MN", "lat": "44.0422", "lng": "-95.4376"}, {"name": "Erhard", "state": "MN", "lat": "46.4836", "lng": "-96.0965"}, {"name": "Northome", "state": "MN", "lat": "47.8748", "lng": "-94.2675"}, {"name": "Solway", "state": "MN", "lat": "47.5211", "lng": "-95.1303"}, {"name": "Easton", "state": "MN", "lat": "43.7661", "lng": "-93.9000"}, {"name": "Benson", "state": "MN", "lat": "45.3152", "lng": "-95.6061"}, {"name": "Frazee", "state": "MN", "lat": "46.7282", "lng": "-95.7026"}, {"name": "Franklin", "state": "MN", "lat": "44.5310", "lng": "-94.8853"}, {"name": "St. Louis Park", "state": "MN", "lat": "44.9488", "lng": "-93.3649"}, {"name": "Stockton", "state": "MN", "lat": "44.0271", "lng": "-91.7697"}, {"name": "Taunton", "state": "MN", "lat": "44.5942", "lng": "-96.0630"}, {"name": "Dennison", "state": "MN", "lat": "44.4088", "lng": "-93.0303"}, {"name": "Mantorville", "state": "MN", "lat": "44.0656", "lng": "-92.7537"}, {"name": "Russell", "state": "MN", "lat": "44.3199", "lng": "-95.9474"}, {"name": "Nerstrand", "state": "MN", "lat": "44.3429", "lng": "-93.0638"}, {"name": "Wabasso", "state": "MN", "lat": "44.4025", "lng": "-95.2554"}, {"name": "Wanda", "state": "MN", "lat": "44.3148", "lng": "-95.2131"}, {"name": "Lino Lakes", "state": "MN", "lat": "45.1679", "lng": "-93.0830"}, {"name": "Millville", "state": "MN", "lat": "44.2447", "lng": "-92.2960"}, {"name": "Richville", "state": "MN", "lat": "46.5060", "lng": "-95.6263"}, {"name": "Searles", "state": "MN", "lat": "44.2307", "lng": "-94.4360"}, {"name": "Red Lake", "state": "MN", "lat": "47.8707", "lng": "-95.0052"}, {"name": "Kenneth", "state": "MN", "lat": "43.7543", "lng": "-96.0725"}, {"name": "Lowry", "state": "MN", "lat": "45.7050", "lng": "-95.5190"}, {"name": "Esko", "state": "MN", "lat": "46.7100", "lng": "-92.3721"}, {"name": "Verndale", "state": "MN", "lat": "46.3971", "lng": "-95.0112"}, {"name": "Trimont", "state": "MN", "lat": "43.7611", "lng": "-94.7162"}, {"name": "Oslo", "state": "MN", "lat": "48.1947", "lng": "-97.1318"}, {"name": "Sandstone", "state": "MN", "lat": "46.1292", "lng": "-92.8646"}, {"name": "Kasson", "state": "MN", "lat": "44.0333", "lng": "-92.7481"}, {"name": "Springfield", "state": "MN", "lat": "44.2373", "lng": "-94.9814"}, {"name": "Elbow Lake", "state": "MN", "lat": "45.9905", "lng": "-95.9776"}, {"name": "Bethel", "state": "MN", "lat": "45.4022", "lng": "-93.2711"}, {"name": "Zimmerman", "state": "MN", "lat": "45.4416", "lng": "-93.5981"}, {"name": "Johnson", "state": "MN", "lat": "45.5723", "lng": "-96.2940"}, {"name": "Wood Lake", "state": "MN", "lat": "44.6513", "lng": "-95.5358"}, {"name": "Hilltop", "state": "MN", "lat": "45.0536", "lng": "-93.2501"}, {"name": "Littlefork", "state": "MN", "lat": "48.3964", "lng": "-93.5578"}, {"name": "St. Vincent", "state": "MN", "lat": "48.9693", "lng": "-97.2264"}, {"name": "Peterson", "state": "MN", "lat": "43.7868", "lng": "-91.8333"}, {"name": "Sturgeon Lake", "state": "MN", "lat": "46.3863", "lng": "-92.8241"}, {"name": "Silver Bay", "state": "MN", "lat": "47.2940", "lng": "-91.2779"}, {"name": "Windom", "state": "MN", "lat": "43.8736", "lng": "-95.1201"}, {"name": "Miltona", "state": "MN", "lat": "46.0462", "lng": "-95.2931"}, {"name": "La Salle", "state": "MN", "lat": "44.0711", "lng": "-94.5713"}, {"name": "St. Clair", "state": "MN", "lat": "44.0838", "lng": "-93.8601"}, {"name": "Spring Grove", "state": "MN", "lat": "43.5607", "lng": "-91.6370"}, {"name": "Chisago City", "state": "MN", "lat": "45.3474", "lng": "-92.9116"}, {"name": "Hancock", "state": "MN", "lat": "45.4977", "lng": "-95.7950"}, {"name": "Swanville", "state": "MN", "lat": "45.9168", "lng": "-94.6383"}, {"name": "Revere", "state": "MN", "lat": "44.2215", "lng": "-95.3611"}, {"name": "Nashua", "state": "MN", "lat": "46.0377", "lng": "-96.3059"}, {"name": "Winsted", "state": "MN", "lat": "44.9573", "lng": "-94.0499"}, {"name": "Pillager", "state": "MN", "lat": "46.3295", "lng": "-94.4796"}, {"name": "Myrtle", "state": "MN", "lat": "43.5632", "lng": "-93.1630"}, {"name": "Kerrick", "state": "MN", "lat": "46.3386", "lng": "-92.5843"}, {"name": "Jackson", "state": "MN", "lat": "43.6288", "lng": "-94.9886"}, {"name": "Minnesota Lake", "state": "MN", "lat": "43.8409", "lng": "-93.8279"}, {"name": "Kent", "state": "MN", "lat": "46.4377", "lng": "-96.6834"}, {"name": "Nowthen", "state": "MN", "lat": "45.3421", "lng": "-93.4495"}, {"name": "Waite Park", "state": "MN", "lat": "45.5313", "lng": "-94.2528"}, {"name": "Otsego", "state": "MN", "lat": "45.2660", "lng": "-93.6200"}, {"name": "Orr", "state": "MN", "lat": "48.0594", "lng": "-92.8248"}, {"name": "Brooks", "state": "MN", "lat": "47.8165", "lng": "-96.0036"}, {"name": "Excelsior", "state": "MN", "lat": "44.9014", "lng": "-93.5665"}, {"name": "Pine Point", "state": "MN", "lat": "46.9889", "lng": "-95.3883"}, {"name": "Strathcona", "state": "MN", "lat": "48.5537", "lng": "-96.1670"}, {"name": "St. Hilaire", "state": "MN", "lat": "48.0135", "lng": "-96.2137"}, {"name": "Ottertail", "state": "MN", "lat": "46.4267", "lng": "-95.5638"}, {"name": "North St. Paul", "state": "MN", "lat": "45.0137", "lng": "-92.9995"}, {"name": "Beaver Creek", "state": "MN", "lat": "43.6124", "lng": "-96.3624"}, {"name": "Cottage Grove", "state": "MN", "lat": "44.8161", "lng": "-92.9274"}, {"name": "Deephaven", "state": "MN", "lat": "44.9293", "lng": "-93.5239"}, {"name": "White Earth", "state": "MN", "lat": "47.0977", "lng": "-95.8445"}, {"name": "Cass Lake", "state": "MN", "lat": "47.3788", "lng": "-94.5991"}, {"name": "Williams", "state": "MN", "lat": "48.7680", "lng": "-94.9533"}, {"name": "Ashby", "state": "MN", "lat": "46.0931", "lng": "-95.8157"}, {"name": "Spring Lake Park", "state": "MN", "lat": "45.1161", "lng": "-93.2451"}, {"name": "Bloomington", "state": "MN", "lat": "44.8306", "lng": "-93.3151"}, {"name": "Isanti", "state": "MN", "lat": "45.4929", "lng": "-93.2414"}, {"name": "Greenwood", "state": "MN", "lat": "44.9110", "lng": "-93.5517"}, {"name": "Waconia", "state": "MN", "lat": "44.8413", "lng": "-93.7926"}, {"name": "Clarks Grove", "state": "MN", "lat": "43.7618", "lng": "-93.3290"}, {"name": "Meire Grove", "state": "MN", "lat": "45.6263", "lng": "-94.8693"}, {"name": "Calumet", "state": "MN", "lat": "47.3198", "lng": "-93.2667"}, {"name": "Preston", "state": "MN", "lat": "43.6726", "lng": "-92.0828"}, {"name": "Warsaw", "state": "MN", "lat": "44.2574", "lng": "-93.3774"}, {"name": "Canton", "state": "MN", "lat": "43.5298", "lng": "-91.9299"}, {"name": "Clearwater", "state": "MN", "lat": "45.4102", "lng": "-94.0446"}, {"name": "Mayer", "state": "MN", "lat": "44.8868", "lng": "-93.8902"}, {"name": "Spring Valley", "state": "MN", "lat": "43.6888", "lng": "-92.3897"}, {"name": "Fergus Falls", "state": "MN", "lat": "46.2854", "lng": "-96.0759"}, {"name": "Ranier", "state": "MN", "lat": "48.6066", "lng": "-93.3531"}, {"name": "Mendota", "state": "MN", "lat": "44.8876", "lng": "-93.1609"}, {"name": "Pipestone", "state": "MN", "lat": "43.9958", "lng": "-96.3117"}, {"name": "Tracy", "state": "MN", "lat": "44.2389", "lng": "-95.6150"}, {"name": "Boy River", "state": "MN", "lat": "47.1669", "lng": "-94.1234"}, {"name": "Scandia", "state": "MN", "lat": "45.2540", "lng": "-92.8278"}, {"name": "Madison", "state": "MN", "lat": "45.0127", "lng": "-96.1889"}, {"name": "Ivanhoe", "state": "MN", "lat": "44.4651", "lng": "-96.2520"}, {"name": "Sherburn", "state": "MN", "lat": "43.6547", "lng": "-94.7273"}, {"name": "Lansing", "state": "MN", "lat": "43.7476", "lng": "-92.9658"}, {"name": "Woodbury", "state": "MN", "lat": "44.9056", "lng": "-92.9230"}, {"name": "Luverne", "state": "MN", "lat": "43.6533", "lng": "-96.2146"}, {"name": "Bagley", "state": "MN", "lat": "47.5239", "lng": "-95.4041"}, {"name": "Menahga", "state": "MN", "lat": "46.7471", "lng": "-95.1012"}, {"name": "Skyline", "state": "MN", "lat": "44.1408", "lng": "-94.0340"}, {"name": "Shoreview", "state": "MN", "lat": "45.0842", "lng": "-93.1358"}, {"name": "Cologne", "state": "MN", "lat": "44.7695", "lng": "-93.7931"}, {"name": "Robbinsdale", "state": "MN", "lat": "45.0261", "lng": "-93.3332"}, {"name": "Dexter", "state": "MN", "lat": "43.7196", "lng": "-92.7019"}, {"name": "Lake Bronson", "state": "MN", "lat": "48.7322", "lng": "-96.6640"}, {"name": "Mounds View", "state": "MN", "lat": "45.1072", "lng": "-93.2078"}, {"name": "Marietta", "state": "MN", "lat": "45.0105", "lng": "-96.4190"}, {"name": "Lester Prairie", "state": "MN", "lat": "44.8829", "lng": "-94.0375"}, {"name": "Bricelyn", "state": "MN", "lat": "43.5607", "lng": "-93.8130"}, {"name": "Hazel Run", "state": "MN", "lat": "44.7484", "lng": "-95.7165"}, {"name": "Milaca", "state": "MN", "lat": "45.7573", "lng": "-93.6522"}, {"name": "Barry", "state": "MN", "lat": "45.5582", "lng": "-96.5604"}, {"name": "Breckenridge", "state": "MN", "lat": "46.2662", "lng": "-96.5850"}, {"name": "Odessa", "state": "MN", "lat": "45.2622", "lng": "-96.3335"}, {"name": "Clements", "state": "MN", "lat": "44.3801", "lng": "-95.0548"}, {"name": "Mound", "state": "MN", "lat": "44.9336", "lng": "-93.6608"}, {"name": "Elgin", "state": "MN", "lat": "44.1257", "lng": "-92.2471"}, {"name": "Sobieski", "state": "MN", "lat": "45.9230", "lng": "-94.4820"}, {"name": "Lakeville", "state": "MN", "lat": "44.6776", "lng": "-93.2521"}, {"name": "McGregor", "state": "MN", "lat": "46.6087", "lng": "-93.3060"}, {"name": "Centerville", "state": "MN", "lat": "45.1640", "lng": "-93.0540"}, {"name": "Nett Lake", "state": "MN", "lat": "48.1146", "lng": "-93.0811"}, {"name": "Garvin", "state": "MN", "lat": "44.2142", "lng": "-95.7607"}, {"name": "Beaver Bay", "state": "MN", "lat": "47.2561", "lng": "-91.3061"}, {"name": "Woodland", "state": "MN", "lat": "44.9503", "lng": "-93.5139"}, {"name": "Kandiyohi", "state": "MN", "lat": "45.1315", "lng": "-94.9331"}, {"name": "Isle", "state": "MN", "lat": "46.1398", "lng": "-93.4597"}, {"name": "Belle Plaine", "state": "MN", "lat": "44.6189", "lng": "-93.7644"}, {"name": "Goodridge", "state": "MN", "lat": "48.1442", "lng": "-95.8039"}, {"name": "Faribault", "state": "MN", "lat": "44.2985", "lng": "-93.2787"}, {"name": "Lewisville", "state": "MN", "lat": "43.9241", "lng": "-94.4340"}, {"name": "Harris", "state": "MN", "lat": "45.5976", "lng": "-92.9869"}, {"name": "Bovey", "state": "MN", "lat": "47.2962", "lng": "-93.4036"}, {"name": "Chaska", "state": "MN", "lat": "44.8164", "lng": "-93.6092"}, {"name": "Vineland", "state": "MN", "lat": "46.1832", "lng": "-93.7823"}, {"name": "Elysian", "state": "MN", "lat": "44.2067", "lng": "-93.6765"}, {"name": "Stanchfield", "state": "MN", "lat": "45.6650", "lng": "-93.1815"}, {"name": "Erskine", "state": "MN", "lat": "47.6648", "lng": "-96.0125"}, {"name": "West St. Paul", "state": "MN", "lat": "44.9018", "lng": "-93.0858"}, {"name": "Villard", "state": "MN", "lat": "45.7141", "lng": "-95.2692"}, {"name": "Spring Park", "state": "MN", "lat": "44.9361", "lng": "-93.6326"}, {"name": "Rushmore", "state": "MN", "lat": "43.6197", "lng": "-95.7990"}, {"name": "Delhi", "state": "MN", "lat": "44.5980", "lng": "-95.2134"}, {"name": "Virginia", "state": "MN", "lat": "47.5169", "lng": "-92.5128"}, {"name": "Rose Creek", "state": "MN", "lat": "43.6046", "lng": "-92.8297"}, {"name": "Greenbush", "state": "MN", "lat": "48.7010", "lng": "-96.1835"}, {"name": "Adams", "state": "MN", "lat": "43.5654", "lng": "-92.7190"}, {"name": "Kennedy", "state": "MN", "lat": "48.6429", "lng": "-96.9106"}, {"name": "Grove City", "state": "MN", "lat": "45.1480", "lng": "-94.6815"}, {"name": "Coon Rapids", "state": "MN", "lat": "45.1755", "lng": "-93.3095"}, {"name": "Pine Island", "state": "MN", "lat": "44.1970", "lng": "-92.6164"}, {"name": "Tower", "state": "MN", "lat": "47.8103", "lng": "-92.2832"}, {"name": "Beltrami", "state": "MN", "lat": "47.5425", "lng": "-96.5271"}, {"name": "The Ranch", "state": "MN", "lat": "47.3198", "lng": "-95.6952"}, {"name": "Glenwood", "state": "MN", "lat": "45.6517", "lng": "-95.3643"}, {"name": "Turtle River", "state": "MN", "lat": "47.5882", "lng": "-94.7581"}, {"name": "Danube", "state": "MN", "lat": "44.7910", "lng": "-95.1029"}, {"name": "Fish Lake", "state": "MN", "lat": "43.8404", "lng": "-95.0477"}, {"name": "Good Thunder", "state": "MN", "lat": "44.0067", "lng": "-94.0703"}, {"name": "Porter", "state": "MN", "lat": "44.6420", "lng": "-96.1693"}, {"name": "Forada", "state": "MN", "lat": "45.7884", "lng": "-95.3567"}, {"name": "Roy Lake", "state": "MN", "lat": "47.3176", "lng": "-95.5428"}, {"name": "Dumont", "state": "MN", "lat": "45.7174", "lng": "-96.4231"}, {"name": "International Falls", "state": "MN", "lat": "48.5884", "lng": "-93.4083"}, {"name": "Brookston", "state": "MN", "lat": "46.8654", "lng": "-92.6028"}, {"name": "Hopkins", "state": "MN", "lat": "44.9261", "lng": "-93.4056"}, {"name": "Warroad", "state": "MN", "lat": "48.9169", "lng": "-95.3272"}, {"name": "Zumbrota", "state": "MN", "lat": "44.2950", "lng": "-92.6734"}, {"name": "Funkley", "state": "MN", "lat": "47.7860", "lng": "-94.4266"}, {"name": "Evan", "state": "MN", "lat": "44.3549", "lng": "-94.8361"}, {"name": "Backus", "state": "MN", "lat": "46.8207", "lng": "-94.5148"}, {"name": "Cambridge", "state": "MN", "lat": "45.5612", "lng": "-93.2283"}, {"name": "Fertile", "state": "MN", "lat": "47.5339", "lng": "-96.2893"}, {"name": "Onamia", "state": "MN", "lat": "46.0700", "lng": "-93.6676"}, {"name": "St. Michael", "state": "MN", "lat": "45.2014", "lng": "-93.6920"}, {"name": "Gary", "state": "MN", "lat": "47.3725", "lng": "-96.2656"}, {"name": "Royalton", "state": "MN", "lat": "45.8302", "lng": "-94.2931"}, {"name": "Goodhue", "state": "MN", "lat": "44.4007", "lng": "-92.6255"}, {"name": "Shelly", "state": "MN", "lat": "47.4583", "lng": "-96.8198"}, {"name": "Henning", "state": "MN", "lat": "46.3233", "lng": "-95.4424"}, {"name": "Lindstrom", "state": "MN", "lat": "45.3871", "lng": "-92.8477"}, {"name": "Madison Lake", "state": "MN", "lat": "44.2044", "lng": "-93.8161"}, {"name": "Vergas", "state": "MN", "lat": "46.6549", "lng": "-95.8038"}, {"name": "Grand Meadow", "state": "MN", "lat": "43.7058", "lng": "-92.5705"}, {"name": "Carver", "state": "MN", "lat": "44.7598", "lng": "-93.6302"}, {"name": "Gonvick", "state": "MN", "lat": "47.7391", "lng": "-95.5125"}, {"name": "Lutsen", "state": "MN", "lat": "47.6715", "lng": "-90.6885"}, {"name": "Minneapolis", "state": "MN", "lat": "44.9635", "lng": "-93.2678"}, {"name": "Bigfork", "state": "MN", "lat": "47.7473", "lng": "-93.6525"}, {"name": "Randolph", "state": "MN", "lat": "44.5260", "lng": "-93.0198"}, {"name": "Effie", "state": "MN", "lat": "47.8412", "lng": "-93.6377"}, {"name": "Middle River", "state": "MN", "lat": "48.4349", "lng": "-96.1617"}, {"name": "Grand Marais", "state": "MN", "lat": "47.7586", "lng": "-90.3443"}, {"name": "Walker", "state": "MN", "lat": "47.0891", "lng": "-94.5853"}, {"name": "Gibbon", "state": "MN", "lat": "44.5333", "lng": "-94.5242"}, {"name": "Buffalo", "state": "MN", "lat": "45.1794", "lng": "-93.8644"}, {"name": "Shafer", "state": "MN", "lat": "45.3901", "lng": "-92.7531"}, {"name": "Merrifield", "state": "MN", "lat": "46.4673", "lng": "-94.1746"}, {"name": "Babbitt", "state": "MN", "lat": "47.6445", "lng": "-91.9458"}, {"name": "Nelson", "state": "MN", "lat": "45.8865", "lng": "-95.2648"}, {"name": "Le Sueur", "state": "MN", "lat": "44.4704", "lng": "-93.9025"}, {"name": "Rushford", "state": "MN", "lat": "43.8131", "lng": "-91.7535"}, {"name": "Emily", "state": "MN", "lat": "46.7602", "lng": "-93.9665"}, {"name": "Conger", "state": "MN", "lat": "43.6153", "lng": "-93.5281"}, {"name": "Farmington", "state": "MN", "lat": "44.6572", "lng": "-93.1687"}, {"name": "Wyoming", "state": "MN", "lat": "45.3365", "lng": "-92.9766"}, {"name": "Felton", "state": "MN", "lat": "47.0749", "lng": "-96.5058"}, {"name": "Alberta", "state": "MN", "lat": "45.5749", "lng": "-96.0505"}, {"name": "Waverly", "state": "MN", "lat": "45.0650", "lng": "-93.9663"}, {"name": "Osseo", "state": "MN", "lat": "45.1179", "lng": "-93.3992"}, {"name": "Leonidas", "state": "MN", "lat": "47.4681", "lng": "-92.5679"}, {"name": "Lake Benton", "state": "MN", "lat": "44.2644", "lng": "-96.2918"}, {"name": "Lakefield", "state": "MN", "lat": "43.6780", "lng": "-95.1695"}, {"name": "Becker", "state": "MN", "lat": "45.3814", "lng": "-93.8737"}, {"name": "La Crescent", "state": "MN", "lat": "43.8299", "lng": "-91.3042"}, {"name": "Cottonwood", "state": "MN", "lat": "44.6105", "lng": "-95.6721"}, {"name": "North Oaks", "state": "MN", "lat": "45.1002", "lng": "-93.0881"}, {"name": "Dodge Center", "state": "MN", "lat": "44.0289", "lng": "-92.8508"}, {"name": "Magnolia", "state": "MN", "lat": "43.6441", "lng": "-96.0752"}, {"name": "Racine", "state": "MN", "lat": "43.7755", "lng": "-92.4810"}, {"name": "Cobden", "state": "MN", "lat": "44.2825", "lng": "-94.8466"}, {"name": "Silver Creek", "state": "MN", "lat": "45.3127", "lng": "-93.9827"}, {"name": "Canby", "state": "MN", "lat": "44.7157", "lng": "-96.2690"}, {"name": "Ellendale", "state": "MN", "lat": "43.8727", "lng": "-93.2993"}, {"name": "Willernie", "state": "MN", "lat": "45.0540", "lng": "-92.9571"}, {"name": "Alexandria", "state": "MN", "lat": "45.8777", "lng": "-95.3766"}, {"name": "Elko New Market", "state": "MN", "lat": "44.5667", "lng": "-93.3381"}, {"name": "Florence", "state": "MN", "lat": "44.2360", "lng": "-96.0531"}, {"name": "Donaldson", "state": "MN", "lat": "48.5749", "lng": "-96.8992"}, {"name": "Redwood Falls", "state": "MN", "lat": "44.5471", "lng": "-95.1031"}, {"name": "Taopi", "state": "MN", "lat": "43.5575", "lng": "-92.6404"}, {"name": "St. Charles", "state": "MN", "lat": "43.9692", "lng": "-92.0591"}, {"name": "Vining", "state": "MN", "lat": "46.2612", "lng": "-95.5342"}, {"name": "Hoffman", "state": "MN", "lat": "45.8341", "lng": "-95.7870"}, {"name": "Leonard", "state": "MN", "lat": "47.6513", "lng": "-95.2670"}, {"name": "Avoca", "state": "MN", "lat": "43.9490", "lng": "-95.6465"}, {"name": "Kenyon", "state": "MN", "lat": "44.2726", "lng": "-92.9858"}, {"name": "Longville", "state": "MN", "lat": "46.9877", "lng": "-94.2120"}, {"name": "Roosevelt", "state": "MN", "lat": "48.8070", "lng": "-95.1010"}, {"name": "Taconite", "state": "MN", "lat": "47.3315", "lng": "-93.3758"}, {"name": "Long Beach", "state": "MN", "lat": "45.6509", "lng": "-95.4294"}, {"name": "Morgan", "state": "MN", "lat": "44.4158", "lng": "-94.9248"}, {"name": "Hawley", "state": "MN", "lat": "46.8770", "lng": "-96.3180"}, {"name": "New Trier", "state": "MN", "lat": "44.6040", "lng": "-92.9328"}, {"name": "Henderson", "state": "MN", "lat": "44.5278", "lng": "-93.9091"}, {"name": "Marble", "state": "MN", "lat": "47.3280", "lng": "-93.2940"}, {"name": "Little Falls", "state": "MN", "lat": "45.9835", "lng": "-94.3599"}, {"name": "Iona", "state": "MN", "lat": "43.9149", "lng": "-95.7857"}, {"name": "Lengby", "state": "MN", "lat": "47.5155", "lng": "-95.6346"}, {"name": "Hugo", "state": "MN", "lat": "45.1671", "lng": "-92.9588"}, {"name": "Barnum", "state": "MN", "lat": "46.5054", "lng": "-92.6884"}, {"name": "Mankato", "state": "MN", "lat": "44.1711", "lng": "-93.9773"}, {"name": "Winnebago", "state": "MN", "lat": "43.7643", "lng": "-94.1705"}, {"name": "Greenwald", "state": "MN", "lat": "45.6014", "lng": "-94.8594"}, {"name": "Eagle Lake", "state": "MN", "lat": "44.1616", "lng": "-93.8846"}, {"name": "Kinney", "state": "MN", "lat": "47.5167", "lng": "-92.7227"}, {"name": "Stewart", "state": "MN", "lat": "44.7236", "lng": "-94.4868"}, {"name": "Argyle", "state": "MN", "lat": "48.3366", "lng": "-96.8162"}, {"name": "Crookston", "state": "MN", "lat": "47.7747", "lng": "-96.6062"}, {"name": "St. Leo", "state": "MN", "lat": "44.7173", "lng": "-96.0526"}, {"name": "Oak Grove", "state": "MN", "lat": "45.3409", "lng": "-93.3264"}, {"name": "Seaforth", "state": "MN", "lat": "44.4763", "lng": "-95.3310"}, {"name": "Stephen", "state": "MN", "lat": "48.4518", "lng": "-96.8769"}, {"name": "Tonka Bay", "state": "MN", "lat": "44.9152", "lng": "-93.5896"}, {"name": "Motley", "state": "MN", "lat": "46.3349", "lng": "-94.6423"}, {"name": "Whipholt", "state": "MN", "lat": "47.0436", "lng": "-94.3860"}, {"name": "Upsala", "state": "MN", "lat": "45.8100", "lng": "-94.5673"}, {"name": "Olivia", "state": "MN", "lat": "44.7771", "lng": "-94.9975"}, {"name": "Callaway", "state": "MN", "lat": "46.9820", "lng": "-95.9120"}, {"name": "Comstock", "state": "MN", "lat": "46.6595", "lng": "-96.7466"}, {"name": "Odin", "state": "MN", "lat": "43.8672", "lng": "-94.7427"}, {"name": "Staples", "state": "MN", "lat": "46.3690", "lng": "-94.8018"}, {"name": "Mapleton", "state": "MN", "lat": "43.9263", "lng": "-93.9544"}, {"name": "St. Francis", "state": "MN", "lat": "45.3991", "lng": "-93.3902"}, {"name": "Medford", "state": "MN", "lat": "44.1685", "lng": "-93.2472"}, {"name": "Clitherall", "state": "MN", "lat": "46.2745", "lng": "-95.6309"}, {"name": "Tintah", "state": "MN", "lat": "46.0108", "lng": "-96.3201"}, {"name": "Burtrum", "state": "MN", "lat": "45.8658", "lng": "-94.6874"}, {"name": "Kensington", "state": "MN", "lat": "45.7782", "lng": "-95.6970"}, {"name": "Fountain", "state": "MN", "lat": "43.7425", "lng": "-92.1342"}, {"name": "Atwater", "state": "MN", "lat": "45.1356", "lng": "-94.7769"}, {"name": "Biwabik", "state": "MN", "lat": "47.5551", "lng": "-92.3233"}, {"name": "Golden Valley", "state": "MN", "lat": "44.9901", "lng": "-93.3591"}, {"name": "Lake St. Croix Beach", "state": "MN", "lat": "44.9245", "lng": "-92.7657"}, {"name": "Naytahwaush", "state": "MN", "lat": "47.2703", "lng": "-95.6335"}, {"name": "Iron Junction", "state": "MN", "lat": "47.4189", "lng": "-92.6087"}, {"name": "Randall", "state": "MN", "lat": "46.0887", "lng": "-94.5007"}, {"name": "Clontarf", "state": "MN", "lat": "45.3770", "lng": "-95.6770"}, {"name": "Finland", "state": "MN", "lat": "47.4350", "lng": "-91.2682"}, {"name": "Barnesville", "state": "MN", "lat": "46.6501", "lng": "-96.4163"}, {"name": "Perham", "state": "MN", "lat": "46.5988", "lng": "-95.5745"}, {"name": "Norwood Young America", "state": "MN", "lat": "44.7721", "lng": "-93.9192"}, {"name": "Humboldt", "state": "MN", "lat": "48.9215", "lng": "-97.0948"}, {"name": "Wilder", "state": "MN", "lat": "43.8280", "lng": "-95.2058"}, {"name": "Squaw Lake", "state": "MN", "lat": "47.6275", "lng": "-94.1381"}, {"name": "Hinckley", "state": "MN", "lat": "46.0122", "lng": "-92.9256"}, {"name": "Ulen", "state": "MN", "lat": "47.0781", "lng": "-96.2581"}, {"name": "Elba", "state": "MN", "lat": "44.0864", "lng": "-92.0181"}, {"name": "Arlington", "state": "MN", "lat": "44.6083", "lng": "-94.0766"}, {"name": "Champlin", "state": "MN", "lat": "45.1702", "lng": "-93.3903"}, {"name": "Circle Pines", "state": "MN", "lat": "45.1409", "lng": "-93.1505"}, {"name": "Wanamingo", "state": "MN", "lat": "44.3026", "lng": "-92.7872"}, {"name": "Jordan", "state": "MN", "lat": "44.6652", "lng": "-93.6351"}, {"name": "Winton", "state": "MN", "lat": "47.9284", "lng": "-91.8004"}, {"name": "Blue Earth", "state": "MN", "lat": "43.6404", "lng": "-94.1004"}, {"name": "Borup", "state": "MN", "lat": "47.1803", "lng": "-96.5058"}, {"name": "Garrison", "state": "MN", "lat": "46.2992", "lng": "-93.8263"}, {"name": "Hallock", "state": "MN", "lat": "48.7660", "lng": "-96.9427"}, {"name": "East Gull Lake", "state": "MN", "lat": "46.3948", "lng": "-94.3548"}, {"name": "The Lakes", "state": "MN", "lat": "44.1360", "lng": "-95.7084"}, {"name": "Garfield", "state": "MN", "lat": "45.9387", "lng": "-95.4942"}, {"name": "Bigelow", "state": "MN", "lat": "43.5053", "lng": "-95.6892"}, {"name": "Rochester", "state": "MN", "lat": "44.0151", "lng": "-92.4778"}, {"name": "Dundas", "state": "MN", "lat": "44.4277", "lng": "-93.2039"}, {"name": "Strandquist", "state": "MN", "lat": "48.4894", "lng": "-96.4479"}, {"name": "Dayton", "state": "MN", "lat": "45.1906", "lng": "-93.4758"}, {"name": "Alpha", "state": "MN", "lat": "43.6382", "lng": "-94.8708"}, {"name": "Pease", "state": "MN", "lat": "45.6995", "lng": "-93.6490"}, {"name": "Bellingham", "state": "MN", "lat": "45.1366", "lng": "-96.2841"}, {"name": "Cannon Falls", "state": "MN", "lat": "44.5123", "lng": "-92.9034"}, {"name": "Okabena", "state": "MN", "lat": "43.7393", "lng": "-95.3166"}, {"name": "Darwin", "state": "MN", "lat": "45.0968", "lng": "-94.4136"}, {"name": "Lake Park", "state": "MN", "lat": "46.8840", "lng": "-96.0988"}, {"name": "Louisburg", "state": "MN", "lat": "45.1645", "lng": "-96.1711"}, {"name": "New York Mills", "state": "MN", "lat": "46.5211", "lng": "-95.3725"}, {"name": "Ruthton", "state": "MN", "lat": "44.1776", "lng": "-96.1035"}, {"name": "Finlayson", "state": "MN", "lat": "46.2051", "lng": "-92.9248"}, {"name": "Lakeland Shores", "state": "MN", "lat": "44.9478", "lng": "-92.7612"}, {"name": "Altura", "state": "MN", "lat": "44.0642", "lng": "-91.9436"}, {"name": "Byron", "state": "MN", "lat": "44.0379", "lng": "-92.6411"}, {"name": "North Mankato", "state": "MN", "lat": "44.1814", "lng": "-94.0386"}, {"name": "Wayzata", "state": "MN", "lat": "44.9707", "lng": "-93.5140"}, {"name": "Bluffton", "state": "MN", "lat": "46.4696", "lng": "-95.2337"}, {"name": "Sartell", "state": "MN", "lat": "45.6186", "lng": "-94.2205"}, {"name": "St. Augusta", "state": "MN", "lat": "45.4497", "lng": "-94.1996"}, {"name": "Cold Spring", "state": "MN", "lat": "45.4570", "lng": "-94.4300"}, {"name": "Eagle Bend", "state": "MN", "lat": "46.1643", "lng": "-95.0341"}, {"name": "Taylors Falls", "state": "MN", "lat": "45.4121", "lng": "-92.6644"}, {"name": "New Prague", "state": "MN", "lat": "44.5459", "lng": "-93.5759"}, {"name": "Shorewood", "state": "MN", "lat": "44.9131", "lng": "-93.5796"}, {"name": "Keewatin", "state": "MN", "lat": "47.4006", "lng": "-93.0828"}, {"name": "Bellechester", "state": "MN", "lat": "44.3710", "lng": "-92.5113"}, {"name": "Elmore", "state": "MN", "lat": "43.5069", "lng": "-94.0888"}, {"name": "Rosemount", "state": "MN", "lat": "44.7465", "lng": "-93.0662"}, {"name": "Albany", "state": "MN", "lat": "45.6284", "lng": "-94.5674"}, {"name": "Grant", "state": "MN", "lat": "45.0825", "lng": "-92.9090"}, {"name": "West Union", "state": "MN", "lat": "45.7982", "lng": "-95.0885"}, {"name": "Hollandale", "state": "MN", "lat": "43.7598", "lng": "-93.2043"}, {"name": "Chokio", "state": "MN", "lat": "45.5731", "lng": "-96.1747"}, {"name": "Monticello", "state": "MN", "lat": "45.2980", "lng": "-93.7984"}, {"name": "Stacy", "state": "MN", "lat": "45.3841", "lng": "-92.9938"}, {"name": "Wrenshall", "state": "MN", "lat": "46.6217", "lng": "-92.3840"}, {"name": "Pelican Rapids", "state": "MN", "lat": "46.5700", "lng": "-96.0860"}, {"name": "La Prairie", "state": "MN", "lat": "47.2302", "lng": "-93.4913"}, {"name": "Albertville", "state": "MN", "lat": "45.2364", "lng": "-93.6618"}, {"name": "Hastings", "state": "MN", "lat": "44.7318", "lng": "-92.8538"}, {"name": "Brandon", "state": "MN", "lat": "45.9663", "lng": "-95.5944"}, {"name": "East Bethel", "state": "MN", "lat": "45.3557", "lng": "-93.2038"}, {"name": "Minnesota City", "state": "MN", "lat": "44.0923", "lng": "-91.7500"}, {"name": "Heidelberg", "state": "MN", "lat": "44.4931", "lng": "-93.6265"}, {"name": "Gaylord", "state": "MN", "lat": "44.5555", "lng": "-94.2123"}, {"name": "St. Martin", "state": "MN", "lat": "45.5028", "lng": "-94.6677"}, {"name": "Elrosa", "state": "MN", "lat": "45.5627", "lng": "-94.9474"}, {"name": "Ronneby", "state": "MN", "lat": "45.6853", "lng": "-93.8601"}, {"name": "Mountain Lake", "state": "MN", "lat": "43.9414", "lng": "-94.9272"}, {"name": "Vesta", "state": "MN", "lat": "44.5066", "lng": "-95.4140"}, {"name": "Browerville", "state": "MN", "lat": "46.0807", "lng": "-94.8646"}, {"name": "Savage", "state": "MN", "lat": "44.7544", "lng": "-93.3631"}, {"name": "Foley", "state": "MN", "lat": "45.6636", "lng": "-93.9095"}, {"name": "Mahnomen", "state": "MN", "lat": "47.3146", "lng": "-95.9673"}, {"name": "Ball Club", "state": "MN", "lat": "47.3311", "lng": "-93.9460"}, {"name": "Detroit Lakes", "state": "MN", "lat": "46.8060", "lng": "-95.8449"}, {"name": "Rock Creek", "state": "MN", "lat": "45.7604", "lng": "-92.9088"}, {"name": "Trosky", "state": "MN", "lat": "43.8884", "lng": "-96.2509"}, {"name": "Clinton", "state": "MN", "lat": "45.4632", "lng": "-96.4415"}, {"name": "Greenfield", "state": "MN", "lat": "45.0997", "lng": "-93.6884"}, {"name": "Carlton", "state": "MN", "lat": "46.6635", "lng": "-92.4070"}, {"name": "Mountain Iron", "state": "MN", "lat": "47.5473", "lng": "-92.6252"}, {"name": "Boyd", "state": "MN", "lat": "44.8512", "lng": "-95.9008"}, {"name": "Frost", "state": "MN", "lat": "43.5846", "lng": "-93.9248"}, {"name": "Hendrum", "state": "MN", "lat": "47.2641", "lng": "-96.8104"}, {"name": "Zumbro Falls", "state": "MN", "lat": "44.2849", "lng": "-92.4265"}, {"name": "New Germany", "state": "MN", "lat": "44.8861", "lng": "-93.9731"}, {"name": "Blackduck", "state": "MN", "lat": "47.7263", "lng": "-94.5480"}, {"name": "Riverton", "state": "MN", "lat": "46.4584", "lng": "-94.0488"}, {"name": "Willow River", "state": "MN", "lat": "46.3204", "lng": "-92.8350"}, {"name": "Holdingford", "state": "MN", "lat": "45.7298", "lng": "-94.4717"}, {"name": "Winthrop", "state": "MN", "lat": "44.5427", "lng": "-94.3610"}, {"name": "Janesville", "state": "MN", "lat": "44.1214", "lng": "-93.7107"}, {"name": "Park Rapids", "state": "MN", "lat": "46.9170", "lng": "-95.0596"}, {"name": "Graceville", "state": "MN", "lat": "45.5686", "lng": "-96.4372"}, {"name": "Granada", "state": "MN", "lat": "43.6933", "lng": "-94.3495"}, {"name": "Lonsdale", "state": "MN", "lat": "44.4776", "lng": "-93.4220"}, {"name": "Hayward", "state": "MN", "lat": "43.6499", "lng": "-93.2460"}, {"name": "Vadnais Heights", "state": "MN", "lat": "45.0570", "lng": "-93.0747"}, {"name": "Medina", "state": "MN", "lat": "45.0326", "lng": "-93.5834"}, {"name": "Medicine Lake", "state": "MN", "lat": "44.9980", "lng": "-93.4195"}, {"name": "Kettle River", "state": "MN", "lat": "46.4862", "lng": "-92.8775"}, {"name": "Fisher", "state": "MN", "lat": "47.7993", "lng": "-96.7995"}, {"name": "Hanover", "state": "MN", "lat": "45.1580", "lng": "-93.6631"}, {"name": "Heron Lake", "state": "MN", "lat": "43.7981", "lng": "-95.3197"}, {"name": "Hokah", "state": "MN", "lat": "43.7598", "lng": "-91.3501"}, {"name": "Watertown", "state": "MN", "lat": "44.9603", "lng": "-93.8431"}, {"name": "Lafayette", "state": "MN", "lat": "44.4471", "lng": "-94.3927"}, {"name": "Twin Valley", "state": "MN", "lat": "47.2589", "lng": "-96.2592"}, {"name": "Hampton", "state": "MN", "lat": "44.6085", "lng": "-93.0025"}, {"name": "Kasota", "state": "MN", "lat": "44.2916", "lng": "-93.9690"}, {"name": "Inver Grove Heights", "state": "MN", "lat": "44.8247", "lng": "-93.0596"}, {"name": "Hitterdal", "state": "MN", "lat": "46.9778", "lng": "-96.2584"}, {"name": "Denham", "state": "MN", "lat": "46.3617", "lng": "-92.9415"}, {"name": "Newfolden", "state": "MN", "lat": "48.3568", "lng": "-96.3298"}, {"name": "Afton", "state": "MN", "lat": "44.9042", "lng": "-92.8173"}, {"name": "Ironton", "state": "MN", "lat": "46.4817", "lng": "-93.9977"}, {"name": "Thief River Falls", "state": "MN", "lat": "48.1112", "lng": "-96.1771"}, {"name": "Proctor", "state": "MN", "lat": "46.7416", "lng": "-92.2277"}, {"name": "Sabin", "state": "MN", "lat": "46.7814", "lng": "-96.6542"}, {"name": "Alden", "state": "MN", "lat": "43.6695", "lng": "-93.5735"}, {"name": "Roscoe", "state": "MN", "lat": "45.4324", "lng": "-94.6365"}, {"name": "Brooklyn Park", "state": "MN", "lat": "45.1112", "lng": "-93.3505"}, {"name": "Edina", "state": "MN", "lat": "44.8914", "lng": "-93.3602"}, {"name": "Long Prairie", "state": "MN", "lat": "45.9775", "lng": "-94.8629"}, {"name": "Dovray", "state": "MN", "lat": "44.0545", "lng": "-95.5477"}, {"name": "Big Falls", "state": "MN", "lat": "48.1794", "lng": "-93.8092"}, {"name": "Richmond", "state": "MN", "lat": "45.4556", "lng": "-94.5153"}, {"name": "Nicollet", "state": "MN", "lat": "44.2746", "lng": "-94.1885"}, {"name": "Madelia", "state": "MN", "lat": "44.0482", "lng": "-94.4198"}, {"name": "Foreston", "state": "MN", "lat": "45.7321", "lng": "-93.7095"}, {"name": "Pine Springs", "state": "MN", "lat": "45.0368", "lng": "-92.9543"}, {"name": "Underwood", "state": "MN", "lat": "46.2870", "lng": "-95.8721"}, {"name": "Ramsey", "state": "MN", "lat": "45.2617", "lng": "-93.4494"}, {"name": "Ghent", "state": "MN", "lat": "44.5116", "lng": "-95.8926"}, {"name": "Litchfield", "state": "MN", "lat": "45.1221", "lng": "-94.5255"}, {"name": "Coates", "state": "MN", "lat": "44.7160", "lng": "-93.0323"}, {"name": "Spicer", "state": "MN", "lat": "45.2329", "lng": "-94.9401"}, {"name": "Brooten", "state": "MN", "lat": "45.5003", "lng": "-95.1162"}, {"name": "Two Harbors", "state": "MN", "lat": "47.0300", "lng": "-91.6750"}, {"name": "Osage", "state": "MN", "lat": "46.9283", "lng": "-95.2586"}, {"name": "Delano", "state": "MN", "lat": "45.0380", "lng": "-93.7923"}, {"name": "Crosby", "state": "MN", "lat": "46.4892", "lng": "-93.9573"}, {"name": "Kelliher", "state": "MN", "lat": "47.9438", "lng": "-94.4446"}, {"name": "Mendota Heights", "state": "MN", "lat": "44.8815", "lng": "-93.1400"}, {"name": "Lake City", "state": "MN", "lat": "44.4453", "lng": "-92.2796"}, {"name": "Pine River", "state": "MN", "lat": "46.7225", "lng": "-94.3975"}, {"name": "Trail", "state": "MN", "lat": "47.7833", "lng": "-95.6981"}, {"name": "Lake Lillian", "state": "MN", "lat": "44.9458", "lng": "-94.8800"}, {"name": "Farwell", "state": "MN", "lat": "45.7524", "lng": "-95.6189"}, {"name": "Bena", "state": "MN", "lat": "47.3404", "lng": "-94.2060"}, {"name": "Blaine", "state": "MN", "lat": "45.1696", "lng": "-93.2078"}, {"name": "Hadley", "state": "MN", "lat": "43.9987", "lng": "-95.8575"}, {"name": "Alvarado", "state": "MN", "lat": "48.1929", "lng": "-96.9985"}, {"name": "Harding", "state": "MN", "lat": "46.1191", "lng": "-94.0368"}, {"name": "Rutledge", "state": "MN", "lat": "46.2570", "lng": "-92.8696"}, {"name": "Moose Lake", "state": "MN", "lat": "46.4445", "lng": "-92.7634"}, {"name": "Brownton", "state": "MN", "lat": "44.7326", "lng": "-94.3507"}, {"name": "Clarissa", "state": "MN", "lat": "46.1284", "lng": "-94.9490"}, {"name": "Houston", "state": "MN", "lat": "43.7581", "lng": "-91.5707"}, {"name": "Redby", "state": "MN", "lat": "47.8717", "lng": "-94.9184"}, {"name": "Red Wing", "state": "MN", "lat": "44.5816", "lng": "-92.6036"}, {"name": "Karlstad", "state": "MN", "lat": "48.5780", "lng": "-96.5169"}, {"name": "McGrath", "state": "MN", "lat": "46.2421", "lng": "-93.2751"}, {"name": "Worthington", "state": "MN", "lat": "43.6282", "lng": "-95.5990"}, {"name": "Warren", "state": "MN", "lat": "48.1940", "lng": "-96.7688"}, {"name": "Buhl", "state": "MN", "lat": "47.4994", "lng": "-92.7692"}, {"name": "Big Lake", "state": "MN", "lat": "45.3416", "lng": "-93.7431"}, {"name": "Frontenac", "state": "MN", "lat": "44.5061", "lng": "-92.3511"}, {"name": "Tyler", "state": "MN", "lat": "44.2786", "lng": "-96.1355"}, {"name": "Beardsley", "state": "MN", "lat": "45.5577", "lng": "-96.7139"}, {"name": "Morris", "state": "MN", "lat": "45.5855", "lng": "-95.9048"}, {"name": "Nevis", "state": "MN", "lat": "46.9646", "lng": "-94.8425"}, {"name": "Deer River", "state": "MN", "lat": "47.3409", "lng": "-93.7961"}, {"name": "Genola", "state": "MN", "lat": "45.9653", "lng": "-94.1129"}, {"name": "Jasper", "state": "MN", "lat": "43.8491", "lng": "-96.3999"}, {"name": "Baxter", "state": "MN", "lat": "46.3426", "lng": "-94.2794"}, {"name": "Belgrade", "state": "MN", "lat": "45.4507", "lng": "-94.9998"}, {"name": "Morton", "state": "MN", "lat": "44.5534", "lng": "-94.9850"}, {"name": "Elk River", "state": "MN", "lat": "45.3314", "lng": "-93.5670"}, {"name": "Ihlen", "state": "MN", "lat": "43.9122", "lng": "-96.3709"}, {"name": "Howard Lake", "state": "MN", "lat": "45.0605", "lng": "-94.0670"}, {"name": "Ceylon", "state": "MN", "lat": "43.5329", "lng": "-94.6307"}, {"name": "Cromwell", "state": "MN", "lat": "46.6795", "lng": "-92.8730"}, {"name": "Marine on St. Croix", "state": "MN", "lat": "45.1983", "lng": "-92.7783"}, {"name": "Hill City", "state": "MN", "lat": "46.9830", "lng": "-93.5959"}, {"name": "Audubon", "state": "MN", "lat": "46.8629", "lng": "-95.9809"}, {"name": "Austin", "state": "MN", "lat": "43.6722", "lng": "-92.9761"}, {"name": "Flensburg", "state": "MN", "lat": "45.9480", "lng": "-94.5301"}, {"name": "Echo", "state": "MN", "lat": "44.6218", "lng": "-95.4115"}, {"name": "Evansville", "state": "MN", "lat": "46.0062", "lng": "-95.6869"}, {"name": "Georgetown", "state": "MN", "lat": "47.0784", "lng": "-96.7959"}, {"name": "Hartland", "state": "MN", "lat": "43.8042", "lng": "-93.4844"}, {"name": "Wendell", "state": "MN", "lat": "46.0359", "lng": "-96.1008"}, {"name": "Askov", "state": "MN", "lat": "46.1886", "lng": "-92.7824"}, {"name": "New Hope", "state": "MN", "lat": "45.0375", "lng": "-93.3869"}, {"name": "Annandale", "state": "MN", "lat": "45.2598", "lng": "-94.1206"}, {"name": "White Bear Lake", "state": "MN", "lat": "45.0655", "lng": "-93.0150"}, {"name": "Steen", "state": "MN", "lat": "43.5143", "lng": "-96.2631"}, {"name": "Holland", "state": "MN", "lat": "44.0897", "lng": "-96.1945"}, {"name": "St. Rosa", "state": "MN", "lat": "45.7286", "lng": "-94.7162"}, {"name": "Miesville", "state": "MN", "lat": "44.5990", "lng": "-92.8196"}, {"name": "Clear Lake", "state": "MN", "lat": "45.4463", "lng": "-93.9985"}, {"name": "Pemberton", "state": "MN", "lat": "44.0085", "lng": "-93.7837"}, {"name": "Bertha", "state": "MN", "lat": "46.2671", "lng": "-95.0618"}, {"name": "Montgomery", "state": "MN", "lat": "44.4451", "lng": "-93.5797"}, {"name": "Claremont", "state": "MN", "lat": "44.0449", "lng": "-92.9976"}, {"name": "Oak Park Heights", "state": "MN", "lat": "45.0324", "lng": "-92.8099"}, {"name": "Sedan", "state": "MN", "lat": "45.5782", "lng": "-95.2451"}, {"name": "Herman", "state": "MN", "lat": "45.8105", "lng": "-96.1414"}, {"name": "Dent", "state": "MN", "lat": "46.5527", "lng": "-95.7187"}, {"name": "Waldorf", "state": "MN", "lat": "43.9332", "lng": "-93.6976"}, {"name": "Brewster", "state": "MN", "lat": "43.6973", "lng": "-95.4645"}, {"name": "Eden Prairie", "state": "MN", "lat": "44.8488", "lng": "-93.4595"}, {"name": "Round Lake", "state": "MN", "lat": "43.5372", "lng": "-95.4705"}, {"name": "Tamarack", "state": "MN", "lat": "46.6530", "lng": "-93.1250"}, {"name": "Manchester", "state": "MN", "lat": "43.7256", "lng": "-93.4511"}, {"name": "Vermillion", "state": "MN", "lat": "44.6735", "lng": "-92.9643"}, {"name": "Gilman", "state": "MN", "lat": "45.7353", "lng": "-93.9483"}, {"name": "Breezy Point", "state": "MN", "lat": "46.6081", "lng": "-94.2180"}, {"name": "Nisswa", "state": "MN", "lat": "46.5003", "lng": "-94.2977"}, {"name": "Spring Hill", "state": "MN", "lat": "45.5233", "lng": "-94.8317"}, {"name": "Little Canada", "state": "MN", "lat": "45.0244", "lng": "-93.0863"}, {"name": "Hector", "state": "MN", "lat": "44.7413", "lng": "-94.7120"}, {"name": "Lastrup", "state": "MN", "lat": "46.0398", "lng": "-94.0621"}, {"name": "Wolverton", "state": "MN", "lat": "46.5630", "lng": "-96.7363"}, {"name": "Holloway", "state": "MN", "lat": "45.2441", "lng": "-95.9112"}, {"name": "Hardwick", "state": "MN", "lat": "43.7742", "lng": "-96.1975"}, {"name": "Beaulieu", "state": "MN", "lat": "47.3389", "lng": "-95.8054"}, {"name": "Andover", "state": "MN", "lat": "45.2571", "lng": "-93.3265"}, {"name": "St. Cloud", "state": "MN", "lat": "45.5339", "lng": "-94.1718"}, {"name": "Maynard", "state": "MN", "lat": "44.9056", "lng": "-95.4687"}, {"name": "Dundee", "state": "MN", "lat": "43.8440", "lng": "-95.4666"}, {"name": "Chanhassen", "state": "MN", "lat": "44.8544", "lng": "-93.5621"}, {"name": "Melrose", "state": "MN", "lat": "45.6758", "lng": "-94.8129"}, {"name": "Bruno", "state": "MN", "lat": "46.2810", "lng": "-92.6680"}, {"name": "Badger", "state": "MN", "lat": "48.7768", "lng": "-96.0213"}, {"name": "Eyota", "state": "MN", "lat": "43.9883", "lng": "-92.2321"}, {"name": "Mazeppa", "state": "MN", "lat": "44.2737", "lng": "-92.5402"}, {"name": "Avon", "state": "MN", "lat": "45.6094", "lng": "-94.4609"}, {"name": "Barrett", "state": "MN", "lat": "45.9124", "lng": "-95.8943"}, {"name": "St. Marys Point", "state": "MN", "lat": "44.9129", "lng": "-92.7703"}, {"name": "St. Bonifacius", "state": "MN", "lat": "44.9053", "lng": "-93.7474"}, {"name": "Gilbert", "state": "MN", "lat": "47.4913", "lng": "-92.4612"}, {"name": "Hermantown", "state": "MN", "lat": "46.8058", "lng": "-92.2407"}, {"name": "Mapleview", "state": "MN", "lat": "43.6901", "lng": "-92.9740"}, {"name": "Balaton", "state": "MN", "lat": "44.2331", "lng": "-95.8707"}, {"name": "Ellsworth", "state": "MN", "lat": "43.5206", "lng": "-96.0186"}, {"name": "Watkins", "state": "MN", "lat": "45.3153", "lng": "-94.4120"}, {"name": "Maple Grove", "state": "MN", "lat": "45.1089", "lng": "-93.4626"}, {"name": "Sauk Centre", "state": "MN", "lat": "45.7360", "lng": "-94.9523"}, {"name": "Richfield", "state": "MN", "lat": "44.8762", "lng": "-93.2833"}, {"name": "Kingston", "state": "MN", "lat": "45.1960", "lng": "-94.3109"}, {"name": "Wadena", "state": "MN", "lat": "46.4453", "lng": "-95.1281"}, {"name": "Millerville", "state": "MN", "lat": "46.0691", "lng": "-95.5571"}, {"name": "McKinley", "state": "MN", "lat": "47.5090", "lng": "-92.4057"}, {"name": "Hamburg", "state": "MN", "lat": "44.7328", "lng": "-93.9646"}, {"name": "Albert Lea", "state": "MN", "lat": "43.6546", "lng": "-93.3641"}, {"name": "Homer", "state": "MN", "lat": "44.0084", "lng": "-91.5601"}, {"name": "Freeport", "state": "MN", "lat": "45.6627", "lng": "-94.6888"}, {"name": "Garden City", "state": "MN", "lat": "44.0485", "lng": "-94.1713"}, {"name": "Kimball", "state": "MN", "lat": "45.3144", "lng": "-94.3008"}, {"name": "Eden Valley", "state": "MN", "lat": "45.3262", "lng": "-94.5455"}, {"name": "Utica", "state": "MN", "lat": "43.9772", "lng": "-91.9494"}, {"name": "Hendricks", "state": "MN", "lat": "44.5076", "lng": "-96.4281"}, {"name": "Raymond", "state": "MN", "lat": "45.0186", "lng": "-95.2369"}, {"name": "Sauk Rapids", "state": "MN", "lat": "45.5980", "lng": "-94.1540"}, {"name": "Storden", "state": "MN", "lat": "44.0396", "lng": "-95.3193"}, {"name": "Shakopee", "state": "MN", "lat": "44.7744", "lng": "-93.4764"}, {"name": "Sunburg", "state": "MN", "lat": "45.3476", "lng": "-95.2400"}, {"name": "East Grand Forks", "state": "MN", "lat": "47.9284", "lng": "-97.0138"}, {"name": "Grand Rapids", "state": "MN", "lat": "47.2380", "lng": "-93.5327"}, {"name": "Lake George", "state": "MN", "lat": "47.1881", "lng": "-94.9801"}, {"name": "Federal Dam", "state": "MN", "lat": "47.2407", "lng": "-94.2190"}, {"name": "Gully", "state": "MN", "lat": "47.7684", "lng": "-95.6229"}, {"name": "Trommald", "state": "MN", "lat": "46.5058", "lng": "-94.0154"}, {"name": "Wheaton", "state": "MN", "lat": "45.8059", "lng": "-96.4980"}, {"name": "Paynesville", "state": "MN", "lat": "45.3785", "lng": "-94.7217"}, {"name": "Dakota", "state": "MN", "lat": "43.9106", "lng": "-91.3605"}, {"name": "St. Joseph", "state": "MN", "lat": "45.5609", "lng": "-94.3084"}, {"name": "Waseca", "state": "MN", "lat": "44.0826", "lng": "-93.5025"}, {"name": "Scanlon", "state": "MN", "lat": "46.7066", "lng": "-92.4300"}, {"name": "Brooklyn Center", "state": "MN", "lat": "45.0681", "lng": "-93.3162"}, {"name": "Ada", "state": "MN", "lat": "47.2992", "lng": "-96.5165"}, {"name": "Minnetonka", "state": "MN", "lat": "44.9332", "lng": "-93.4617"}, {"name": "Kellogg", "state": "MN", "lat": "44.3074", "lng": "-91.9989"}, {"name": "Akeley", "state": "MN", "lat": "47.0005", "lng": "-94.7280"}, {"name": "Coleraine", "state": "MN", "lat": "47.2638", "lng": "-93.4524"}, {"name": "Nimrod", "state": "MN", "lat": "46.6375", "lng": "-94.8805"}, {"name": "Dassel", "state": "MN", "lat": "45.0830", "lng": "-94.3150"}, {"name": "Deerwood", "state": "MN", "lat": "46.4729", "lng": "-93.9000"}, {"name": "Waltham", "state": "MN", "lat": "43.8193", "lng": "-92.8746"}, {"name": "Brainerd", "state": "MN", "lat": "46.3553", "lng": "-94.1983"}, {"name": "Glyndon", "state": "MN", "lat": "46.8709", "lng": "-96.5784"}, {"name": "Warba", "state": "MN", "lat": "47.1367", "lng": "-93.2657"}, {"name": "Cleveland", "state": "MN", "lat": "44.3236", "lng": "-93.8353"}, {"name": "Lamberton", "state": "MN", "lat": "44.2306", "lng": "-95.2676"}, {"name": "Pennock", "state": "MN", "lat": "45.1459", "lng": "-95.1750"}, {"name": "Murdock", "state": "MN", "lat": "45.2234", "lng": "-95.3946"}, {"name": "Wilmont", "state": "MN", "lat": "43.7650", "lng": "-95.8269"}, {"name": "Twin Lakes", "state": "MN", "lat": "43.5608", "lng": "-93.4235"}, {"name": "Elkton", "state": "MN", "lat": "43.6602", "lng": "-92.7065"}, {"name": "North Branch", "state": "MN", "lat": "45.5137", "lng": "-92.9601"}, {"name": "Oklee", "state": "MN", "lat": "47.8390", "lng": "-95.8509"}, {"name": "Ogilvie", "state": "MN", "lat": "45.8291", "lng": "-93.4221"}, {"name": "Goodview", "state": "MN", "lat": "44.0693", "lng": "-91.7167"}, {"name": "Correll", "state": "MN", "lat": "45.2320", "lng": "-96.1627"}, {"name": "Angle Inlet", "state": "MN", "lat": "49.3465", "lng": "-95.0732"}, {"name": "Green Isle", "state": "MN", "lat": "44.6804", "lng": "-94.0052"}, {"name": "Hoyt Lakes", "state": "MN", "lat": "47.5598", "lng": "-92.1157"}, {"name": "Eagan", "state": "MN", "lat": "44.8169", "lng": "-93.1638"}, {"name": "Quamba", "state": "MN", "lat": "45.9155", "lng": "-93.1753"}, {"name": "Minneiska", "state": "MN", "lat": "44.1976", "lng": "-91.8764"}, {"name": "Apple Valley", "state": "MN", "lat": "44.7457", "lng": "-93.2006"}, {"name": "Nassau", "state": "MN", "lat": "45.0677", "lng": "-96.4417"}, {"name": "Bejou", "state": "MN", "lat": "47.4429", "lng": "-95.9727"}, {"name": "Bird Island", "state": "MN", "lat": "44.7648", "lng": "-94.8949"}, {"name": "Laporte", "state": "MN", "lat": "47.2147", "lng": "-94.7573"}, {"name": "Lynd", "state": "MN", "lat": "44.3973", "lng": "-95.8812"}, {"name": "Chandler", "state": "MN", "lat": "43.9306", "lng": "-95.9512"}, {"name": "Cokato", "state": "MN", "lat": "45.0771", "lng": "-94.1879"}, {"name": "Fifty Lakes", "state": "MN", "lat": "46.7618", "lng": "-94.0897"}, {"name": "Lake Shore", "state": "MN", "lat": "46.5040", "lng": "-94.3635"}, {"name": "Dawson", "state": "MN", "lat": "44.9289", "lng": "-96.0504"}, {"name": "Mahtomedi", "state": "MN", "lat": "45.0619", "lng": "-92.9660"}, {"name": "Buckman", "state": "MN", "lat": "45.8973", "lng": "-94.0940"}, {"name": "Walters", "state": "MN", "lat": "43.6049", "lng": "-93.6743"}, {"name": "Sargeant", "state": "MN", "lat": "43.8057", "lng": "-92.8006"}, {"name": "Orono", "state": "MN", "lat": "44.9644", "lng": "-93.5909"}, {"name": "Starbuck", "state": "MN", "lat": "45.6121", "lng": "-95.5333"}, {"name": "Eitzen", "state": "MN", "lat": "43.5080", "lng": "-91.4636"}, {"name": "Corcoran", "state": "MN", "lat": "45.1089", "lng": "-93.5837"}, {"name": "Arden Hills", "state": "MN", "lat": "45.0722", "lng": "-93.1671"}, {"name": "Minneota", "state": "MN", "lat": "44.5626", "lng": "-95.9827"}, {"name": "Montrose", "state": "MN", "lat": "45.0668", "lng": "-93.9206"}, {"name": "Lakeland", "state": "MN", "lat": "44.9503", "lng": "-92.7700"}, {"name": "Bayport", "state": "MN", "lat": "45.0152", "lng": "-92.7789"}, {"name": "Ortonville", "state": "MN", "lat": "45.3017", "lng": "-96.4415"}]