[{"name": "Trenton", "state": "MO", "lat": "40.0819", "lng": "-93.6030"}, {"name": "Levasy", "state": "MO", "lat": "39.1363", "lng": "-94.1307"}, {"name": "West Alton", "state": "MO", "lat": "38.8664", "lng": "-90.2084"}, {"name": "Green Park", "state": "MO", "lat": "38.5242", "lng": "-90.3365"}, {"name": "Grand Falls Plaza", "state": "MO", "lat": "37.0355", "lng": "-94.5379"}, {"name": "Lake Tapawingo", "state": "MO", "lat": "39.0190", "lng": "-94.3131"}, {"name": "Edgar Springs", "state": "MO", "lat": "37.7025", "lng": "-91.8661"}, {"name": "Paris", "state": "MO", "lat": "39.4773", "lng": "-92.0039"}, {"name": "Farber", "state": "MO", "lat": "39.2747", "lng": "-91.5763"}, {"name": "Hermann", "state": "MO", "lat": "38.6983", "lng": "-91.4342"}, {"name": "Worth", "state": "MO", "lat": "40.4045", "lng": "-94.4465"}, {"name": "Kimmswick", "state": "MO", "lat": "38.3655", "lng": "-90.3645"}, {"name": "Summersville", "state": "MO", "lat": "37.1785", "lng": "-91.6576"}, {"name": "Aurora", "state": "MO", "lat": "36.9674", "lng": "-93.7183"}, {"name": "Annada", "state": "MO", "lat": "39.2622", "lng": "-90.8287"}, {"name": "Avondale", "state": "MO", "lat": "39.1545", "lng": "-94.5452"}, {"name": "Homestown", "state": "MO", "lat": "36.3318", "lng": "-89.8242"}, {"name": "Wasola", "state": "MO", "lat": "36.7857", "lng": "-92.5685"}, {"name": "Windsor Place", "state": "MO", "lat": "38.9341", "lng": "-92.7025"}, {"name": "Dennis Acres", "state": "MO", "lat": "37.0463", "lng": "-94.5042"}, {"name": "Houston Lake", "state": "MO", "lat": "39.1924", "lng": "-94.6220"}, {"name": "Fairfax", "state": "MO", "lat": "40.3392", "lng": "-95.3920"}, {"name": "Duquesne", "state": "MO", "lat": "37.0711", "lng": "-94.4573"}, {"name": "Miller", "state": "MO", "lat": "37.2148", "lng": "-93.8406"}, {"name": "Eldon", "state": "MO", "lat": "38.3512", "lng": "-92.5766"}, {"name": "Fort Leonard Wood", "state": "MO", "lat": "37.7562", "lng": "-92.1274"}, {"name": "Pilot Grove", "state": "MO", "lat": "38.8736", "lng": "-92.9126"}, {"name": "Liberty", "state": "MO", "lat": "39.2394", "lng": "-94.4191"}, {"name": "Leadwood", "state": "MO", "lat": "37.8618", "lng": "-90.5892"}, {"name": "Hornersville", "state": "MO", "lat": "36.0404", "lng": "-90.1158"}, {"name": "South Fork", "state": "MO", "lat": "36.6311", "lng": "-91.9602"}, {"name": "Pineville", "state": "MO", "lat": "36.5746", "lng": "-94.3912"}, {"name": "East Prairie", "state": "MO", "lat": "36.7789", "lng": "-89.3841"}, {"name": "Farmington", "state": "MO", "lat": "37.7821", "lng": "-90.4288"}, {"name": "Bunker", "state": "MO", "lat": "37.4574", "lng": "-91.2120"}, {"name": "Exeter", "state": "MO", "lat": "36.6707", "lng": "-93.9399"}, {"name": "Whitewater", "state": "MO", "lat": "37.2368", "lng": "-89.7978"}, {"name": "Lake Ozark", "state": "MO", "lat": "38.2035", "lng": "-92.6257"}, {"name": "Anniston", "state": "MO", "lat": "36.8243", "lng": "-89.3267"}, {"name": "Gallatin", "state": "MO", "lat": "39.9106", "lng": "-93.9642"}, {"name": "Seligman", "state": "MO", "lat": "36.5231", "lng": "-93.9388"}, {"name": "Brewer", "state": "MO", "lat": "37.7836", "lng": "-89.9180"}, {"name": "Holt", "state": "MO", "lat": "39.4553", "lng": "-94.3371"}, {"name": "Ritchey", "state": "MO", "lat": "36.9440", "lng": "-94.1858"}, {"name": "Norwood", "state": "MO", "lat": "37.1072", "lng": "-92.4189"}, {"name": "Centralia", "state": "MO", "lat": "39.2105", "lng": "-92.1342"}, {"name": "Stoutsville", "state": "MO", "lat": "39.5479", "lng": "-91.8572"}, {"name": "Bevier", "state": "MO", "lat": "39.7509", "lng": "-92.5646"}, {"name": "Lone Jack", "state": "MO", "lat": "38.8725", "lng": "-94.1740"}, {"name": "Phelps City", "state": "MO", "lat": "40.4006", "lng": "-95.5950"}, {"name": "Livonia", "state": "MO", "lat": "40.4920", "lng": "-92.7005"}, {"name": "St. John", "state": "MO", "lat": "38.7148", "lng": "-90.3461"}, {"name": "Skidmore", "state": "MO", "lat": "40.2880", "lng": "-95.0795"}, {"name": "Hollister", "state": "MO", "lat": "36.6058", "lng": "-93.2338"}, {"name": "Unionville", "state": "MO", "lat": "40.4757", "lng": "-93.0044"}, {"name": "Barnhart", "state": "MO", "lat": "38.3360", "lng": "-90.4046"}, {"name": "McBaine", "state": "MO", "lat": "38.8831", "lng": "-92.4549"}, {"name": "Westphalia", "state": "MO", "lat": "38.4414", "lng": "-92.0005"}, {"name": "Fidelity", "state": "MO", "lat": "37.0817", "lng": "-94.3096"}, {"name": "Rockaway Beach", "state": "MO", "lat": "36.7019", "lng": "-93.1617"}, {"name": "Denver", "state": "MO", "lat": "40.3989", "lng": "-94.3233"}, {"name": "Cherokee Pass", "state": "MO", "lat": "37.4872", "lng": "-90.2960"}, {"name": "Osgood", "state": "MO", "lat": "40.1972", "lng": "-93.3500"}, {"name": "Lambert", "state": "MO", "lat": "37.0938", "lng": "-89.5547"}, {"name": "Coffey", "state": "MO", "lat": "40.1055", "lng": "-94.0066"}, {"name": "Doe Run", "state": "MO", "lat": "37.7454", "lng": "-90.4994"}, {"name": "Hartsburg", "state": "MO", "lat": "38.6970", "lng": "-92.3072"}, {"name": "Rockville", "state": "MO", "lat": "38.0710", "lng": "-94.0800"}, {"name": "Concord", "state": "MO", "lat": "38.5117", "lng": "-90.3574"}, {"name": "Cobalt", "state": "MO", "lat": "37.5454", "lng": "-90.2876"}, {"name": "Milan", "state": "MO", "lat": "40.2031", "lng": "-93.1240"}, {"name": "Galena", "state": "MO", "lat": "36.8054", "lng": "-93.4709"}, {"name": "Dawn", "state": "MO", "lat": "39.6713", "lng": "-93.6341"}, {"name": "Lake St. Louis", "state": "MO", "lat": "38.7848", "lng": "-90.7873"}, {"name": "Lee's Summit", "state": "MO", "lat": "38.9172", "lng": "-94.3816"}, {"name": "Urbana", "state": "MO", "lat": "37.8435", "lng": "-93.1676"}, {"name": "Cooter", "state": "MO", "lat": "36.0467", "lng": "-89.8091"}, {"name": "Independence", "state": "MO", "lat": "39.0871", "lng": "-94.3503"}, {"name": "Taos", "state": "MO", "lat": "38.5157", "lng": "-92.0647"}, {"name": "Clarence", "state": "MO", "lat": "39.7432", "lng": "-92.2602"}, {"name": "Country Club Hills", "state": "MO", "lat": "38.7208", "lng": "-90.2749"}, {"name": "Country Club", "state": "MO", "lat": "39.8388", "lng": "-94.8205"}, {"name": "Hoberg", "state": "MO", "lat": "37.0682", "lng": "-93.8493"}, {"name": "Montier", "state": "MO", "lat": "36.9817", "lng": "-91.5749"}, {"name": "Hannibal", "state": "MO", "lat": "39.7097", "lng": "-91.3936"}, {"name": "Elmo", "state": "MO", "lat": "40.5187", "lng": "-95.1170"}, {"name": "Glen Echo Park", "state": "MO", "lat": "38.7010", "lng": "-90.2965"}, {"name": "Parkway", "state": "MO", "lat": "38.3361", "lng": "-90.9711"}, {"name": "Quitman", "state": "MO", "lat": "40.3735", "lng": "-95.0771"}, {"name": "Platte City", "state": "MO", "lat": "39.3580", "lng": "-94.7663"}, {"name": "Burgess", "state": "MO", "lat": "37.5568", "lng": "-94.6153"}, {"name": "Danville", "state": "MO", "lat": "38.9125", "lng": "-91.5323"}, {"name": "Linneus", "state": "MO", "lat": "39.8767", "lng": "-93.1868"}, {"name": "Catron", "state": "MO", "lat": "36.6111", "lng": "-89.7061"}, {"name": "Peculiar", "state": "MO", "lat": "38.7306", "lng": "-94.4736"}, {"name": "Princeton", "state": "MO", "lat": "40.3966", "lng": "-93.5884"}, {"name": "Bethany", "state": "MO", "lat": "40.2684", "lng": "-94.0281"}, {"name": "Camden Point", "state": "MO", "lat": "39.4541", "lng": "-94.7485"}, {"name": "Ellington", "state": "MO", "lat": "37.2366", "lng": "-90.9733"}, {"name": "Concordia", "state": "MO", "lat": "38.9877", "lng": "-93.5683"}, {"name": "Iron Mountain Lake", "state": "MO", "lat": "37.6854", "lng": "-90.6184"}, {"name": "Vandiver", "state": "MO", "lat": "39.1622", "lng": "-91.8470"}, {"name": "Jonesburg", "state": "MO", "lat": "38.8546", "lng": "-91.3027"}, {"name": "Corder", "state": "MO", "lat": "39.0992", "lng": "-93.6390"}, {"name": "Elsberry", "state": "MO", "lat": "39.1682", "lng": "-90.7879"}, {"name": "Westboro", "state": "MO", "lat": "40.5350", "lng": "-95.3212"}, {"name": "Boonville", "state": "MO", "lat": "38.9588", "lng": "-92.7471"}, {"name": "Freeburg", "state": "MO", "lat": "38.3164", "lng": "-91.9223"}, {"name": "Dover", "state": "MO", "lat": "39.1941", "lng": "-93.6896"}, {"name": "Fleming", "state": "MO", "lat": "39.1956", "lng": "-94.0523"}, {"name": "Shrewsbury", "state": "MO", "lat": "38.5866", "lng": "-90.3282"}, {"name": "Nevada", "state": "MO", "lat": "37.8445", "lng": "-94.3492"}, {"name": "Greencastle", "state": "MO", "lat": "40.2606", "lng": "-92.8784"}, {"name": "Wyaconda", "state": "MO", "lat": "40.3921", "lng": "-91.9261"}, {"name": "Bellflower", "state": "MO", "lat": "39.0036", "lng": "-91.3521"}, {"name": "Fair Play", "state": "MO", "lat": "37.6331", "lng": "-93.5769"}, {"name": "Stoutland", "state": "MO", "lat": "37.8136", "lng": "-92.5143"}, {"name": "Green Ridge", "state": "MO", "lat": "38.6211", "lng": "-93.4101"}, {"name": "Gideon", "state": "MO", "lat": "36.4489", "lng": "-89.9128"}, {"name": "Blythedale", "state": "MO", "lat": "40.4752", "lng": "-93.9280"}, {"name": "Macon", "state": "MO", "lat": "39.7424", "lng": "-92.4712"}, {"name": "Blue Eye", "state": "MO", "lat": "36.5150", "lng": "-93.3828"}, {"name": "Deerfield", "state": "MO", "lat": "37.8386", "lng": "-94.5078"}, {"name": "Watson", "state": "MO", "lat": "40.4799", "lng": "-95.6233"}, {"name": "Glen Allen", "state": "MO", "lat": "37.3171", "lng": "-90.0282"}, {"name": "La Plata", "state": "MO", "lat": "40.0241", "lng": "-92.4914"}, {"name": "Lexington", "state": "MO", "lat": "39.1798", "lng": "-93.8695"}, {"name": "Licking", "state": "MO", "lat": "37.4992", "lng": "-91.8617"}, {"name": "Bella Villa", "state": "MO", "lat": "38.5436", "lng": "-90.2854"}, {"name": "Cardwell", "state": "MO", "lat": "36.0475", "lng": "-90.2909"}, {"name": "Oakwood Park", "state": "MO", "lat": "39.2047", "lng": "-94.5738"}, {"name": "New London", "state": "MO", "lat": "39.5844", "lng": "-91.3987"}, {"name": "Sturgeon", "state": "MO", "lat": "39.2345", "lng": "-92.2823"}, {"name": "Goodnight", "state": "MO", "lat": "37.4516", "lng": "-93.2311"}, {"name": "Shelbina", "state": "MO", "lat": "39.6930", "lng": "-92.0396"}, {"name": "Lancaster", "state": "MO", "lat": "40.5238", "lng": "-92.5314"}, {"name": "Arrow Point", "state": "MO", "lat": "36.5440", "lng": "-93.6223"}, {"name": "Winfield", "state": "MO", "lat": "38.9944", "lng": "-90.7437"}, {"name": "Cassville", "state": "MO", "lat": "36.6786", "lng": "-93.8682"}, {"name": "Glasgow", "state": "MO", "lat": "39.2279", "lng": "-92.8394"}, {"name": "Lamar", "state": "MO", "lat": "37.4944", "lng": "-94.2785"}, {"name": "Bloomsdale", "state": "MO", "lat": "38.0147", "lng": "-90.2214"}, {"name": "Altenburg", "state": "MO", "lat": "37.6304", "lng": "-89.5860"}, {"name": "Caledonia", "state": "MO", "lat": "37.7651", "lng": "-90.7723"}, {"name": "Hillsdale", "state": "MO", "lat": "38.6857", "lng": "-90.2868"}, {"name": "Normandy", "state": "MO", "lat": "38.7069", "lng": "-90.3010"}, {"name": "Ethel", "state": "MO", "lat": "39.8933", "lng": "-92.7410"}, {"name": "Fillmore", "state": "MO", "lat": "40.0253", "lng": "-94.9731"}, {"name": "Sullivan", "state": "MO", "lat": "38.2127", "lng": "-91.1637"}, {"name": "Bucklin", "state": "MO", "lat": "39.7837", "lng": "-92.8879"}, {"name": "Berkeley", "state": "MO", "lat": "38.7438", "lng": "-90.3361"}, {"name": "Fountain N' Lakes", "state": "MO", "lat": "38.9689", "lng": "-90.8493"}, {"name": "Wheatland", "state": "MO", "lat": "37.9426", "lng": "-93.4027"}, {"name": "Clarksburg", "state": "MO", "lat": "38.6611", "lng": "-92.6661"}, {"name": "Lemay", "state": "MO", "lat": "38.5325", "lng": "-90.2845"}, {"name": "Dardenne Prairie", "state": "MO", "lat": "38.7558", "lng": "-90.7313"}, {"name": "Wayland", "state": "MO", "lat": "40.3963", "lng": "-91.5755"}, {"name": "Union", "state": "MO", "lat": "38.4401", "lng": "-90.9928"}, {"name": "Kelso", "state": "MO", "lat": "37.1924", "lng": "-89.5504"}, {"name": "Noel", "state": "MO", "lat": "36.5433", "lng": "-94.4888"}, {"name": "Plattsburg", "state": "MO", "lat": "39.5644", "lng": "-94.4615"}, {"name": "Junction City", "state": "MO", "lat": "37.5733", "lng": "-90.2907"}, {"name": "Lake Lotawana", "state": "MO", "lat": "38.9020", "lng": "-94.2626"}, {"name": "Holts Summit", "state": "MO", "lat": "38.6452", "lng": "-92.1151"}, {"name": "Commerce", "state": "MO", "lat": "37.1583", "lng": "-89.4467"}, {"name": "Sheridan", "state": "MO", "lat": "40.5171", "lng": "-94.6143"}, {"name": "Maryville", "state": "MO", "lat": "40.3428", "lng": "-94.8708"}, {"name": "Turney", "state": "MO", "lat": "39.6377", "lng": "-94.3210"}, {"name": "Risco", "state": "MO", "lat": "36.5512", "lng": "-89.8186"}, {"name": "Oak Ridge", "state": "MO", "lat": "37.4985", "lng": "-89.7296"}, {"name": "Olympian Village", "state": "MO", "lat": "38.1346", "lng": "-90.4583"}, {"name": "Mexico", "state": "MO", "lat": "39.1626", "lng": "-91.8712"}, {"name": "Sugar Creek", "state": "MO", "lat": "39.1421", "lng": "-94.4019"}, {"name": "Elmira", "state": "MO", "lat": "39.5087", "lng": "-94.1546"}, {"name": "Excelsior Estates", "state": "MO", "lat": "39.3900", "lng": "-94.2082"}, {"name": "Baldwin Park", "state": "MO", "lat": "38.7939", "lng": "-94.2469"}, {"name": "Washburn", "state": "MO", "lat": "36.5888", "lng": "-93.9655"}, {"name": "Wortham", "state": "MO", "lat": "37.8401", "lng": "-90.6076"}, {"name": "Belle", "state": "MO", "lat": "38.2848", "lng": "-91.7217"}, {"name": "Ellisville", "state": "MO", "lat": "38.5895", "lng": "-90.5884"}, {"name": "Scott City", "state": "MO", "lat": "37.2243", "lng": "-89.5360"}, {"name": "Lithium", "state": "MO", "lat": "37.8322", "lng": "-89.8833"}, {"name": "Irondale", "state": "MO", "lat": "37.8356", "lng": "-90.6718"}, {"name": "Kansas City", "state": "MO", "lat": "39.1239", "lng": "-94.5541"}, {"name": "Parkdale", "state": "MO", "lat": "38.4795", "lng": "-90.5281"}, {"name": "Haywood City", "state": "MO", "lat": "37.0117", "lng": "-89.6003"}, {"name": "Edinburg", "state": "MO", "lat": "40.0811", "lng": "-93.6898"}, {"name": "South Lineville", "state": "MO", "lat": "40.5785", "lng": "-93.5243"}, {"name": "West Plains", "state": "MO", "lat": "36.7378", "lng": "-91.8680"}, {"name": "Jamesport", "state": "MO", "lat": "39.9750", "lng": "-93.8029"}, {"name": "Leeton", "state": "MO", "lat": "38.5833", "lng": "-93.6952"}, {"name": "Golden", "state": "MO", "lat": "36.5266", "lng": "-93.6637"}, {"name": "Middletown", "state": "MO", "lat": "39.1286", "lng": "-91.4138"}, {"name": "Everton", "state": "MO", "lat": "37.3428", "lng": "-93.7024"}, {"name": "Alexandria", "state": "MO", "lat": "40.3598", "lng": "-91.4595"}, {"name": "Birmingham", "state": "MO", "lat": "39.1676", "lng": "-94.4501"}, {"name": "Campbell", "state": "MO", "lat": "36.4930", "lng": "-90.0762"}, {"name": "Richmond Heights", "state": "MO", "lat": "38.6309", "lng": "-90.3332"}, {"name": "Mountain Grove", "state": "MO", "lat": "37.1341", "lng": "-92.2661"}, {"name": "St. James", "state": "MO", "lat": "38.0013", "lng": "-91.6154"}, {"name": "Clarksville", "state": "MO", "lat": "39.3693", "lng": "-90.9049"}, {"name": "Altamont", "state": "MO", "lat": "39.8886", "lng": "-94.0866"}, {"name": "Malta Bend", "state": "MO", "lat": "39.1940", "lng": "-93.3636"}, {"name": "Portageville", "state": "MO", "lat": "36.4295", "lng": "-89.6994"}, {"name": "Hermitage", "state": "MO", "lat": "37.9443", "lng": "-93.3255"}, {"name": "Creve Coeur", "state": "MO", "lat": "38.6621", "lng": "-90.4430"}, {"name": "Grayhawk", "state": "MO", "lat": "37.9310", "lng": "-90.2390"}, {"name": "Stanberry", "state": "MO", "lat": "40.2166", "lng": "-94.5381"}, {"name": "Dellwood", "state": "MO", "lat": "38.7563", "lng": "-90.2766"}, {"name": "Creighton", "state": "MO", "lat": "38.4965", "lng": "-94.0720"}, {"name": "Battlefield", "state": "MO", "lat": "37.1193", "lng": "-93.3683"}, {"name": "Lake Mykee Town", "state": "MO", "lat": "38.6763", "lng": "-92.1013"}, {"name": "Butterfield", "state": "MO", "lat": "36.7464", "lng": "-93.9047"}, {"name": "Aldrich", "state": "MO", "lat": "37.5489", "lng": "-93.5511"}, {"name": "Vinita Park", "state": "MO", "lat": "38.6888", "lng": "-90.3392"}, {"name": "Bel-Nor", "state": "MO", "lat": "38.7017", "lng": "-90.3180"}, {"name": "New Haven", "state": "MO", "lat": "38.6048", "lng": "-91.2178"}, {"name": "Umber View Heights", "state": "MO", "lat": "37.6233", "lng": "-93.8036"}, {"name": "Merriam Woods", "state": "MO", "lat": "36.7179", "lng": "-93.1715"}, {"name": "Bell City", "state": "MO", "lat": "37.0237", "lng": "-89.8196"}, {"name": "Glasgow Village", "state": "MO", "lat": "38.7579", "lng": "-90.1984"}, {"name": "Hayti", "state": "MO", "lat": "36.2323", "lng": "-89.7474"}, {"name": "Winona", "state": "MO", "lat": "37.0042", "lng": "-91.3270"}, {"name": "Tallapoosa", "state": "MO", "lat": "36.5061", "lng": "-89.8170"}, {"name": "Kearney", "state": "MO", "lat": "39.3550", "lng": "-94.3594"}, {"name": "New Florence", "state": "MO", "lat": "38.9092", "lng": "-91.4529"}, {"name": "Mount Moriah", "state": "MO", "lat": "40.3292", "lng": "-93.7971"}, {"name": "Osborn", "state": "MO", "lat": "39.7496", "lng": "-94.3566"}, {"name": "Spickard", "state": "MO", "lat": "40.2432", "lng": "-93.5923"}, {"name": "Kissee Mills", "state": "MO", "lat": "36.6694", "lng": "-93.0473"}, {"name": "Marshall", "state": "MO", "lat": "39.1145", "lng": "-93.2010"}, {"name": "Wentzville", "state": "MO", "lat": "38.8165", "lng": "-90.8671"}, {"name": "Salisbury", "state": "MO", "lat": "39.4233", "lng": "-92.8025"}, {"name": "Amsterdam", "state": "MO", "lat": "38.3493", "lng": "-94.5890"}, {"name": "Curryville", "state": "MO", "lat": "39.3458", "lng": "-91.3414"}, {"name": "Triplett", "state": "MO", "lat": "39.4983", "lng": "-93.1939"}, {"name": "Anderson", "state": "MO", "lat": "36.6533", "lng": "-94.4441"}, {"name": "Crestwood", "state": "MO", "lat": "38.5569", "lng": "-90.3782"}, {"name": "Jane", "state": "MO", "lat": "36.5404", "lng": "-94.3079"}, {"name": "Warson Woods", "state": "MO", "lat": "38.6069", "lng": "-90.3912"}, {"name": "Granger", "state": "MO", "lat": "40.4670", "lng": "-91.9736"}, {"name": "Prairie Home", "state": "MO", "lat": "38.8136", "lng": "-92.5906"}, {"name": "Brunswick", "state": "MO", "lat": "39.4257", "lng": "-93.1267"}, {"name": "Olean", "state": "MO", "lat": "38.4103", "lng": "-92.5300"}, {"name": "Seneca", "state": "MO", "lat": "36.8446", "lng": "-94.6093"}, {"name": "Liberal", "state": "MO", "lat": "37.5590", "lng": "-94.5161"}, {"name": "Bogard", "state": "MO", "lat": "39.4579", "lng": "-93.5239"}, {"name": "Indian Point", "state": "MO", "lat": "36.6428", "lng": "-93.3444"}, {"name": "Maplewood", "state": "MO", "lat": "38.6121", "lng": "-90.3240"}, {"name": "Vista", "state": "MO", "lat": "37.9891", "lng": "-93.6637"}, {"name": "Raytown", "state": "MO", "lat": "38.9944", "lng": "-94.4641"}, {"name": "Pickering", "state": "MO", "lat": "40.4503", "lng": "-94.8420"}, {"name": "Republic", "state": "MO", "lat": "37.1453", "lng": "-93.4446"}, {"name": "Poplar Bluff", "state": "MO", "lat": "36.7632", "lng": "-90.4136"}, {"name": "Clarkson Valley", "state": "MO", "lat": "38.6256", "lng": "-90.5945"}, {"name": "Riverview", "state": "MO", "lat": "38.7443", "lng": "-90.2109"}, {"name": "Queen City", "state": "MO", "lat": "40.4127", "lng": "-92.5663"}, {"name": "Evergreen", "state": "MO", "lat": "37.5486", "lng": "-92.5961"}, {"name": "Raymondville", "state": "MO", "lat": "37.3398", "lng": "-91.8364"}, {"name": "Leonard", "state": "MO", "lat": "39.8945", "lng": "-92.1820"}, {"name": "Nixa", "state": "MO", "lat": "37.0459", "lng": "-93.2953"}, {"name": "Wardell", "state": "MO", "lat": "36.3540", "lng": "-89.8170"}, {"name": "Dearborn", "state": "MO", "lat": "39.5247", "lng": "-94.7740"}, {"name": "Marceline", "state": "MO", "lat": "39.7166", "lng": "-92.9473"}, {"name": "Weatherby Lake", "state": "MO", "lat": "39.2365", "lng": "-94.6960"}, {"name": "Halltown", "state": "MO", "lat": "37.1947", "lng": "-93.6292"}, {"name": "Terre du Lac", "state": "MO", "lat": "37.9031", "lng": "-90.6169"}, {"name": "Dalton", "state": "MO", "lat": "39.3976", "lng": "-92.9921"}, {"name": "Milo", "state": "MO", "lat": "37.7554", "lng": "-94.3052"}, {"name": "Pevely", "state": "MO", "lat": "38.2871", "lng": "-90.3995"}, {"name": "Crystal Lakes", "state": "MO", "lat": "39.3606", "lng": "-94.1874"}, {"name": "Mendon", "state": "MO", "lat": "39.5906", "lng": "-93.1339"}, {"name": "Coney Island", "state": "MO", "lat": "36.5931", "lng": "-93.3972"}, {"name": "Desloge", "state": "MO", "lat": "37.8751", "lng": "-90.5192"}, {"name": "Edgerton", "state": "MO", "lat": "39.5022", "lng": "-94.6290"}, {"name": "Drexel", "state": "MO", "lat": "38.5005", "lng": "-94.6025"}, {"name": "Penermon", "state": "MO", "lat": "36.7910", "lng": "-89.8301"}, {"name": "Henrietta", "state": "MO", "lat": "39.2371", "lng": "-93.9384"}, {"name": "Lake Lafayette", "state": "MO", "lat": "38.9488", "lng": "-93.9716"}, {"name": "Holliday", "state": "MO", "lat": "39.4937", "lng": "-92.1313"}, {"name": "Bolckow", "state": "MO", "lat": "40.1152", "lng": "-94.8211"}, {"name": "Whiteman AFB", "state": "MO", "lat": "38.7302", "lng": "-93.5590"}, {"name": "Platte Woods", "state": "MO", "lat": "39.2288", "lng": "-94.6522"}, {"name": "Rhineland", "state": "MO", "lat": "38.7204", "lng": "-91.5176"}, {"name": "Bunceton", "state": "MO", "lat": "38.7894", "lng": "-92.7992"}, {"name": "Brumley", "state": "MO", "lat": "38.0880", "lng": "-92.4845"}, {"name": "Wellston", "state": "MO", "lat": "38.6751", "lng": "-90.2941"}, {"name": "Allenville", "state": "MO", "lat": "37.2217", "lng": "-89.7555"}, {"name": "Walnut Grove", "state": "MO", "lat": "37.4112", "lng": "-93.5481"}, {"name": "Oaks", "state": "MO", "lat": "39.1970", "lng": "-94.5720"}, {"name": "Shell Knob", "state": "MO", "lat": "36.6105", "lng": "-93.6042"}, {"name": "Passaic", "state": "MO", "lat": "38.3220", "lng": "-94.3486"}, {"name": "Bosworth", "state": "MO", "lat": "39.4699", "lng": "-93.3357"}, {"name": "Houstonia", "state": "MO", "lat": "38.8994", "lng": "-93.3592"}, {"name": "Easton", "state": "MO", "lat": "39.7226", "lng": "-94.6404"}, {"name": "Chain of Rocks", "state": "MO", "lat": "38.9155", "lng": "-90.8020"}, {"name": "Sibley", "state": "MO", "lat": "39.1758", "lng": "-94.2010"}, {"name": "Brooklyn Heights", "state": "MO", "lat": "37.1694", "lng": "-94.3856"}, {"name": "Dixon", "state": "MO", "lat": "37.9953", "lng": "-92.0955"}, {"name": "St. Paul", "state": "MO", "lat": "38.8484", "lng": "-90.7406"}, {"name": "Franklin", "state": "MO", "lat": "39.0112", "lng": "-92.7550"}, {"name": "Centertown", "state": "MO", "lat": "38.6180", "lng": "-92.4090"}, {"name": "Chesterfield", "state": "MO", "lat": "38.6588", "lng": "-90.5803"}, {"name": "Montreal", "state": "MO", "lat": "37.9702", "lng": "-92.5880"}, {"name": "Stockton", "state": "MO", "lat": "37.6971", "lng": "-93.7960"}, {"name": "Parma", "state": "MO", "lat": "36.6117", "lng": "-89.8189"}, {"name": "Kirbyville", "state": "MO", "lat": "36.6294", "lng": "-93.1568"}, {"name": "Brandsville", "state": "MO", "lat": "36.6507", "lng": "-91.6964"}, {"name": "Northwoods", "state": "MO", "lat": "38.7035", "lng": "-90.2824"}, {"name": "Blackwater", "state": "MO", "lat": "38.9793", "lng": "-92.9921"}, {"name": "Theodosia", "state": "MO", "lat": "36.5807", "lng": "-92.6638"}, {"name": "Milford", "state": "MO", "lat": "37.5866", "lng": "-94.1584"}, {"name": "Oregon", "state": "MO", "lat": "39.9861", "lng": "-95.1433"}, {"name": "Ridgely", "state": "MO", "lat": "39.4537", "lng": "-94.6402"}, {"name": "Mansfield", "state": "MO", "lat": "37.1102", "lng": "-92.5803"}, {"name": "Hartwell", "state": "MO", "lat": "38.4331", "lng": "-93.9342"}, {"name": "Blackburn", "state": "MO", "lat": "39.1048", "lng": "-93.4855"}, {"name": "Brashear", "state": "MO", "lat": "40.1484", "lng": "-92.3787"}, {"name": "Gladstone", "state": "MO", "lat": "39.2133", "lng": "-94.5592"}, {"name": "Kennett", "state": "MO", "lat": "36.2403", "lng": "-90.0481"}, {"name": "Clarksdale", "state": "MO", "lat": "39.8139", "lng": "-94.5507"}, {"name": "Mindenmines", "state": "MO", "lat": "37.4728", "lng": "-94.5889"}, {"name": "Richland", "state": "MO", "lat": "37.8610", "lng": "-92.3993"}, {"name": "Chillicothe", "state": "MO", "lat": "39.7953", "lng": "-93.5498"}, {"name": "Springfield", "state": "MO", "lat": "37.1943", "lng": "-93.2915"}, {"name": "Bethel", "state": "MO", "lat": "39.8778", "lng": "-92.0224"}, {"name": "Longtown", "state": "MO", "lat": "37.6702", "lng": "-89.7741"}, {"name": "Weldon Spring", "state": "MO", "lat": "38.7117", "lng": "-90.6517"}, {"name": "Irwin", "state": "MO", "lat": "37.5887", "lng": "-94.2872"}, {"name": "Bel-Ridge", "state": "MO", "lat": "38.7130", "lng": "-90.3285"}, {"name": "Sumner", "state": "MO", "lat": "39.6560", "lng": "-93.2434"}, {"name": "Fredericktown", "state": "MO", "lat": "37.5643", "lng": "-90.2987"}, {"name": "Stotesbury", "state": "MO", "lat": "37.9743", "lng": "-94.5645"}, {"name": "Dutchtown", "state": "MO", "lat": "37.2509", "lng": "-89.6558"}, {"name": "Meadville", "state": "MO", "lat": "39.7882", "lng": "-93.2994"}, {"name": "Dadeville", "state": "MO", "lat": "37.4793", "lng": "-93.6739"}, {"name": "Leasburg", "state": "MO", "lat": "38.0948", "lng": "-91.2953"}, {"name": "Homestead", "state": "MO", "lat": "39.3632", "lng": "-94.2006"}, {"name": "Forest City", "state": "MO", "lat": "39.9829", "lng": "-95.1883"}, {"name": "Uplands Park", "state": "MO", "lat": "38.6927", "lng": "-90.2829"}, {"name": "Pendleton", "state": "MO", "lat": "38.8262", "lng": "-91.2322"}, {"name": "Hillsboro", "state": "MO", "lat": "38.2330", "lng": "-90.5670"}, {"name": "Revere", "state": "MO", "lat": "40.4944", "lng": "-91.6764"}, {"name": "Lowry City", "state": "MO", "lat": "38.1401", "lng": "-93.7275"}, {"name": "Cairo", "state": "MO", "lat": "39.5114", "lng": "-92.4411"}, {"name": "Big Spring", "state": "MO", "lat": "38.8019", "lng": "-91.4838"}, {"name": "Hanley Hills", "state": "MO", "lat": "38.6856", "lng": "-90.3250"}, {"name": "Gerster", "state": "MO", "lat": "37.9548", "lng": "-93.5769"}, {"name": "Shelbyville", "state": "MO", "lat": "39.8071", "lng": "-92.0403"}, {"name": "Jackson", "state": "MO", "lat": "37.3794", "lng": "-89.6525"}, {"name": "Freistatt", "state": "MO", "lat": "37.0213", "lng": "-93.8977"}, {"name": "Union Star", "state": "MO", "lat": "39.9794", "lng": "-94.5987"}, {"name": "California", "state": "MO", "lat": "38.6304", "lng": "-92.5667"}, {"name": "Advance", "state": "MO", "lat": "37.1038", "lng": "-89.9119"}, {"name": "Blodgett", "state": "MO", "lat": "37.0049", "lng": "-89.5264"}, {"name": "Charleston", "state": "MO", "lat": "36.9180", "lng": "-89.3343"}, {"name": "Des Arc", "state": "MO", "lat": "37.2837", "lng": "-90.6354"}, {"name": "Flemington", "state": "MO", "lat": "37.8039", "lng": "-93.5014"}, {"name": "Maryland Heights", "state": "MO", "lat": "38.7188", "lng": "-90.4750"}, {"name": "McKittrick", "state": "MO", "lat": "38.7356", "lng": "-91.4449"}, {"name": "Holden", "state": "MO", "lat": "38.7136", "lng": "-93.9895"}, {"name": "Montgomery City", "state": "MO", "lat": "38.9737", "lng": "-91.5024"}, {"name": "Crystal City", "state": "MO", "lat": "38.2221", "lng": "-90.3808"}, {"name": "Diehlstadt", "state": "MO", "lat": "36.9593", "lng": "-89.4323"}, {"name": "Corning", "state": "MO", "lat": "40.2485", "lng": "-95.4544"}, {"name": "Greenwood", "state": "MO", "lat": "38.8508", "lng": "-94.3378"}, {"name": "Hurdland", "state": "MO", "lat": "40.1490", "lng": "-92.3034"}, {"name": "Browning", "state": "MO", "lat": "40.0348", "lng": "-93.1600"}, {"name": "Portage Des Sioux", "state": "MO", "lat": "38.9273", "lng": "-90.3434"}, {"name": "Scotsdale", "state": "MO", "lat": "38.3913", "lng": "-90.5908"}, {"name": "Craig", "state": "MO", "lat": "40.1923", "lng": "-95.3742"}, {"name": "Preston", "state": "MO", "lat": "37.9410", "lng": "-93.2127"}, {"name": "Wellsville", "state": "MO", "lat": "39.0734", "lng": "-91.5692"}, {"name": "Amazonia", "state": "MO", "lat": "39.8888", "lng": "-94.8926"}, {"name": "Windsor", "state": "MO", "lat": "38.5319", "lng": "-93.5227"}, {"name": "Warsaw", "state": "MO", "lat": "38.2474", "lng": "-93.3710"}, {"name": "Martinsburg", "state": "MO", "lat": "39.1009", "lng": "-91.6476"}, {"name": "Canton", "state": "MO", "lat": "40.1295", "lng": "-91.5266"}, {"name": "Goodman", "state": "MO", "lat": "36.7388", "lng": "-94.4091"}, {"name": "Missouri City", "state": "MO", "lat": "39.2400", "lng": "-94.3010"}, {"name": "Bates City", "state": "MO", "lat": "39.0047", "lng": "-94.0659"}, {"name": "Verona", "state": "MO", "lat": "36.9631", "lng": "-93.7936"}, {"name": "Tracy", "state": "MO", "lat": "39.3798", "lng": "-94.7921"}, {"name": "Hurley", "state": "MO", "lat": "36.9306", "lng": "-93.4995"}, {"name": "Madison", "state": "MO", "lat": "39.4735", "lng": "-92.2117"}, {"name": "Phillipsburg", "state": "MO", "lat": "37.5525", "lng": "-92.7871"}, {"name": "Webster Groves", "state": "MO", "lat": "38.5866", "lng": "-90.3544"}, {"name": "Hawk Point", "state": "MO", "lat": "38.9715", "lng": "-91.1327"}, {"name": "Troy", "state": "MO", "lat": "38.9708", "lng": "-90.9714"}, {"name": "LaBarque Creek", "state": "MO", "lat": "38.4163", "lng": "-90.6777"}, {"name": "Fair Grove", "state": "MO", "lat": "37.3833", "lng": "-93.1522"}, {"name": "Monett", "state": "MO", "lat": "36.9221", "lng": "-93.9259"}, {"name": "Mound City", "state": "MO", "lat": "40.1365", "lng": "-95.2337"}, {"name": "Ballwin", "state": "MO", "lat": "38.5950", "lng": "-90.5501"}, {"name": "Marlborough", "state": "MO", "lat": "38.5682", "lng": "-90.3395"}, {"name": "Fairview", "state": "MO", "lat": "36.8173", "lng": "-94.0866"}, {"name": "Higginsville", "state": "MO", "lat": "39.0652", "lng": "-93.7270"}, {"name": "Cabool", "state": "MO", "lat": "37.1262", "lng": "-92.1032"}, {"name": "Osceola", "state": "MO", "lat": "38.0457", "lng": "-93.6973"}, {"name": "Herculaneum", "state": "MO", "lat": "38.2573", "lng": "-90.3934"}, {"name": "Wilbur Park", "state": "MO", "lat": "38.5532", "lng": "-90.3086"}, {"name": "Florissant", "state": "MO", "lat": "38.7996", "lng": "-90.3269"}, {"name": "Bellefontaine Neighbors", "state": "MO", "lat": "38.7529", "lng": "-90.2279"}, {"name": "Hunnewell", "state": "MO", "lat": "39.6678", "lng": "-91.8588"}, {"name": "St. Elizabeth", "state": "MO", "lat": "38.2560", "lng": "-92.2665"}, {"name": "Dexter", "state": "MO", "lat": "36.7928", "lng": "-89.9634"}, {"name": "Strafford", "state": "MO", "lat": "37.2691", "lng": "-93.1177"}, {"name": "Willard", "state": "MO", "lat": "37.2931", "lng": "-93.4171"}, {"name": "Blanchard", "state": "MO", "lat": "40.5749", "lng": "-95.2109"}, {"name": "Wilson City", "state": "MO", "lat": "36.9236", "lng": "-89.2230"}, {"name": "Breckenridge Hills", "state": "MO", "lat": "38.7157", "lng": "-90.3684"}, {"name": "Newtonia", "state": "MO", "lat": "36.8794", "lng": "-94.1836"}, {"name": "Arrow Rock", "state": "MO", "lat": "39.0699", "lng": "-92.9473"}, {"name": "Clayton", "state": "MO", "lat": "38.6444", "lng": "-90.3303"}, {"name": "Doolittle", "state": "MO", "lat": "37.9425", "lng": "-91.8913"}, {"name": "Monroe City", "state": "MO", "lat": "39.6542", "lng": "-91.7328"}, {"name": "Wood Heights", "state": "MO", "lat": "39.3414", "lng": "-94.1635"}, {"name": "St. Ann", "state": "MO", "lat": "38.7266", "lng": "-90.3872"}, {"name": "Houston", "state": "MO", "lat": "37.3212", "lng": "-91.9610"}, {"name": "Reeds Spring", "state": "MO", "lat": "36.7402", "lng": "-93.3797"}, {"name": "Stotts City", "state": "MO", "lat": "37.1018", "lng": "-93.9483"}, {"name": "Asbury", "state": "MO", "lat": "37.2729", "lng": "-94.6052"}, {"name": "Polo", "state": "MO", "lat": "39.5495", "lng": "-94.0396"}, {"name": "Weaubleau", "state": "MO", "lat": "37.8915", "lng": "-93.5403"}, {"name": "Cottleville", "state": "MO", "lat": "38.7511", "lng": "-90.6587"}, {"name": "Irena", "state": "MO", "lat": "40.5403", "lng": "-94.3900"}, {"name": "Weldon Spring Heights", "state": "MO", "lat": "38.7048", "lng": "-90.6853"}, {"name": "Millard", "state": "MO", "lat": "40.1075", "lng": "-92.5460"}, {"name": "Breckenridge", "state": "MO", "lat": "39.7614", "lng": "-93.8047"}, {"name": "Odessa", "state": "MO", "lat": "38.9988", "lng": "-93.9665"}, {"name": "Mokane", "state": "MO", "lat": "38.6744", "lng": "-91.8723"}, {"name": "New Melle", "state": "MO", "lat": "38.7182", "lng": "-90.8834"}, {"name": "Peaceful Village", "state": "MO", "lat": "38.4676", "lng": "-90.5426"}, {"name": "Auxvasse", "state": "MO", "lat": "39.0174", "lng": "-91.8958"}, {"name": "Arnold", "state": "MO", "lat": "38.4294", "lng": "-90.3725"}, {"name": "Duenweg", "state": "MO", "lat": "37.0842", "lng": "-94.4119"}, {"name": "Chamois", "state": "MO", "lat": "38.6763", "lng": "-91.7700"}, {"name": "Plevna", "state": "MO", "lat": "39.9765", "lng": "-92.0852"}, {"name": "Ginger Blue", "state": "MO", "lat": "36.5899", "lng": "-94.4596"}, {"name": "Smithville", "state": "MO", "lat": "39.3920", "lng": "-94.5751"}, {"name": "Centerville", "state": "MO", "lat": "37.4368", "lng": "-90.9601"}, {"name": "Leadington", "state": "MO", "lat": "37.8343", "lng": "-90.4806"}, {"name": "Russellville", "state": "MO", "lat": "38.5128", "lng": "-92.4384"}, {"name": "New Franklin", "state": "MO", "lat": "39.0175", "lng": "-92.7406"}, {"name": "Oakwood", "state": "MO", "lat": "39.2005", "lng": "-94.5704"}, {"name": "Annapolis", "state": "MO", "lat": "37.3605", "lng": "-90.6975"}, {"name": "Sedgewickville", "state": "MO", "lat": "37.5146", "lng": "-89.9061"}, {"name": "Grantwood Village", "state": "MO", "lat": "38.5509", "lng": "-90.3532"}, {"name": "Shoal Creek Estates", "state": "MO", "lat": "37.0173", "lng": "-94.4933"}, {"name": "Hazelwood", "state": "MO", "lat": "38.7931", "lng": "-90.3900"}, {"name": "La Tour", "state": "MO", "lat": "38.6348", "lng": "-94.1017"}, {"name": "Harris", "state": "MO", "lat": "40.3062", "lng": "-93.3504"}, {"name": "Whiteside", "state": "MO", "lat": "39.1839", "lng": "-91.0165"}, {"name": "Wellington", "state": "MO", "lat": "39.1383", "lng": "-93.9861"}, {"name": "New Cambria", "state": "MO", "lat": "39.7765", "lng": "-92.7515"}, {"name": "Jefferson City", "state": "MO", "lat": "38.5676", "lng": "-92.1759"}, {"name": "Hughesville", "state": "MO", "lat": "38.8369", "lng": "-93.2952"}, {"name": "Halfway", "state": "MO", "lat": "37.6189", "lng": "-93.2387"}, {"name": "Sheldon", "state": "MO", "lat": "37.6582", "lng": "-94.2956"}, {"name": "Mountain View", "state": "MO", "lat": "36.9936", "lng": "-91.7019"}, {"name": "Guilford", "state": "MO", "lat": "40.1686", "lng": "-94.7361"}, {"name": "Carrollton", "state": "MO", "lat": "39.3636", "lng": "-93.4955"}, {"name": "Shoal Creek Drive", "state": "MO", "lat": "37.0371", "lng": "-94.5229"}, {"name": "Pattonsburg", "state": "MO", "lat": "40.0715", "lng": "-94.1060"}, {"name": "Callao", "state": "MO", "lat": "39.7623", "lng": "-92.6237"}, {"name": "Village of Four Seasons", "state": "MO", "lat": "38.1974", "lng": "-92.7178"}, {"name": "Cedar Hill", "state": "MO", "lat": "38.3575", "lng": "-90.6409"}, {"name": "Ladue", "state": "MO", "lat": "38.6378", "lng": "-90.3815"}, {"name": "Lebanon", "state": "MO", "lat": "37.6718", "lng": "-92.6603"}, {"name": "Pacific", "state": "MO", "lat": "38.4805", "lng": "-90.7541"}, {"name": "Glenwood", "state": "MO", "lat": "40.5243", "lng": "-92.5765"}, {"name": "Lake Viking", "state": "MO", "lat": "39.9253", "lng": "-94.0692"}, {"name": "Dudley", "state": "MO", "lat": "36.7897", "lng": "-90.0917"}, {"name": "Jennings", "state": "MO", "lat": "38.7230", "lng": "-90.2643"}, {"name": "Potosi", "state": "MO", "lat": "37.9337", "lng": "-90.7750"}, {"name": "Frohna", "state": "MO", "lat": "37.6375", "lng": "-89.6197"}, {"name": "Hopkins", "state": "MO", "lat": "40.5511", "lng": "-94.8169"}, {"name": "Biehle", "state": "MO", "lat": "37.6066", "lng": "-89.8377"}, {"name": "Pilot Knob", "state": "MO", "lat": "37.6237", "lng": "-90.6454"}, {"name": "Novinger", "state": "MO", "lat": "40.2341", "lng": "-92.7066"}, {"name": "Joplin", "state": "MO", "lat": "37.0759", "lng": "-94.5006"}, {"name": "Huntsdale", "state": "MO", "lat": "38.9120", "lng": "-92.4786"}, {"name": "Berger", "state": "MO", "lat": "38.6718", "lng": "-91.3392"}, {"name": "Elmer", "state": "MO", "lat": "39.9573", "lng": "-92.6499"}, {"name": "Essex", "state": "MO", "lat": "36.8118", "lng": "-89.8626"}, {"name": "Jasper", "state": "MO", "lat": "37.3354", "lng": "-94.3023"}, {"name": "Koshkonong", "state": "MO", "lat": "36.5974", "lng": "-91.6461"}, {"name": "Grand Pass", "state": "MO", "lat": "39.2050", "lng": "-93.4427"}, {"name": "Puxico", "state": "MO", "lat": "36.9507", "lng": "-90.1586"}, {"name": "La Monte", "state": "MO", "lat": "38.7722", "lng": "-93.4237"}, {"name": "West Sullivan", "state": "MO", "lat": "38.1922", "lng": "-91.1918"}, {"name": "Flordell Hills", "state": "MO", "lat": "38.7174", "lng": "-90.2650"}, {"name": "Morrison", "state": "MO", "lat": "38.6716", "lng": "-91.6334"}, {"name": "Ewing", "state": "MO", "lat": "40.0088", "lng": "-91.7147"}, {"name": "Woodson Terrace", "state": "MO", "lat": "38.7287", "lng": "-90.3600"}, {"name": "Sunset Hills", "state": "MO", "lat": "38.5310", "lng": "-90.4088"}, {"name": "Tipton", "state": "MO", "lat": "38.6549", "lng": "-92.7804"}, {"name": "Beverly Hills", "state": "MO", "lat": "38.6979", "lng": "-90.2900"}, {"name": "Benton", "state": "MO", "lat": "37.0990", "lng": "-89.5623"}, {"name": "Ludlow", "state": "MO", "lat": "39.6542", "lng": "-93.7026"}, {"name": "Bonne Terre", "state": "MO", "lat": "37.9209", "lng": "-90.5425"}, {"name": "Salem", "state": "MO", "lat": "37.6398", "lng": "-91.5346"}, {"name": "Ash Grove", "state": "MO", "lat": "37.3177", "lng": "-93.5811"}, {"name": "Stark City", "state": "MO", "lat": "36.8626", "lng": "-94.1864"}, {"name": "Purdy", "state": "MO", "lat": "36.8187", "lng": "-93.9206"}, {"name": "Wheaton", "state": "MO", "lat": "36.7616", "lng": "-94.0570"}, {"name": "Prathersville", "state": "MO", "lat": "39.3153", "lng": "-94.2738"}, {"name": "Twin Oaks", "state": "MO", "lat": "38.5657", "lng": "-90.5010"}, {"name": "New Bloomfield", "state": "MO", "lat": "38.7164", "lng": "-92.0916"}, {"name": "Maitland", "state": "MO", "lat": "40.2021", "lng": "-95.0780"}, {"name": "Truxton", "state": "MO", "lat": "39.0035", "lng": "-91.2403"}, {"name": "Nelson", "state": "MO", "lat": "38.9946", "lng": "-93.0308"}, {"name": "Oran", "state": "MO", "lat": "37.0855", "lng": "-89.6534"}, {"name": "Black Jack", "state": "MO", "lat": "38.7993", "lng": "-90.2640"}, {"name": "Moscow Mills", "state": "MO", "lat": "38.9400", "lng": "-90.9255"}, {"name": "Mayview", "state": "MO", "lat": "39.0530", "lng": "-93.8330"}, {"name": "Old Jamestown", "state": "MO", "lat": "38.8394", "lng": "-90.2847"}, {"name": "Cameron", "state": "MO", "lat": "39.7469", "lng": "-94.2364"}, {"name": "Lakeshire", "state": "MO", "lat": "38.5400", "lng": "-90.3384"}, {"name": "Bismarck", "state": "MO", "lat": "37.7673", "lng": "-90.6225"}, {"name": "Camdenton", "state": "MO", "lat": "38.0121", "lng": "-92.7500"}, {"name": "Clarkton", "state": "MO", "lat": "36.4521", "lng": "-89.9681"}, {"name": "Foster", "state": "MO", "lat": "38.1664", "lng": "-94.5079"}, {"name": "Waverly", "state": "MO", "lat": "39.2072", "lng": "-93.5186"}, {"name": "Syracuse", "state": "MO", "lat": "38.6696", "lng": "-92.8763"}, {"name": "Alma", "state": "MO", "lat": "39.0964", "lng": "-93.5478"}, {"name": "Morley", "state": "MO", "lat": "37.0433", "lng": "-89.6122"}, {"name": "Qulin", "state": "MO", "lat": "36.5977", "lng": "-90.2522"}, {"name": "McCord Bend", "state": "MO", "lat": "36.7875", "lng": "-93.5034"}, {"name": "Warrenton", "state": "MO", "lat": "38.8188", "lng": "-91.1367"}, {"name": "Belton", "state": "MO", "lat": "38.8193", "lng": "-94.5334"}, {"name": "Centerview", "state": "MO", "lat": "38.7456", "lng": "-93.8451"}, {"name": "Augusta", "state": "MO", "lat": "38.5684", "lng": "-90.8806"}, {"name": "Rayville", "state": "MO", "lat": "39.3464", "lng": "-94.0649"}, {"name": "Greenville", "state": "MO", "lat": "37.1284", "lng": "-90.4472"}, {"name": "Spanish Lake", "state": "MO", "lat": "38.7885", "lng": "-90.2078"}, {"name": "Spokane", "state": "MO", "lat": "36.8632", "lng": "-93.3057"}, {"name": "Murphy", "state": "MO", "lat": "38.4922", "lng": "-90.4856"}, {"name": "Marionville", "state": "MO", "lat": "37.0023", "lng": "-93.6360"}, {"name": "Oakville", "state": "MO", "lat": "38.4472", "lng": "-90.3199"}, {"name": "Stella", "state": "MO", "lat": "36.7624", "lng": "-94.1908"}, {"name": "Sedalia", "state": "MO", "lat": "38.7042", "lng": "-93.2351"}, {"name": "Goss", "state": "MO", "lat": "39.5147", "lng": "-91.9449"}, {"name": "Conception Junction", "state": "MO", "lat": "40.2684", "lng": "-94.6914"}, {"name": "Aullville", "state": "MO", "lat": "39.0175", "lng": "-93.6779"}, {"name": "Linn Creek", "state": "MO", "lat": "38.0457", "lng": "-92.7049"}, {"name": "O'Fallon", "state": "MO", "lat": "38.7851", "lng": "-90.7177"}, {"name": "King City", "state": "MO", "lat": "40.0505", "lng": "-94.5251"}, {"name": "Humphreys", "state": "MO", "lat": "40.1252", "lng": "-93.3196"}, {"name": "Pollock", "state": "MO", "lat": "40.3584", "lng": "-93.0835"}, {"name": "Wentworth", "state": "MO", "lat": "36.9932", "lng": "-94.0757"}, {"name": "Diamond", "state": "MO", "lat": "36.9969", "lng": "-94.3152"}, {"name": "St. Charles", "state": "MO", "lat": "38.7956", "lng": "-90.5156"}, {"name": "Rosendale", "state": "MO", "lat": "40.0408", "lng": "-94.8230"}, {"name": "Van Buren", "state": "MO", "lat": "37.0082", "lng": "-91.0113"}, {"name": "Des Peres", "state": "MO", "lat": "38.5973", "lng": "-90.4482"}, {"name": "Hume", "state": "MO", "lat": "38.0906", "lng": "-94.5827"}, {"name": "Alba", "state": "MO", "lat": "37.2371", "lng": "-94.4176"}, {"name": "Neck City", "state": "MO", "lat": "37.2549", "lng": "-94.4449"}, {"name": "Tarkio", "state": "MO", "lat": "40.4430", "lng": "-95.3835"}, {"name": "Pleasant Hope", "state": "MO", "lat": "37.4650", "lng": "-93.2743"}, {"name": "West Line", "state": "MO", "lat": "38.6359", "lng": "-94.5868"}, {"name": "Byrnes Mill", "state": "MO", "lat": "38.4396", "lng": "-90.5742"}, {"name": "Otterville", "state": "MO", "lat": "38.7029", "lng": "-93.0028"}, {"name": "South Gifford", "state": "MO", "lat": "40.0258", "lng": "-92.6831"}, {"name": "Norwood Court", "state": "MO", "lat": "38.7143", "lng": "-90.2896"}, {"name": "Highlandville", "state": "MO", "lat": "36.9409", "lng": "-93.2830"}, {"name": "Rosebud", "state": "MO", "lat": "38.3850", "lng": "-91.4024"}, {"name": "Grain Valley", "state": "MO", "lat": "39.0166", "lng": "-94.2086"}, {"name": "Wildwood", "state": "MO", "lat": "38.5799", "lng": "-90.6698"}, {"name": "Bennett Springs", "state": "MO", "lat": "37.7255", "lng": "-92.8534"}, {"name": "Barnard", "state": "MO", "lat": "40.1755", "lng": "-94.8232"}, {"name": "Argyle", "state": "MO", "lat": "38.2954", "lng": "-92.0256"}, {"name": "New Hampton", "state": "MO", "lat": "40.2652", "lng": "-94.1952"}, {"name": "Darlington", "state": "MO", "lat": "40.1981", "lng": "-94.3997"}, {"name": "Blairstown", "state": "MO", "lat": "38.5580", "lng": "-93.9578"}, {"name": "Gerald", "state": "MO", "lat": "38.3993", "lng": "-91.3305"}, {"name": "Josephville", "state": "MO", "lat": "38.8291", "lng": "-90.7873"}, {"name": "Rich Hill", "state": "MO", "lat": "38.0958", "lng": "-94.3633"}, {"name": "Rocheport", "state": "MO", "lat": "38.9785", "lng": "-92.5633"}, {"name": "St. Francisville", "state": "MO", "lat": "40.4497", "lng": "-91.5720"}, {"name": "Hunter", "state": "MO", "lat": "36.8867", "lng": "-90.8483"}, {"name": "St. Robert", "state": "MO", "lat": "37.8234", "lng": "-92.1514"}, {"name": "Bronaugh", "state": "MO", "lat": "37.6940", "lng": "-94.4681"}, {"name": "Mosby", "state": "MO", "lat": "39.3165", "lng": "-94.3094"}, {"name": "Flint Hill", "state": "MO", "lat": "38.8637", "lng": "-90.8685"}, {"name": "Braymer", "state": "MO", "lat": "39.5905", "lng": "-93.7961"}, {"name": "Niangua", "state": "MO", "lat": "37.3886", "lng": "-92.8304"}, {"name": "Fisk", "state": "MO", "lat": "36.7826", "lng": "-90.2077"}, {"name": "Mackenzie", "state": "MO", "lat": "38.5809", "lng": "-90.3164"}, {"name": "Edmundson", "state": "MO", "lat": "38.7351", "lng": "-90.3658"}, {"name": "La Russell", "state": "MO", "lat": "37.1402", "lng": "-94.0610"}, {"name": "Randolph", "state": "MO", "lat": "39.1560", "lng": "-94.4929"}, {"name": "Perry", "state": "MO", "lat": "39.4300", "lng": "-91.6665"}, {"name": "Chaffee", "state": "MO", "lat": "37.1812", "lng": "-89.6615"}, {"name": "Eagle Rock", "state": "MO", "lat": "36.5498", "lng": "-93.7416"}, {"name": "Warrensburg", "state": "MO", "lat": "38.7619", "lng": "-93.7277"}, {"name": "Bagnell", "state": "MO", "lat": "38.2294", "lng": "-92.6053"}, {"name": "Arkoe", "state": "MO", "lat": "40.2594", "lng": "-94.8279"}, {"name": "Cole Camp", "state": "MO", "lat": "38.4595", "lng": "-93.2025"}, {"name": "Matthews", "state": "MO", "lat": "36.7584", "lng": "-89.5688"}, {"name": "Pine Lawn", "state": "MO", "lat": "38.6953", "lng": "-90.2756"}, {"name": "Doniphan", "state": "MO", "lat": "36.6234", "lng": "-90.8219"}, {"name": "Weatherby", "state": "MO", "lat": "39.9093", "lng": "-94.2419"}, {"name": "Merwin", "state": "MO", "lat": "38.4040", "lng": "-94.5906"}, {"name": "Keytesville", "state": "MO", "lat": "39.4313", "lng": "-92.9371"}, {"name": "Bland", "state": "MO", "lat": "38.3004", "lng": "-91.6332"}, {"name": "Lucerne", "state": "MO", "lat": "40.4639", "lng": "-93.2912"}, {"name": "Kidder", "state": "MO", "lat": "39.7822", "lng": "-94.1023"}, {"name": "Piedmont", "state": "MO", "lat": "37.1490", "lng": "-90.6970"}, {"name": "Mount Leonard", "state": "MO", "lat": "39.1254", "lng": "-93.3945"}, {"name": "Silex", "state": "MO", "lat": "39.1252", "lng": "-91.0577"}, {"name": "Burlington Junction", "state": "MO", "lat": "40.4466", "lng": "-95.0667"}, {"name": "Willow Springs", "state": "MO", "lat": "36.9878", "lng": "-91.9620"}, {"name": "Rensselaer", "state": "MO", "lat": "39.6692", "lng": "-91.5387"}, {"name": "Mehlville", "state": "MO", "lat": "38.5018", "lng": "-90.3149"}, {"name": "Galt", "state": "MO", "lat": "40.1272", "lng": "-93.3880"}, {"name": "Mine La Motte", "state": "MO", "lat": "37.6145", "lng": "-90.2943"}, {"name": "Bigelow", "state": "MO", "lat": "40.1098", "lng": "-95.2894"}, {"name": "Eureka", "state": "MO", "lat": "38.5014", "lng": "-90.6491"}, {"name": "Cave", "state": "MO", "lat": "39.0214", "lng": "-91.0483"}, {"name": "Wooldridge", "state": "MO", "lat": "38.9066", "lng": "-92.5215"}, {"name": "Gunn City", "state": "MO", "lat": "38.6660", "lng": "-94.1641"}, {"name": "Jerico Springs", "state": "MO", "lat": "37.6194", "lng": "-94.0114"}, {"name": "St. Thomas", "state": "MO", "lat": "38.3670", "lng": "-92.2160"}, {"name": "Kimberling City", "state": "MO", "lat": "36.6441", "lng": "-93.4239"}, {"name": "Grandin", "state": "MO", "lat": "36.8308", "lng": "-90.8221"}, {"name": "El Dorado Springs", "state": "MO", "lat": "37.8694", "lng": "-94.0196"}, {"name": "Viburnum", "state": "MO", "lat": "37.7149", "lng": "-91.1295"}, {"name": "Eagleville", "state": "MO", "lat": "40.4684", "lng": "-93.9861"}, {"name": "University City", "state": "MO", "lat": "38.6657", "lng": "-90.3315"}, {"name": "Old Appleton", "state": "MO", "lat": "37.5938", "lng": "-89.7108"}, {"name": "Lake Winnebago", "state": "MO", "lat": "38.8234", "lng": "-94.3612"}, {"name": "South Gorin", "state": "MO", "lat": "40.3596", "lng": "-92.0246"}, {"name": "Huntleigh", "state": "MO", "lat": "38.6132", "lng": "-90.4090"}, {"name": "Saddlebrooke", "state": "MO", "lat": "36.8283", "lng": "-93.1969"}, {"name": "Louisburg", "state": "MO", "lat": "37.7564", "lng": "-93.1410"}, {"name": "Bull Creek", "state": "MO", "lat": "36.7152", "lng": "-93.2019"}, {"name": "Kirksville", "state": "MO", "lat": "40.1986", "lng": "-92.5753"}, {"name": "Rives", "state": "MO", "lat": "36.0945", "lng": "-90.0115"}, {"name": "Wheeling", "state": "MO", "lat": "39.7862", "lng": "-93.3860"}, {"name": "Webb City", "state": "MO", "lat": "37.1412", "lng": "-94.4676"}, {"name": "Marston", "state": "MO", "lat": "36.5177", "lng": "-89.6062"}, {"name": "Leslie", "state": "MO", "lat": "38.4179", "lng": "-91.2312"}, {"name": "Thayer", "state": "MO", "lat": "36.5223", "lng": "-91.5408"}, {"name": "Branson", "state": "MO", "lat": "36.6510", "lng": "-93.2634"}, {"name": "Carl Junction", "state": "MO", "lat": "37.1669", "lng": "-94.5468"}, {"name": "St. Clement", "state": "MO", "lat": "39.2829", "lng": "-91.2098"}, {"name": "Pleasant Valley", "state": "MO", "lat": "39.2172", "lng": "-94.4810"}, {"name": "Lake Tekakwitha", "state": "MO", "lat": "38.4418", "lng": "-90.7147"}, {"name": "Chain-O-Lakes", "state": "MO", "lat": "36.5341", "lng": "-93.7244"}, {"name": "Winigan", "state": "MO", "lat": "40.0468", "lng": "-92.9017"}, {"name": "Clearmont", "state": "MO", "lat": "40.5080", "lng": "-95.0326"}, {"name": "Malden", "state": "MO", "lat": "36.5850", "lng": "-89.9808"}, {"name": "Forsyth", "state": "MO", "lat": "36.6860", "lng": "-93.1016"}, {"name": "Bridgeton", "state": "MO", "lat": "38.7672", "lng": "-90.4277"}, {"name": "Steele", "state": "MO", "lat": "36.0904", "lng": "-89.8460"}, {"name": "High Hill", "state": "MO", "lat": "38.8754", "lng": "-91.3776"}, {"name": "Slater", "state": "MO", "lat": "39.2227", "lng": "-93.0649"}, {"name": "Grayridge", "state": "MO", "lat": "36.8247", "lng": "-89.7819"}, {"name": "Bertrand", "state": "MO", "lat": "36.9082", "lng": "-89.4500"}, {"name": "Tarrants", "state": "MO", "lat": "39.3577", "lng": "-91.1837"}, {"name": "Gilman City", "state": "MO", "lat": "40.1311", "lng": "-93.8739"}, {"name": "Naylor", "state": "MO", "lat": "36.5745", "lng": "-90.6056"}, {"name": "Bolivar", "state": "MO", "lat": "37.6057", "lng": "-93.4175"}, {"name": "Luray", "state": "MO", "lat": "40.4523", "lng": "-91.8841"}, {"name": "Kinloch", "state": "MO", "lat": "38.7384", "lng": "-90.3249"}, {"name": "Arcadia", "state": "MO", "lat": "37.5864", "lng": "-90.6293"}, {"name": "Ozark", "state": "MO", "lat": "37.0361", "lng": "-93.2154"}, {"name": "Deepwater", "state": "MO", "lat": "38.2592", "lng": "-93.7746"}, {"name": "Ozora", "state": "MO", "lat": "37.8667", "lng": "-90.0518"}, {"name": "Conception", "state": "MO", "lat": "40.2411", "lng": "-94.6805"}, {"name": "Wyatt", "state": "MO", "lat": "36.9364", "lng": "-89.1918"}, {"name": "Sycamore Hills", "state": "MO", "lat": "38.7013", "lng": "-90.3489"}, {"name": "Harviell", "state": "MO", "lat": "36.6618", "lng": "-90.4748"}, {"name": "High Ridge", "state": "MO", "lat": "38.4609", "lng": "-90.5340"}, {"name": "Greendale", "state": "MO", "lat": "38.6936", "lng": "-90.3127"}, {"name": "Pierpont", "state": "MO", "lat": "38.8633", "lng": "-92.3132"}, {"name": "Stover", "state": "MO", "lat": "38.4418", "lng": "-92.9901"}, {"name": "Albany", "state": "MO", "lat": "40.2479", "lng": "-94.3335"}, {"name": "Oak Grove Village", "state": "MO", "lat": "38.2279", "lng": "-91.1493"}, {"name": "Gravois Mills", "state": "MO", "lat": "38.3049", "lng": "-92.8244"}, {"name": "Calverton Park", "state": "MO", "lat": "38.7655", "lng": "-90.3105"}, {"name": "East Lynne", "state": "MO", "lat": "38.6681", "lng": "-94.2307"}, {"name": "Monticello", "state": "MO", "lat": "40.1190", "lng": "-91.7132"}, {"name": "Kingdom City", "state": "MO", "lat": "38.9473", "lng": "-91.9389"}, {"name": "Bellerive Acres", "state": "MO", "lat": "38.7124", "lng": "-90.3121"}, {"name": "Cliff Village", "state": "MO", "lat": "37.0251", "lng": "-94.5172"}, {"name": "Schell City", "state": "MO", "lat": "38.0192", "lng": "-94.1167"}, {"name": "Rushville", "state": "MO", "lat": "39.5875", "lng": "-95.0235"}, {"name": "Truesdale", "state": "MO", "lat": "38.8124", "lng": "-91.1220"}, {"name": "Strasburg", "state": "MO", "lat": "38.7598", "lng": "-94.1648"}, {"name": "McFall", "state": "MO", "lat": "40.1116", "lng": "-94.2223"}, {"name": "Sparta", "state": "MO", "lat": "37.0020", "lng": "-93.0846"}, {"name": "Norborne", "state": "MO", "lat": "39.3024", "lng": "-93.6759"}, {"name": "Humansville", "state": "MO", "lat": "37.7950", "lng": "-93.5765"}, {"name": "Lewis and Clark Village", "state": "MO", "lat": "39.5375", "lng": "-95.0506"}, {"name": "Rothville", "state": "MO", "lat": "39.6539", "lng": "-93.0636"}, {"name": "Fremont", "state": "MO", "lat": "36.9522", "lng": "-91.1623"}, {"name": "Emma", "state": "MO", "lat": "38.9751", "lng": "-93.4950"}, {"name": "Lathrop", "state": "MO", "lat": "39.5515", "lng": "-94.3286"}, {"name": "Jacksonville", "state": "MO", "lat": "39.5877", "lng": "-92.4729"}, {"name": "Granby", "state": "MO", "lat": "36.9179", "lng": "-94.2607"}, {"name": "Saginaw", "state": "MO", "lat": "37.0260", "lng": "-94.4724"}, {"name": "St. Louis", "state": "MO", "lat": "38.6358", "lng": "-90.2451"}, {"name": "Marble Hill", "state": "MO", "lat": "37.3032", "lng": "-89.9807"}, {"name": "Cross Timbers", "state": "MO", "lat": "38.0242", "lng": "-93.2294"}, {"name": "Festus", "state": "MO", "lat": "38.2198", "lng": "-90.4095"}, {"name": "Pasadena Park", "state": "MO", "lat": "38.7110", "lng": "-90.2974"}, {"name": "Pinhook", "state": "MO", "lat": "36.7381", "lng": "-89.2695"}, {"name": "Fremont Hills", "state": "MO", "lat": "37.0646", "lng": "-93.2530"}, {"name": "Senath", "state": "MO", "lat": "36.1340", "lng": "-90.1614"}, {"name": "Rock Hill", "state": "MO", "lat": "38.6090", "lng": "-90.3673"}, {"name": "Grant City", "state": "MO", "lat": "40.4858", "lng": "-94.4135"}, {"name": "Benton City", "state": "MO", "lat": "39.1346", "lng": "-91.7649"}, {"name": "Novelty", "state": "MO", "lat": "40.0124", "lng": "-92.2072"}, {"name": "Newark", "state": "MO", "lat": "39.9946", "lng": "-91.9734"}, {"name": "Brookfield", "state": "MO", "lat": "39.7853", "lng": "-93.0772"}, {"name": "Lamar Heights", "state": "MO", "lat": "37.4937", "lng": "-94.2955"}, {"name": "Foley", "state": "MO", "lat": "39.0458", "lng": "-90.7414"}, {"name": "Allendale", "state": "MO", "lat": "40.4853", "lng": "-94.2887"}, {"name": "Crystal Lake Park", "state": "MO", "lat": "38.6212", "lng": "-90.4319"}, {"name": "Ste. Genevieve", "state": "MO", "lat": "37.9747", "lng": "-90.0481"}, {"name": "St. Martins", "state": "MO", "lat": "38.5943", "lng": "-92.3312"}, {"name": "Osage Beach", "state": "MO", "lat": "38.1353", "lng": "-92.6479"}, {"name": "Rogersville", "state": "MO", "lat": "37.1141", "lng": "-93.0715"}, {"name": "Thomasville", "state": "MO", "lat": "36.7912", "lng": "-91.5342"}, {"name": "Pierce City", "state": "MO", "lat": "36.9465", "lng": "-94.0032"}, {"name": "Hallsville", "state": "MO", "lat": "39.1196", "lng": "-92.2268"}, {"name": "Clinton", "state": "MO", "lat": "38.3716", "lng": "-93.7679"}, {"name": "Greenfield", "state": "MO", "lat": "37.4162", "lng": "-93.8432"}, {"name": "Rolla", "state": "MO", "lat": "37.9458", "lng": "-91.7608"}, {"name": "Smithton", "state": "MO", "lat": "38.6812", "lng": "-93.0930"}, {"name": "Arbyrd", "state": "MO", "lat": "36.0535", "lng": "-90.2399"}, {"name": "Jameson", "state": "MO", "lat": "40.0059", "lng": "-93.9876"}, {"name": "Leisure Lake", "state": "MO", "lat": "40.1100", "lng": "-93.7236"}, {"name": "Zalma", "state": "MO", "lat": "37.1422", "lng": "-90.0825"}, {"name": "Vienna", "state": "MO", "lat": "38.1875", "lng": "-91.9501"}, {"name": "La Grange", "state": "MO", "lat": "40.0470", "lng": "-91.5023"}, {"name": "Parkville", "state": "MO", "lat": "39.2004", "lng": "-94.7222"}, {"name": "Tindall", "state": "MO", "lat": "40.1609", "lng": "-93.6096"}, {"name": "Linn", "state": "MO", "lat": "38.4788", "lng": "-91.8450"}, {"name": "Delta", "state": "MO", "lat": "37.1974", "lng": "-89.7392"}, {"name": "Fordland", "state": "MO", "lat": "37.1556", "lng": "-92.9416"}, {"name": "Lewistown", "state": "MO", "lat": "40.0848", "lng": "-91.8137"}, {"name": "Crane", "state": "MO", "lat": "36.9028", "lng": "-93.5716"}, {"name": "Owensville", "state": "MO", "lat": "38.3490", "lng": "-91.4974"}, {"name": "Charmwood", "state": "MO", "lat": "38.2811", "lng": "-91.0967"}, {"name": "Purcell", "state": "MO", "lat": "37.2433", "lng": "-94.4394"}, {"name": "Park Hills", "state": "MO", "lat": "37.8211", "lng": "-90.5050"}, {"name": "Armstrong", "state": "MO", "lat": "39.2692", "lng": "-92.7042"}, {"name": "Overland", "state": "MO", "lat": "38.6967", "lng": "-90.3689"}, {"name": "Tuscumbia", "state": "MO", "lat": "38.2370", "lng": "-92.4600"}, {"name": "Country Life Acres", "state": "MO", "lat": "38.6225", "lng": "-90.4551"}, {"name": "Graham", "state": "MO", "lat": "40.2013", "lng": "-95.0404"}, {"name": "Fairdealing", "state": "MO", "lat": "36.6615", "lng": "-90.6084"}, {"name": "Gainesville", "state": "MO", "lat": "36.6063", "lng": "-92.4244"}, {"name": "Redings Mill", "state": "MO", "lat": "37.0196", "lng": "-94.5170"}, {"name": "Northmoor", "state": "MO", "lat": "39.1845", "lng": "-94.6054"}, {"name": "Villa Ridge", "state": "MO", "lat": "38.4680", "lng": "-90.8850"}, {"name": "Hayward", "state": "MO", "lat": "36.3959", "lng": "-89.6669"}, {"name": "Emerald Beach", "state": "MO", "lat": "36.5754", "lng": "-93.6711"}, {"name": "North Kansas City", "state": "MO", "lat": "39.1396", "lng": "-94.5643"}, {"name": "Gower", "state": "MO", "lat": "39.6129", "lng": "-94.5947"}, {"name": "Miramiguoa Park", "state": "MO", "lat": "38.2389", "lng": "-91.0688"}, {"name": "Claycomo", "state": "MO", "lat": "39.1986", "lng": "-94.4788"}, {"name": "Downing", "state": "MO", "lat": "40.4873", "lng": "-92.3689"}, {"name": "Walker", "state": "MO", "lat": "37.8989", "lng": "-94.2306"}, {"name": "Buffalo", "state": "MO", "lat": "37.6444", "lng": "-93.0969"}, {"name": "Ferrelview", "state": "MO", "lat": "39.3143", "lng": "-94.6654"}, {"name": "Miner", "state": "MO", "lat": "36.8973", "lng": "-89.5353"}, {"name": "Gray Summit", "state": "MO", "lat": "38.4951", "lng": "-90.8173"}, {"name": "Westwood", "state": "MO", "lat": "38.6434", "lng": "-90.4333"}, {"name": "Mercer", "state": "MO", "lat": "40.5107", "lng": "-93.5298"}, {"name": "Valley Park", "state": "MO", "lat": "38.5513", "lng": "-90.4924"}, {"name": "Ironton", "state": "MO", "lat": "37.5984", "lng": "-90.6379"}, {"name": "Vinita Terrace", "state": "MO", "lat": "38.6856", "lng": "-90.3293"}, {"name": "Greentop", "state": "MO", "lat": "40.3508", "lng": "-92.5657"}, {"name": "Marthasville", "state": "MO", "lat": "38.6309", "lng": "-91.0572"}, {"name": "Lake Waukomis", "state": "MO", "lat": "39.2309", "lng": "-94.6386"}, {"name": "Climax Springs", "state": "MO", "lat": "38.1004", "lng": "-93.0528"}, {"name": "Cowgill", "state": "MO", "lat": "39.5603", "lng": "-93.9257"}, {"name": "Oak Grove", "state": "MO", "lat": "39.0073", "lng": "-94.1278"}, {"name": "Roscoe", "state": "MO", "lat": "37.9774", "lng": "-93.8138"}, {"name": "Bernie", "state": "MO", "lat": "36.6717", "lng": "-89.9707"}, {"name": "Edina", "state": "MO", "lat": "40.1680", "lng": "-92.1732"}, {"name": "Brownington", "state": "MO", "lat": "38.2453", "lng": "-93.7227"}, {"name": "Sarcoxie", "state": "MO", "lat": "37.0680", "lng": "-94.1229"}, {"name": "Winston", "state": "MO", "lat": "39.8699", "lng": "-94.1416"}, {"name": "Orrick", "state": "MO", "lat": "39.2133", "lng": "-94.1254"}, {"name": "Iatan", "state": "MO", "lat": "39.4773", "lng": "-94.9839"}, {"name": "Carthage", "state": "MO", "lat": "37.1503", "lng": "-94.3225"}, {"name": "Richmond", "state": "MO", "lat": "39.2755", "lng": "-93.9731"}, {"name": "Collins", "state": "MO", "lat": "37.8906", "lng": "-93.6215"}, {"name": "River Bend", "state": "MO", "lat": "39.1841", "lng": "-94.3941"}, {"name": "Kahoka", "state": "MO", "lat": "40.4236", "lng": "-91.7187"}, {"name": "Baring", "state": "MO", "lat": "40.2448", "lng": "-92.2057"}, {"name": "Avilla", "state": "MO", "lat": "37.1938", "lng": "-94.1298"}, {"name": "Lockwood", "state": "MO", "lat": "37.3867", "lng": "-93.9579"}, {"name": "Bakersfield", "state": "MO", "lat": "36.5238", "lng": "-92.1442"}, {"name": "Fulton", "state": "MO", "lat": "38.8551", "lng": "-91.9510"}, {"name": "Ashland", "state": "MO", "lat": "38.7929", "lng": "-92.2478"}, {"name": "Branson West", "state": "MO", "lat": "36.7030", "lng": "-93.3778"}, {"name": "De Soto", "state": "MO", "lat": "38.1410", "lng": "-90.5609"}, {"name": "Clark", "state": "MO", "lat": "39.2763", "lng": "-92.3475"}, {"name": "Maysville", "state": "MO", "lat": "39.8859", "lng": "-94.3634"}, {"name": "Reeds", "state": "MO", "lat": "37.1164", "lng": "-94.1683"}, {"name": "Old Monroe", "state": "MO", "lat": "38.9382", "lng": "-90.7469"}, {"name": "Knox City", "state": "MO", "lat": "40.1443", "lng": "-92.0102"}, {"name": "Butler", "state": "MO", "lat": "38.2598", "lng": "-94.3393"}, {"name": "Clever", "state": "MO", "lat": "37.0326", "lng": "-93.4740"}, {"name": "Morehouse", "state": "MO", "lat": "36.8463", "lng": "-89.6909"}, {"name": "Fayette", "state": "MO", "lat": "39.1470", "lng": "-92.6857"}, {"name": "Pocahontas", "state": "MO", "lat": "37.5014", "lng": "-89.6398"}, {"name": "Olivette", "state": "MO", "lat": "38.6725", "lng": "-90.3784"}, {"name": "Defiance", "state": "MO", "lat": "38.6327", "lng": "-90.7846"}, {"name": "Renick", "state": "MO", "lat": "39.3419", "lng": "-92.4109"}, {"name": "Crocker", "state": "MO", "lat": "37.9480", "lng": "-92.2676"}, {"name": "Macks Creek", "state": "MO", "lat": "37.9667", "lng": "-92.9665"}, {"name": "Fortescue", "state": "MO", "lat": "40.0519", "lng": "-95.3176"}, {"name": "Laddonia", "state": "MO", "lat": "39.2434", "lng": "-91.6424"}, {"name": "Ravenwood", "state": "MO", "lat": "40.3523", "lng": "-94.6721"}, {"name": "Wright City", "state": "MO", "lat": "38.8341", "lng": "-91.0399"}, {"name": "Mount Vernon", "state": "MO", "lat": "37.1050", "lng": "-93.8191"}, {"name": "Pomona", "state": "MO", "lat": "36.8671", "lng": "-91.9134"}, {"name": "Plato", "state": "MO", "lat": "37.5029", "lng": "-92.2200"}, {"name": "Billings", "state": "MO", "lat": "37.0626", "lng": "-93.5539"}, {"name": "Rutledge", "state": "MO", "lat": "40.3140", "lng": "-92.0876"}, {"name": "Marquand", "state": "MO", "lat": "37.4287", "lng": "-90.1670"}, {"name": "Laurie", "state": "MO", "lat": "38.2080", "lng": "-92.8253"}, {"name": "Holcomb", "state": "MO", "lat": "36.4022", "lng": "-90.0249"}, {"name": "Worthington", "state": "MO", "lat": "40.4091", "lng": "-92.6892"}, {"name": "Stewartsville", "state": "MO", "lat": "39.7551", "lng": "-94.4987"}, {"name": "Oakview", "state": "MO", "lat": "39.2086", "lng": "-94.5704"}, {"name": "Freeman", "state": "MO", "lat": "38.6215", "lng": "-94.5057"}, {"name": "Harrisburg", "state": "MO", "lat": "39.1396", "lng": "-92.4580"}, {"name": "North Lilbourn", "state": "MO", "lat": "36.6018", "lng": "-89.6221"}, {"name": "Loma Linda", "state": "MO", "lat": "36.9858", "lng": "-94.5922"}, {"name": "Hardin", "state": "MO", "lat": "39.2677", "lng": "-93.8314"}, {"name": "Sunrise Beach", "state": "MO", "lat": "38.1674", "lng": "-92.7794"}, {"name": "La Due", "state": "MO", "lat": "38.3125", "lng": "-93.8777"}, {"name": "Cainsville", "state": "MO", "lat": "40.4398", "lng": "-93.7747"}, {"name": "Riverview Estates", "state": "MO", "lat": "38.7489", "lng": "-94.5246"}, {"name": "Chesapeake", "state": "MO", "lat": "37.1161", "lng": "-93.6791"}, {"name": "Excelsior Springs", "state": "MO", "lat": "39.3390", "lng": "-94.2400"}, {"name": "Cape Girardeau", "state": "MO", "lat": "37.3108", "lng": "-89.5596"}, {"name": "Metz", "state": "MO", "lat": "37.9965", "lng": "-94.4430"}, {"name": "Trimble", "state": "MO", "lat": "39.4764", "lng": "-94.5614"}, {"name": "Meta", "state": "MO", "lat": "38.3121", "lng": "-92.1660"}, {"name": "South Greenfield", "state": "MO", "lat": "37.3752", "lng": "-93.8437"}, {"name": "Hayti Heights", "state": "MO", "lat": "36.2311", "lng": "-89.7682"}, {"name": "Clifton Hill", "state": "MO", "lat": "39.4387", "lng": "-92.6643"}, {"name": "Jamestown", "state": "MO", "lat": "38.7667", "lng": "-92.4802"}, {"name": "Rea", "state": "MO", "lat": "40.0616", "lng": "-94.7646"}, {"name": "Moundville", "state": "MO", "lat": "37.7646", "lng": "-94.4510"}, {"name": "Oxly", "state": "MO", "lat": "36.6025", "lng": "-90.6790"}, {"name": "Lanagan", "state": "MO", "lat": "36.6061", "lng": "-94.4517"}, {"name": "Vandalia", "state": "MO", "lat": "39.3080", "lng": "-91.4892"}, {"name": "Morrisville", "state": "MO", "lat": "37.4766", "lng": "-93.4293"}, {"name": "Florida", "state": "MO", "lat": "39.4929", "lng": "-91.7907"}, {"name": "Lake Annette", "state": "MO", "lat": "38.6544", "lng": "-94.5081"}, {"name": "Adrian", "state": "MO", "lat": "38.3960", "lng": "-94.3498"}, {"name": "Airport Drive", "state": "MO", "lat": "37.1406", "lng": "-94.5162"}, {"name": "Ionia", "state": "MO", "lat": "38.5037", "lng": "-93.3236"}, {"name": "Cool Valley", "state": "MO", "lat": "38.7251", "lng": "-90.3058"}, {"name": "Sikeston", "state": "MO", "lat": "36.8875", "lng": "-89.5870"}, {"name": "Eminence", "state": "MO", "lat": "37.1509", "lng": "-91.3587"}, {"name": "Lock Springs", "state": "MO", "lat": "39.8489", "lng": "-93.7763"}, {"name": "Hale", "state": "MO", "lat": "39.6051", "lng": "-93.3433"}, {"name": "Perryville", "state": "MO", "lat": "37.7263", "lng": "-89.8759"}, {"name": "Seymour", "state": "MO", "lat": "37.1485", "lng": "-92.7694"}, {"name": "Pagedale", "state": "MO", "lat": "38.6801", "lng": "-90.3082"}, {"name": "Ashburn", "state": "MO", "lat": "39.5458", "lng": "-91.1720"}, {"name": "Hartville", "state": "MO", "lat": "37.2502", "lng": "-92.5120"}, {"name": "Moberly", "state": "MO", "lat": "39.4190", "lng": "-92.4365"}, {"name": "Holland", "state": "MO", "lat": "36.0571", "lng": "-89.8705"}, {"name": "Harrisonville", "state": "MO", "lat": "38.6530", "lng": "-94.3467"}, {"name": "Purdin", "state": "MO", "lat": "39.9509", "lng": "-93.1664"}, {"name": "Tightwad", "state": "MO", "lat": "38.3096", "lng": "-93.5466"}, {"name": "Sundown", "state": "MO", "lat": "36.5660", "lng": "-92.6381"}, {"name": "Three Creeks", "state": "MO", "lat": "38.5758", "lng": "-90.9971"}, {"name": "Weingarten", "state": "MO", "lat": "37.8894", "lng": "-90.2172"}, {"name": "Agency", "state": "MO", "lat": "39.6698", "lng": "-94.7587"}, {"name": "Carterville", "state": "MO", "lat": "37.1466", "lng": "-94.4388"}, {"name": "Cosby", "state": "MO", "lat": "39.8638", "lng": "-94.6798"}, {"name": "Alton", "state": "MO", "lat": "36.6901", "lng": "-91.3947"}, {"name": "Pleasant Hill", "state": "MO", "lat": "38.8061", "lng": "-94.2654"}, {"name": "Sweet Springs", "state": "MO", "lat": "38.9649", "lng": "-93.4152"}, {"name": "Caruthersville", "state": "MO", "lat": "36.1814", "lng": "-89.6664"}, {"name": "Loch Lloyd", "state": "MO", "lat": "38.8310", "lng": "-94.5978"}, {"name": "Gordonville", "state": "MO", "lat": "37.3111", "lng": "-89.6738"}, {"name": "Golden City", "state": "MO", "lat": "37.3931", "lng": "-94.0943"}, {"name": "St. Peters", "state": "MO", "lat": "38.7825", "lng": "-90.6061"}, {"name": "Bourbon", "state": "MO", "lat": "38.1505", "lng": "-91.2494"}, {"name": "Pascola", "state": "MO", "lat": "36.2673", "lng": "-89.8258"}, {"name": "Marshfield", "state": "MO", "lat": "37.3414", "lng": "-92.9116"}, {"name": "Cuba", "state": "MO", "lat": "38.0671", "lng": "-91.4057"}, {"name": "Velda Village Hills", "state": "MO", "lat": "38.6922", "lng": "-90.2877"}, {"name": "Wardsville", "state": "MO", "lat": "38.4900", "lng": "-92.1791"}, {"name": "Champ", "state": "MO", "lat": "38.7448", "lng": "-90.4537"}, {"name": "Farley", "state": "MO", "lat": "39.2888", "lng": "-94.8284"}, {"name": "Richards", "state": "MO", "lat": "37.9105", "lng": "-94.5570"}, {"name": "Neelyville", "state": "MO", "lat": "36.5562", "lng": "-90.5139"}, {"name": "Castle Point", "state": "MO", "lat": "38.7568", "lng": "-90.2485"}, {"name": "Rock Port", "state": "MO", "lat": "40.4109", "lng": "-95.5332"}, {"name": "Arbela", "state": "MO", "lat": "40.4631", "lng": "-92.0156"}, {"name": "Glendale", "state": "MO", "lat": "38.5935", "lng": "-90.3826"}, {"name": "Lohman", "state": "MO", "lat": "38.5430", "lng": "-92.3646"}, {"name": "St. Cloud", "state": "MO", "lat": "38.1732", "lng": "-91.2127"}, {"name": "Green City", "state": "MO", "lat": "40.2639", "lng": "-92.9563"}, {"name": "Parnell", "state": "MO", "lat": "40.4384", "lng": "-94.6223"}, {"name": "Raymore", "state": "MO", "lat": "38.8029", "lng": "-94.4583"}, {"name": "Oronogo", "state": "MO", "lat": "37.1917", "lng": "-94.4639"}, {"name": "Innsbrook", "state": "MO", "lat": "38.7631", "lng": "-91.0552"}, {"name": "Taneyville", "state": "MO", "lat": "36.7377", "lng": "-93.0355"}, {"name": "Calhoun", "state": "MO", "lat": "38.4683", "lng": "-93.6251"}, {"name": "Ravanna", "state": "MO", "lat": "40.4560", "lng": "-93.4620"}, {"name": "Lilbourn", "state": "MO", "lat": "36.5908", "lng": "-89.6130"}, {"name": "Frankford", "state": "MO", "lat": "39.4934", "lng": "-91.3209"}, {"name": "Horine", "state": "MO", "lat": "38.2673", "lng": "-90.4320"}, {"name": "Moline Acres", "state": "MO", "lat": "38.7456", "lng": "-90.2430"}, {"name": "Brentwood", "state": "MO", "lat": "38.6194", "lng": "-90.3476"}, {"name": "Ellsinore", "state": "MO", "lat": "36.9327", "lng": "-90.7478"}, {"name": "Velda City", "state": "MO", "lat": "38.6941", "lng": "-90.2934"}, {"name": "Frankclay", "state": "MO", "lat": "37.8630", "lng": "-90.6144"}, {"name": "La Belle", "state": "MO", "lat": "40.1166", "lng": "-91.9146"}, {"name": "Big Lake", "state": "MO", "lat": "40.0735", "lng": "-95.3518"}, {"name": "Gentry", "state": "MO", "lat": "40.3326", "lng": "-94.4233"}, {"name": "Unity Village", "state": "MO", "lat": "38.9525", "lng": "-94.3996"}, {"name": "Williamsville", "state": "MO", "lat": "36.9737", "lng": "-90.5479"}, {"name": "Oakland", "state": "MO", "lat": "38.5769", "lng": "-90.3849"}, {"name": "Clyde", "state": "MO", "lat": "40.2662", "lng": "-94.6696"}, {"name": "Eolia", "state": "MO", "lat": "39.2389", "lng": "-91.0121"}, {"name": "Frontenac", "state": "MO", "lat": "38.6300", "lng": "-90.4189"}, {"name": "Canalou", "state": "MO", "lat": "36.7540", "lng": "-89.6865"}, {"name": "Harwood", "state": "MO", "lat": "37.9567", "lng": "-94.1539"}, {"name": "Louisiana", "state": "MO", "lat": "39.4413", "lng": "-91.0626"}, {"name": "Huntsville", "state": "MO", "lat": "39.4364", "lng": "-92.5440"}, {"name": "St. Clair", "state": "MO", "lat": "38.3479", "lng": "-90.9934"}, {"name": "Charlack", "state": "MO", "lat": "38.7029", "lng": "-90.3426"}, {"name": "Mineral Point", "state": "MO", "lat": "37.9455", "lng": "-90.7247"}, {"name": "Atlanta", "state": "MO", "lat": "39.8987", "lng": "-92.4801"}, {"name": "Laclede", "state": "MO", "lat": "39.7879", "lng": "-93.1697"}, {"name": "Napoleon", "state": "MO", "lat": "39.1293", "lng": "-94.0857"}, {"name": "Bowling Green", "state": "MO", "lat": "39.3447", "lng": "-91.2031"}, {"name": "Garden City", "state": "MO", "lat": "38.5629", "lng": "-94.1959"}, {"name": "Archie", "state": "MO", "lat": "38.4826", "lng": "-94.3502"}, {"name": "Foristell", "state": "MO", "lat": "38.8158", "lng": "-90.9622"}, {"name": "Lakeside", "state": "MO", "lat": "38.2041", "lng": "-92.6223"}, {"name": "Ava", "state": "MO", "lat": "36.9546", "lng": "-92.6661"}, {"name": "Diggins", "state": "MO", "lat": "37.1740", "lng": "-92.8503"}, {"name": "Vanduser", "state": "MO", "lat": "36.9909", "lng": "-89.6865"}, {"name": "Excello", "state": "MO", "lat": "39.6335", "lng": "-92.4743"}, {"name": "Affton", "state": "MO", "lat": "38.5499", "lng": "-90.3263"}, {"name": "Pontiac", "state": "MO", "lat": "36.5165", "lng": "-92.6037"}, {"name": "Utica", "state": "MO", "lat": "39.7456", "lng": "-93.6286"}, {"name": "Gibbs", "state": "MO", "lat": "40.0990", "lng": "-92.4166"}, {"name": "Columbia", "state": "MO", "lat": "38.9477", "lng": "-92.3255"}, {"name": "Ferguson", "state": "MO", "lat": "38.7490", "lng": "-90.2949"}, {"name": "Urich", "state": "MO", "lat": "38.4605", "lng": "-93.9991"}, {"name": "Lupus", "state": "MO", "lat": "38.8460", "lng": "-92.4540"}, {"name": "Ashley", "state": "MO", "lat": "39.2537", "lng": "-91.2239"}, {"name": "Center", "state": "MO", "lat": "39.5096", "lng": "-91.5291"}, {"name": "Ridgeway", "state": "MO", "lat": "40.3781", "lng": "-93.9379"}, {"name": "Hamilton", "state": "MO", "lat": "39.7426", "lng": "-94.0020"}, {"name": "Savannah", "state": "MO", "lat": "39.9390", "lng": "-94.8279"}, {"name": "Cedar Hill Lakes", "state": "MO", "lat": "38.3299", "lng": "-90.6582"}, {"name": "Bloomfield", "state": "MO", "lat": "36.8878", "lng": "-89.9309"}, {"name": "Paynesville", "state": "MO", "lat": "39.2626", "lng": "-90.9004"}, {"name": "Grandview", "state": "MO", "lat": "38.8802", "lng": "-94.5227"}, {"name": "St. Joseph", "state": "MO", "lat": "39.7598", "lng": "-94.8210"}, {"name": "Higbee", "state": "MO", "lat": "39.3059", "lng": "-92.5128"}, {"name": "Winchester", "state": "MO", "lat": "38.5897", "lng": "-90.5261"}, {"name": "Buckner", "state": "MO", "lat": "39.1336", "lng": "-94.1929"}, {"name": "Leawood", "state": "MO", "lat": "37.0334", "lng": "-94.4947"}, {"name": "Riverside", "state": "MO", "lat": "39.1703", "lng": "-94.6305"}, {"name": "Chilhowee", "state": "MO", "lat": "38.5889", "lng": "-93.8557"}, {"name": "Versailles", "state": "MO", "lat": "38.4333", "lng": "-92.8453"}, {"name": "Lincoln", "state": "MO", "lat": "38.3940", "lng": "-93.3313"}, {"name": "Iberia", "state": "MO", "lat": "38.0886", "lng": "-92.2962"}, {"name": "Miami", "state": "MO", "lat": "39.3224", "lng": "-93.2258"}, {"name": "Lawson", "state": "MO", "lat": "39.4360", "lng": "-94.2152"}, {"name": "Rush Hill", "state": "MO", "lat": "39.2104", "lng": "-91.7246"}, {"name": "Gilliam", "state": "MO", "lat": "39.2327", "lng": "-93.0041"}, {"name": "Amoret", "state": "MO", "lat": "38.2549", "lng": "-94.5873"}, {"name": "Knob Noster", "state": "MO", "lat": "38.7675", "lng": "-93.5616"}, {"name": "St. Mary", "state": "MO", "lat": "37.8737", "lng": "-89.9497"}, {"name": "Cleveland", "state": "MO", "lat": "38.6788", "lng": "-94.5980"}, {"name": "Sappington", "state": "MO", "lat": "38.5260", "lng": "-90.3730"}, {"name": "Pasadena Hills", "state": "MO", "lat": "38.7083", "lng": "-90.2922"}, {"name": "Southwest City", "state": "MO", "lat": "36.5205", "lng": "-94.6103"}, {"name": "Kingsville", "state": "MO", "lat": "38.7437", "lng": "-94.0697"}, {"name": "Newburg", "state": "MO", "lat": "37.9160", "lng": "-91.9004"}, {"name": "Steelville", "state": "MO", "lat": "37.9696", "lng": "-91.3546"}, {"name": "Mill Spring", "state": "MO", "lat": "37.0650", "lng": "-90.6778"}, {"name": "Kirkwood", "state": "MO", "lat": "38.5789", "lng": "-90.4203"}, {"name": "Conway", "state": "MO", "lat": "37.5057", "lng": "-92.8312"}, {"name": "Washington", "state": "MO", "lat": "38.5514", "lng": "-91.0151"}, {"name": "Chula", "state": "MO", "lat": "39.9219", "lng": "-93.4774"}, {"name": "Camden", "state": "MO", "lat": "39.2001", "lng": "-94.0195"}, {"name": "New Madrid", "state": "MO", "lat": "36.5879", "lng": "-89.5505"}, {"name": "Howardville", "state": "MO", "lat": "36.5684", "lng": "-89.5972"}, {"name": "Blue Springs", "state": "MO", "lat": "39.0123", "lng": "-94.2722"}, {"name": "Waco", "state": "MO", "lat": "37.2470", "lng": "-94.6003"}, {"name": "Bragg City", "state": "MO", "lat": "36.2681", "lng": "-89.9113"}, {"name": "Imperial", "state": "MO", "lat": "38.3672", "lng": "-90.3706"}, {"name": "Carytown", "state": "MO", "lat": "37.2616", "lng": "-94.3344"}, {"name": "Laredo", "state": "MO", "lat": "40.0261", "lng": "-93.4480"}, {"name": "Barnett", "state": "MO", "lat": "38.3773", "lng": "-92.6744"}, {"name": "Tina", "state": "MO", "lat": "39.5379", "lng": "-93.4413"}, {"name": "De Kalb", "state": "MO", "lat": "39.5883", "lng": "-94.9236"}, {"name": "Amity", "state": "MO", "lat": "39.8683", "lng": "-94.4354"}, {"name": "Newtown", "state": "MO", "lat": "40.3762", "lng": "-93.3335"}, {"name": "Memphis", "state": "MO", "lat": "40.4613", "lng": "-92.1704"}, {"name": "Glenaire", "state": "MO", "lat": "39.2198", "lng": "-94.4515"}, {"name": "Neosho", "state": "MO", "lat": "36.8440", "lng": "-94.3755"}, {"name": "Fenton", "state": "MO", "lat": "38.5279", "lng": "-90.4489"}, {"name": "Baker", "state": "MO", "lat": "36.7735", "lng": "-89.7617"}, {"name": "Gasconade", "state": "MO", "lat": "38.6703", "lng": "-91.5600"}, {"name": "Kingston", "state": "MO", "lat": "39.6425", "lng": "-94.0384"}, {"name": "Waynesville", "state": "MO", "lat": "37.8207", "lng": "-92.2200"}, {"name": "Weston", "state": "MO", "lat": "39.4030", "lng": "-94.8860"}, {"name": "Palmyra", "state": "MO", "lat": "39.7985", "lng": "-91.5272"}, {"name": "Town and Country", "state": "MO", "lat": "38.6317", "lng": "-90.4789"}, {"name": "Appleton City", "state": "MO", "lat": "38.1906", "lng": "-94.0310"}, {"name": "Arcola", "state": "MO", "lat": "37.5493", "lng": "-93.8760"}, {"name": "Brimson", "state": "MO", "lat": "40.1449", "lng": "-93.7383"}, {"name": "Birch Tree", "state": "MO", "lat": "36.9967", "lng": "-91.4916"}, {"name": "Manchester", "state": "MO", "lat": "38.5830", "lng": "-90.5065"}, {"name": "Montrose", "state": "MO", "lat": "38.2587", "lng": "-93.9827"}, {"name": "Mooresville", "state": "MO", "lat": "39.7468", "lng": "-93.7210"}, {"name": "Powersville", "state": "MO", "lat": "40.5496", "lng": "-93.3003"}, {"name": "De Witt", "state": "MO", "lat": "39.3850", "lng": "-93.2200"}]