[{"name": "Crystal Springs", "state": "MS", "lat": "31.9903", "lng": "-90.3540"}, {"name": "Sturgis", "state": "MS", "lat": "33.3451", "lng": "-89.0458"}, {"name": "Liberty", "state": "MS", "lat": "31.1611", "lng": "-90.8006"}, {"name": "Drew", "state": "MS", "lat": "33.8101", "lng": "-90.5304"}, {"name": "Biloxi", "state": "MS", "lat": "30.4422", "lng": "-88.9512"}, {"name": "Okolona", "state": "MS", "lat": "34.0053", "lng": "-88.7479"}, {"name": "Big Point", "state": "MS", "lat": "30.5905", "lng": "-88.4846"}, {"name": "Golden", "state": "MS", "lat": "34.4866", "lng": "-88.1863"}, {"name": "Alligator", "state": "MS", "lat": "34.0900", "lng": "-90.7206"}, {"name": "Escatawpa", "state": "MS", "lat": "30.4912", "lng": "-88.5495"}, {"name": "Flora", "state": "MS", "lat": "32.5434", "lng": "-90.3142"}, {"name": "Magee", "state": "MS", "lat": "31.8730", "lng": "-89.7340"}, {"name": "Grenada", "state": "MS", "lat": "33.7816", "lng": "-89.8130"}, {"name": "Tremont", "state": "MS", "lat": "34.2327", "lng": "-88.2507"}, {"name": "Silver City", "state": "MS", "lat": "33.0952", "lng": "-90.4967"}, {"name": "Louisville", "state": "MS", "lat": "33.1224", "lng": "-89.0553"}, {"name": "Hillsboro", "state": "MS", "lat": "32.4491", "lng": "-89.4889"}, {"name": "Columbus AFB", "state": "MS", "lat": "33.6276", "lng": "-88.4454"}, {"name": "North Carrollton", "state": "MS", "lat": "33.5186", "lng": "-89.9193"}, {"name": "Charleston", "state": "MS", "lat": "34.0075", "lng": "-90.0552"}, {"name": "New Augusta", "state": "MS", "lat": "31.2036", "lng": "-89.0272"}, {"name": "Pachuta", "state": "MS", "lat": "32.0441", "lng": "-88.8844"}, {"name": "Helena", "state": "MS", "lat": "30.4881", "lng": "-88.5056"}, {"name": "Maben", "state": "MS", "lat": "33.5544", "lng": "-89.0805"}, {"name": "McLain", "state": "MS", "lat": "31.1037", "lng": "-88.8239"}, {"name": "Lambert", "state": "MS", "lat": "34.2006", "lng": "-90.2845"}, {"name": "Hernando", "state": "MS", "lat": "34.8500", "lng": "-89.9921"}, {"name": "Coffeeville", "state": "MS", "lat": "33.9765", "lng": "-89.6845"}, {"name": "Sylvarena", "state": "MS", "lat": "32.0144", "lng": "-89.3818"}, {"name": "Richton", "state": "MS", "lat": "31.3495", "lng": "-88.9407"}, {"name": "Isola", "state": "MS", "lat": "33.2634", "lng": "-90.5923"}, {"name": "Jonestown", "state": "MS", "lat": "34.3222", "lng": "-90.4542"}, {"name": "Gulfport", "state": "MS", "lat": "30.4271", "lng": "-89.0703"}, {"name": "Cloverdale", "state": "MS", "lat": "31.4960", "lng": "-91.4152"}, {"name": "Iuka", "state": "MS", "lat": "34.8077", "lng": "-88.1978"}, {"name": "Pearl River", "state": "MS", "lat": "32.7889", "lng": "-89.2384"}, {"name": "Seminary", "state": "MS", "lat": "31.5581", "lng": "-89.4987"}, {"name": "Lula", "state": "MS", "lat": "34.4545", "lng": "-90.4779"}, {"name": "Brandon", "state": "MS", "lat": "32.2778", "lng": "-89.9896"}, {"name": "Bruce", "state": "MS", "lat": "33.9909", "lng": "-89.3454"}, {"name": "Enterprise", "state": "MS", "lat": "32.1731", "lng": "-88.8163"}, {"name": "Ruleville", "state": "MS", "lat": "33.7246", "lng": "-90.5500"}, {"name": "Louise", "state": "MS", "lat": "32.9814", "lng": "-90.5904"}, {"name": "Cruger", "state": "MS", "lat": "33.3230", "lng": "-90.2355"}, {"name": "Pickens", "state": "MS", "lat": "32.8913", "lng": "-89.9696"}, {"name": "Anguilla", "state": "MS", "lat": "32.9719", "lng": "-90.8284"}, {"name": "Polkville", "state": "MS", "lat": "32.1909", "lng": "-89.6960"}, {"name": "Sandersville", "state": "MS", "lat": "31.7879", "lng": "-89.0362"}, {"name": "Lexington", "state": "MS", "lat": "33.1163", "lng": "-90.0498"}, {"name": "Bassfield", "state": "MS", "lat": "31.4961", "lng": "-89.7450"}, {"name": "French Camp", "state": "MS", "lat": "33.2931", "lng": "-89.3993"}, {"name": "Snow Lake Shores", "state": "MS", "lat": "34.8239", "lng": "-89.2385"}, {"name": "Hattiesburg", "state": "MS", "lat": "31.3074", "lng": "-89.3170"}, {"name": "Burnsville", "state": "MS", "lat": "34.8348", "lng": "-88.3178"}, {"name": "Ackerman", "state": "MS", "lat": "33.3110", "lng": "-89.1711"}, {"name": "Standing Pine", "state": "MS", "lat": "32.6749", "lng": "-89.4529"}, {"name": "Caledonia", "state": "MS", "lat": "33.6836", "lng": "-88.3260"}, {"name": "Courtland", "state": "MS", "lat": "34.2409", "lng": "-89.9433"}, {"name": "Ethel", "state": "MS", "lat": "33.1220", "lng": "-89.4650"}, {"name": "Gulf Park Estates", "state": "MS", "lat": "30.3801", "lng": "-88.7581"}, {"name": "Tishomingo", "state": "MS", "lat": "34.6340", "lng": "-88.2287"}, {"name": "Union", "state": "MS", "lat": "32.5711", "lng": "-89.1152"}, {"name": "Hamilton", "state": "MS", "lat": "33.7460", "lng": "-88.4095"}, {"name": "Lauderdale", "state": "MS", "lat": "32.5104", "lng": "-88.5264"}, {"name": "Coldwater", "state": "MS", "lat": "34.6902", "lng": "-89.9757"}, {"name": "Moorhead", "state": "MS", "lat": "33.4494", "lng": "-90.5063"}, {"name": "West Hattiesburg", "state": "MS", "lat": "31.3114", "lng": "-89.3740"}, {"name": "Elliott", "state": "MS", "lat": "33.6913", "lng": "-89.7525"}, {"name": "Brooksville", "state": "MS", "lat": "33.2367", "lng": "-88.5781"}, {"name": "D'Iberville", "state": "MS", "lat": "30.4709", "lng": "-88.9011"}, {"name": "Newton", "state": "MS", "lat": "32.3296", "lng": "-89.1534"}, {"name": "Mooreville", "state": "MS", "lat": "34.2649", "lng": "-88.5768"}, {"name": "Mathiston", "state": "MS", "lat": "33.5390", "lng": "-89.1278"}, {"name": "Sunflower", "state": "MS", "lat": "33.5444", "lng": "-90.5373"}, {"name": "Nellieburg", "state": "MS", "lat": "32.3973", "lng": "-88.7830"}, {"name": "Winstonville", "state": "MS", "lat": "33.9123", "lng": "-90.7529"}, {"name": "Webb", "state": "MS", "lat": "33.9478", "lng": "-90.3464"}, {"name": "Kilmichael", "state": "MS", "lat": "33.4404", "lng": "-89.5673"}, {"name": "Sumrall", "state": "MS", "lat": "31.4172", "lng": "-89.5424"}, {"name": "Indianola", "state": "MS", "lat": "33.4492", "lng": "-90.6447"}, {"name": "Verona", "state": "MS", "lat": "34.1907", "lng": "-88.7203"}, {"name": "Columbus", "state": "MS", "lat": "33.5088", "lng": "-88.4097"}, {"name": "Winona", "state": "MS", "lat": "33.4899", "lng": "-89.7280"}, {"name": "Decatur", "state": "MS", "lat": "32.4339", "lng": "-89.1092"}, {"name": "Rosedale", "state": "MS", "lat": "33.8526", "lng": "-91.0340"}, {"name": "Farrell", "state": "MS", "lat": "34.2617", "lng": "-90.6750"}, {"name": "Jumpertown", "state": "MS", "lat": "34.7080", "lng": "-88.6620"}, {"name": "Hurley", "state": "MS", "lat": "30.6638", "lng": "-88.4994"}, {"name": "Mississippi Valley State University", "state": "MS", "lat": "33.5173", "lng": "-90.3444"}, {"name": "Osyka", "state": "MS", "lat": "31.0072", "lng": "-90.4719"}, {"name": "Dumas", "state": "MS", "lat": "34.6380", "lng": "-88.8431"}, {"name": "Marks", "state": "MS", "lat": "34.2535", "lng": "-90.2722"}, {"name": "Walnut Grove", "state": "MS", "lat": "32.5932", "lng": "-89.4578"}, {"name": "Puckett", "state": "MS", "lat": "32.0858", "lng": "-89.7819"}, {"name": "Arnold Line", "state": "MS", "lat": "31.3372", "lng": "-89.3772"}, {"name": "Waynesboro", "state": "MS", "lat": "31.6773", "lng": "-88.6353"}, {"name": "Beauregard", "state": "MS", "lat": "31.7210", "lng": "-90.3859"}, {"name": "Prentiss", "state": "MS", "lat": "31.5995", "lng": "-89.8746"}, {"name": "Morgantown", "state": "MS", "lat": "31.5751", "lng": "-91.3521"}, {"name": "New Albany", "state": "MS", "lat": "34.4909", "lng": "-89.0201"}, {"name": "Vicksburg", "state": "MS", "lat": "32.3173", "lng": "-90.8868"}, {"name": "Senatobia", "state": "MS", "lat": "34.6081", "lng": "-89.9762"}, {"name": "Mendenhall", "state": "MS", "lat": "31.9609", "lng": "-89.8694"}, {"name": "McCool", "state": "MS", "lat": "33.1995", "lng": "-89.3418"}, {"name": "Abbeville", "state": "MS", "lat": "34.5034", "lng": "-89.5025"}, {"name": "Fulton", "state": "MS", "lat": "34.2616", "lng": "-88.4021"}, {"name": "Jackson", "state": "MS", "lat": "32.3163", "lng": "-90.2124"}, {"name": "Stonewall", "state": "MS", "lat": "32.1364", "lng": "-88.7958"}, {"name": "Clarksdale", "state": "MS", "lat": "34.1971", "lng": "-90.5729"}, {"name": "Richland", "state": "MS", "lat": "32.2309", "lng": "-90.1592"}, {"name": "Gattman", "state": "MS", "lat": "33.8849", "lng": "-88.2367"}, {"name": "Holcomb", "state": "MS", "lat": "33.7643", "lng": "-89.9732"}, {"name": "Diamondhead", "state": "MS", "lat": "30.3791", "lng": "-89.3707"}, {"name": "Leakesville", "state": "MS", "lat": "31.1545", "lng": "-88.5580"}, {"name": "Sumner", "state": "MS", "lat": "33.9693", "lng": "-90.3693"}, {"name": "Beaumont", "state": "MS", "lat": "31.1707", "lng": "-88.9252"}, {"name": "Clinton", "state": "MS", "lat": "32.3540", "lng": "-90.3403"}, {"name": "Meadville", "state": "MS", "lat": "31.4721", "lng": "-90.8929"}, {"name": "Lucedale", "state": "MS", "lat": "30.9312", "lng": "-88.5959"}, {"name": "Meridian", "state": "MS", "lat": "32.3846", "lng": "-88.6897"}, {"name": "Tucker", "state": "MS", "lat": "32.7081", "lng": "-89.0499"}, {"name": "Hickory", "state": "MS", "lat": "32.3167", "lng": "-89.0217"}, {"name": "Gautier", "state": "MS", "lat": "30.4106", "lng": "-88.6568"}, {"name": "Sidon", "state": "MS", "lat": "33.4079", "lng": "-90.2081"}, {"name": "Ridgeland", "state": "MS", "lat": "32.4236", "lng": "-90.1481"}, {"name": "D'Lo", "state": "MS", "lat": "31.9869", "lng": "-89.9011"}, {"name": "Myrtle", "state": "MS", "lat": "34.5605", "lng": "-89.1179"}, {"name": "Gunnison", "state": "MS", "lat": "33.9437", "lng": "-90.9468"}, {"name": "Cary", "state": "MS", "lat": "32.8056", "lng": "-90.9245"}, {"name": "Friars Point", "state": "MS", "lat": "34.3680", "lng": "-90.6378"}, {"name": "Macon", "state": "MS", "lat": "33.1217", "lng": "-88.5564"}, {"name": "Sebastopol", "state": "MS", "lat": "32.5679", "lng": "-89.3340"}, {"name": "Greenwood", "state": "MS", "lat": "33.5126", "lng": "-90.1993"}, {"name": "Calhoun City", "state": "MS", "lat": "33.8588", "lng": "-89.3145"}, {"name": "Toomsuba", "state": "MS", "lat": "32.4267", "lng": "-88.5100"}, {"name": "Meridian Station", "state": "MS", "lat": "32.5485", "lng": "-88.6092"}, {"name": "Itta Bena", "state": "MS", "lat": "33.5003", "lng": "-90.3256"}, {"name": "Satartia", "state": "MS", "lat": "32.6720", "lng": "-90.5445"}, {"name": "Ellisville", "state": "MS", "lat": "31.5969", "lng": "-89.2091"}, {"name": "Canton", "state": "MS", "lat": "32.5976", "lng": "-90.0315"}, {"name": "Goodman", "state": "MS", "lat": "32.9677", "lng": "-89.9128"}, {"name": "Roxie", "state": "MS", "lat": "31.5046", "lng": "-91.0674"}, {"name": "Sledge", "state": "MS", "lat": "34.4327", "lng": "-90.2213"}, {"name": "Sherman", "state": "MS", "lat": "34.3611", "lng": "-88.8388"}, {"name": "Saucier", "state": "MS", "lat": "30.6239", "lng": "-89.1432"}, {"name": "Byram", "state": "MS", "lat": "32.1890", "lng": "-90.2861"}, {"name": "Madison", "state": "MS", "lat": "32.4738", "lng": "-90.1300"}, {"name": "Guntown", "state": "MS", "lat": "34.4446", "lng": "-88.6641"}, {"name": "Lumberton", "state": "MS", "lat": "31.0064", "lng": "-89.4592"}, {"name": "Boyle", "state": "MS", "lat": "33.7065", "lng": "-90.7249"}, {"name": "Hickory Flat", "state": "MS", "lat": "34.6159", "lng": "-89.1914"}, {"name": "Pittsboro", "state": "MS", "lat": "33.9400", "lng": "-89.3373"}, {"name": "Amory", "state": "MS", "lat": "33.9813", "lng": "-88.4823"}, {"name": "Marietta", "state": "MS", "lat": "34.5000", "lng": "-88.4726"}, {"name": "Pearlington", "state": "MS", "lat": "30.2492", "lng": "-89.6047"}, {"name": "Plantersville", "state": "MS", "lat": "34.2103", "lng": "-88.6654"}, {"name": "Como", "state": "MS", "lat": "34.5134", "lng": "-89.9391"}, {"name": "Noxapater", "state": "MS", "lat": "32.9936", "lng": "-89.0636"}, {"name": "Lyman", "state": "MS", "lat": "30.5044", "lng": "-89.1348"}, {"name": "West", "state": "MS", "lat": "33.1977", "lng": "-89.7821"}, {"name": "Crawford", "state": "MS", "lat": "33.3023", "lng": "-88.6253"}, {"name": "Benoit", "state": "MS", "lat": "33.6517", "lng": "-91.0087"}, {"name": "New Hamilton", "state": "MS", "lat": "33.7435", "lng": "-88.4389"}, {"name": "Smithville", "state": "MS", "lat": "34.0680", "lng": "-88.3983"}, {"name": "Flowood", "state": "MS", "lat": "32.3359", "lng": "-90.0802"}, {"name": "McComb", "state": "MS", "lat": "31.2449", "lng": "-90.4714"}, {"name": "Woodland", "state": "MS", "lat": "33.7797", "lng": "-89.0508"}, {"name": "Paden", "state": "MS", "lat": "34.6603", "lng": "-88.2605"}, {"name": "Kiln", "state": "MS", "lat": "30.4171", "lng": "-89.4322"}, {"name": "North Tunica", "state": "MS", "lat": "34.7032", "lng": "-90.3796"}, {"name": "Carrollton", "state": "MS", "lat": "33.5061", "lng": "-89.9218"}, {"name": "Rolling Fork", "state": "MS", "lat": "32.9073", "lng": "-90.8769"}, {"name": "Artesia", "state": "MS", "lat": "33.4163", "lng": "-88.6424"}, {"name": "Beechwood", "state": "MS", "lat": "32.3303", "lng": "-90.8190"}, {"name": "New Houlka", "state": "MS", "lat": "34.0363", "lng": "-89.0211"}, {"name": "Wiggins", "state": "MS", "lat": "30.8557", "lng": "-89.1385"}, {"name": "Starkville", "state": "MS", "lat": "33.4608", "lng": "-88.8297"}, {"name": "Falkner", "state": "MS", "lat": "34.8381", "lng": "-88.9424"}, {"name": "Philadelphia", "state": "MS", "lat": "32.7761", "lng": "-89.1221"}, {"name": "Bude", "state": "MS", "lat": "31.4630", "lng": "-90.8509"}, {"name": "Tylertown", "state": "MS", "lat": "31.1173", "lng": "-90.1444"}, {"name": "Rawls Springs", "state": "MS", "lat": "31.3797", "lng": "-89.3878"}, {"name": "Taylor", "state": "MS", "lat": "34.2691", "lng": "-89.5833"}, {"name": "Collinsville", "state": "MS", "lat": "32.4912", "lng": "-88.8452"}, {"name": "Hazlehurst", "state": "MS", "lat": "31.8645", "lng": "-90.3926"}, {"name": "Beulah", "state": "MS", "lat": "33.7905", "lng": "-90.9802"}, {"name": "Terry", "state": "MS", "lat": "32.1047", "lng": "-90.2980"}, {"name": "Bolton", "state": "MS", "lat": "32.3546", "lng": "-90.4586"}, {"name": "Farmington", "state": "MS", "lat": "34.9224", "lng": "-88.4432"}, {"name": "Walthall", "state": "MS", "lat": "33.6069", "lng": "-89.2787"}, {"name": "Darling", "state": "MS", "lat": "34.3591", "lng": "-90.2754"}, {"name": "Louin", "state": "MS", "lat": "32.0722", "lng": "-89.2626"}, {"name": "Marion", "state": "MS", "lat": "32.4272", "lng": "-88.6502"}, {"name": "Doddsville", "state": "MS", "lat": "33.6599", "lng": "-90.5214"}, {"name": "Southaven", "state": "MS", "lat": "34.9514", "lng": "-89.9787"}, {"name": "DeLisle", "state": "MS", "lat": "30.3848", "lng": "-89.2745"}, {"name": "Magnolia", "state": "MS", "lat": "31.1619", "lng": "-90.4670"}, {"name": "Greenville", "state": "MS", "lat": "33.3850", "lng": "-91.0514"}, {"name": "Learned", "state": "MS", "lat": "32.1973", "lng": "-90.5486"}, {"name": "Pelahatchie", "state": "MS", "lat": "32.3148", "lng": "-89.8082"}, {"name": "Alcorn State University", "state": "MS", "lat": "31.8804", "lng": "-91.1407"}, {"name": "Silver Creek", "state": "MS", "lat": "31.6048", "lng": "-90.0023"}, {"name": "Potts Camp", "state": "MS", "lat": "34.6492", "lng": "-89.3065"}, {"name": "Chunky", "state": "MS", "lat": "32.3275", "lng": "-88.9302"}, {"name": "Florence", "state": "MS", "lat": "32.1557", "lng": "-90.1224"}, {"name": "Pearl", "state": "MS", "lat": "32.2730", "lng": "-90.0918"}, {"name": "Bay St. Louis", "state": "MS", "lat": "30.3281", "lng": "-89.3774"}, {"name": "Inverness", "state": "MS", "lat": "33.3543", "lng": "-90.5913"}, {"name": "Redwater", "state": "MS", "lat": "32.7835", "lng": "-89.5559"}, {"name": "Bogue Chitto", "state": "MS", "lat": "32.8338", "lng": "-88.9190"}, {"name": "Eden", "state": "MS", "lat": "32.9837", "lng": "-90.3240"}, {"name": "Long Beach", "state": "MS", "lat": "30.3608", "lng": "-89.1650"}, {"name": "State Line", "state": "MS", "lat": "31.4360", "lng": "-88.4738"}, {"name": "Derma", "state": "MS", "lat": "33.8589", "lng": "-89.2878"}, {"name": "Morgan City", "state": "MS", "lat": "33.3787", "lng": "-90.3461"}, {"name": "Crowder", "state": "MS", "lat": "34.1729", "lng": "-90.1377"}, {"name": "Tunica Resorts", "state": "MS", "lat": "34.8298", "lng": "-90.3217"}, {"name": "Walls", "state": "MS", "lat": "34.9257", "lng": "-90.1604"}, {"name": "Oxford", "state": "MS", "lat": "34.3609", "lng": "-89.5286"}, {"name": "Gulf Hills", "state": "MS", "lat": "30.4364", "lng": "-88.8148"}, {"name": "Ecru", "state": "MS", "lat": "34.3550", "lng": "-89.0222"}, {"name": "Corinth", "state": "MS", "lat": "34.9474", "lng": "-88.5143"}, {"name": "West Point", "state": "MS", "lat": "33.6064", "lng": "-88.6571"}, {"name": "Glendora", "state": "MS", "lat": "33.8276", "lng": "-90.2927"}, {"name": "Moss Point", "state": "MS", "lat": "30.4240", "lng": "-88.5289"}, {"name": "Baldwyn", "state": "MS", "lat": "34.5071", "lng": "-88.6416"}, {"name": "Saltillo", "state": "MS", "lat": "34.3789", "lng": "-88.6939"}, {"name": "Scooba", "state": "MS", "lat": "32.8302", "lng": "-88.4771"}, {"name": "Gloster", "state": "MS", "lat": "31.1951", "lng": "-91.0176"}, {"name": "Toccopola", "state": "MS", "lat": "34.2561", "lng": "-89.2211"}, {"name": "Foxworth", "state": "MS", "lat": "31.2386", "lng": "-89.8829"}, {"name": "Shelby", "state": "MS", "lat": "33.9508", "lng": "-90.7653"}, {"name": "Vardaman", "state": "MS", "lat": "33.8822", "lng": "-89.1778"}, {"name": "Brookhaven", "state": "MS", "lat": "31.5803", "lng": "-90.4432"}, {"name": "Tunica", "state": "MS", "lat": "34.6881", "lng": "-90.3810"}, {"name": "Big Creek", "state": "MS", "lat": "33.8464", "lng": "-89.4159"}, {"name": "Duncan", "state": "MS", "lat": "34.0418", "lng": "-90.7459"}, {"name": "Laurel", "state": "MS", "lat": "31.6956", "lng": "-89.1448"}, {"name": "Aberdeen", "state": "MS", "lat": "33.8287", "lng": "-88.5539"}, {"name": "Robinhood", "state": "MS", "lat": "32.2045", "lng": "-89.9671"}, {"name": "Coahoma", "state": "MS", "lat": "34.3664", "lng": "-90.5220"}, {"name": "Sardis", "state": "MS", "lat": "34.4355", "lng": "-89.9114"}, {"name": "Lake", "state": "MS", "lat": "32.3406", "lng": "-89.3295"}, {"name": "Vaiden", "state": "MS", "lat": "33.3332", "lng": "-89.7533"}, {"name": "Vancleave", "state": "MS", "lat": "30.5483", "lng": "-88.6675"}, {"name": "Crenshaw", "state": "MS", "lat": "34.5047", "lng": "-90.1946"}, {"name": "Pace", "state": "MS", "lat": "33.7921", "lng": "-90.8595"}, {"name": "Leland", "state": "MS", "lat": "33.4051", "lng": "-90.8909"}, {"name": "Petal", "state": "MS", "lat": "31.3477", "lng": "-89.2359"}, {"name": "Belmont", "state": "MS", "lat": "34.5046", "lng": "-88.2080"}, {"name": "Algoma", "state": "MS", "lat": "34.1788", "lng": "-89.0336"}, {"name": "Shaw", "state": "MS", "lat": "33.6015", "lng": "-90.7720"}, {"name": "Hollandale", "state": "MS", "lat": "33.1761", "lng": "-90.8529"}, {"name": "Monticello", "state": "MS", "lat": "31.5525", "lng": "-90.1145"}, {"name": "Quitman", "state": "MS", "lat": "32.0417", "lng": "-88.7202"}, {"name": "Cleary", "state": "MS", "lat": "32.1635", "lng": "-90.1819"}, {"name": "Tchula", "state": "MS", "lat": "33.1831", "lng": "-90.2232"}, {"name": "Heidelberg", "state": "MS", "lat": "31.8898", "lng": "-88.9879"}, {"name": "St. Martin", "state": "MS", "lat": "30.4399", "lng": "-88.8651"}, {"name": "Falcon", "state": "MS", "lat": "34.3911", "lng": "-90.2557"}, {"name": "Renova", "state": "MS", "lat": "33.7805", "lng": "-90.7232"}, {"name": "Hatley", "state": "MS", "lat": "33.9773", "lng": "-88.4184"}, {"name": "Wesson", "state": "MS", "lat": "31.6999", "lng": "-90.3959"}, {"name": "Weir", "state": "MS", "lat": "33.2635", "lng": "-89.2905"}, {"name": "Nettleton", "state": "MS", "lat": "34.0853", "lng": "-88.6248"}, {"name": "Taylorsville", "state": "MS", "lat": "31.8322", "lng": "-89.4340"}, {"name": "Pontotoc", "state": "MS", "lat": "34.2532", "lng": "-89.0091"}, {"name": "Edwards", "state": "MS", "lat": "32.3326", "lng": "-90.6055"}, {"name": "Lena", "state": "MS", "lat": "32.5939", "lng": "-89.5948"}, {"name": "Kosciusko", "state": "MS", "lat": "33.0585", "lng": "-89.5893"}, {"name": "Mantee", "state": "MS", "lat": "33.7226", "lng": "-89.0597"}, {"name": "Sallis", "state": "MS", "lat": "33.0215", "lng": "-89.7647"}, {"name": "Summit", "state": "MS", "lat": "31.2808", "lng": "-90.4670"}, {"name": "White Oak", "state": "MS", "lat": "34.6438", "lng": "-90.3495"}, {"name": "Pope", "state": "MS", "lat": "34.2147", "lng": "-89.9481"}, {"name": "Eupora", "state": "MS", "lat": "33.5436", "lng": "-89.2766"}, {"name": "Waveland", "state": "MS", "lat": "30.2930", "lng": "-89.3904"}, {"name": "Carthage", "state": "MS", "lat": "32.7431", "lng": "-89.5337"}, {"name": "Bay Springs", "state": "MS", "lat": "31.9772", "lng": "-89.2792"}, {"name": "Mayersville", "state": "MS", "lat": "32.8964", "lng": "-91.0467"}, {"name": "Collins", "state": "MS", "lat": "31.6469", "lng": "-89.5669"}, {"name": "Horn Lake", "state": "MS", "lat": "34.9512", "lng": "-90.0501"}, {"name": "Ashland", "state": "MS", "lat": "34.8341", "lng": "-89.1778"}, {"name": "Hide-A-Way Lake", "state": "MS", "lat": "30.5740", "lng": "-89.6419"}, {"name": "Clara", "state": "MS", "lat": "31.5831", "lng": "-88.6916"}, {"name": "Crosby", "state": "MS", "lat": "31.2791", "lng": "-91.0630"}, {"name": "Blue Mountain", "state": "MS", "lat": "34.6739", "lng": "-89.0262"}, {"name": "Olive Branch", "state": "MS", "lat": "34.9610", "lng": "-89.8469"}, {"name": "Fayette", "state": "MS", "lat": "31.7123", "lng": "-91.0620"}, {"name": "Ocean Springs", "state": "MS", "lat": "30.4082", "lng": "-88.7861"}, {"name": "Pass Christian", "state": "MS", "lat": "30.3270", "lng": "-89.2436"}, {"name": "Kossuth", "state": "MS", "lat": "34.8726", "lng": "-88.6428"}, {"name": "Bridgetown", "state": "MS", "lat": "34.8907", "lng": "-89.9069"}, {"name": "Forest", "state": "MS", "lat": "32.3595", "lng": "-89.4761"}, {"name": "Yazoo City", "state": "MS", "lat": "32.8618", "lng": "-90.4067"}, {"name": "Houston", "state": "MS", "lat": "33.8963", "lng": "-89.0031"}, {"name": "Glen", "state": "MS", "lat": "34.8585", "lng": "-88.4199"}, {"name": "Bentonia", "state": "MS", "lat": "32.6436", "lng": "-90.3692"}, {"name": "Walnut", "state": "MS", "lat": "34.9497", "lng": "-88.9236"}, {"name": "University", "state": "MS", "lat": "34.3656", "lng": "-89.5378"}, {"name": "Byhalia", "state": "MS", "lat": "34.8690", "lng": "-89.6890"}, {"name": "Mound Bayou", "state": "MS", "lat": "33.8808", "lng": "-90.7280"}, {"name": "Wade", "state": "MS", "lat": "30.6400", "lng": "-88.5579"}, {"name": "Shannon", "state": "MS", "lat": "34.1144", "lng": "-88.6932"}, {"name": "Braxton", "state": "MS", "lat": "32.0264", "lng": "-89.9715"}, {"name": "Lynchburg", "state": "MS", "lat": "34.9623", "lng": "-90.1052"}, {"name": "Pascagoula", "state": "MS", "lat": "30.3665", "lng": "-88.5507"}, {"name": "Mississippi State", "state": "MS", "lat": "33.4515", "lng": "-88.7913"}, {"name": "Booneville", "state": "MS", "lat": "34.6643", "lng": "-88.5684"}, {"name": "Slate Springs", "state": "MS", "lat": "33.7417", "lng": "-89.3752"}, {"name": "Soso", "state": "MS", "lat": "31.7535", "lng": "-89.2759"}, {"name": "Sharon", "state": "MS", "lat": "31.7922", "lng": "-89.0983"}, {"name": "Merigold", "state": "MS", "lat": "33.8392", "lng": "-90.7264"}, {"name": "Henderson Point", "state": "MS", "lat": "30.3154", "lng": "-89.2864"}, {"name": "Georgetown", "state": "MS", "lat": "31.8698", "lng": "-90.1648"}, {"name": "New Hope", "state": "MS", "lat": "33.4521", "lng": "-88.3399"}, {"name": "Port Gibson", "state": "MS", "lat": "31.9558", "lng": "-90.9834"}, {"name": "Thaxton", "state": "MS", "lat": "34.3071", "lng": "-89.1745"}, {"name": "Tupelo", "state": "MS", "lat": "34.2691", "lng": "-88.7318"}, {"name": "Conehatta", "state": "MS", "lat": "32.4601", "lng": "-89.2785"}, {"name": "Shuqualak", "state": "MS", "lat": "32.9793", "lng": "-88.5693"}, {"name": "Batesville", "state": "MS", "lat": "34.3147", "lng": "-89.9249"}, {"name": "New Hebron", "state": "MS", "lat": "31.7332", "lng": "-89.9833"}, {"name": "Nicholson", "state": "MS", "lat": "30.4866", "lng": "-89.6997"}, {"name": "Mount Olive", "state": "MS", "lat": "31.7539", "lng": "-89.6560"}, {"name": "Raleigh", "state": "MS", "lat": "32.0322", "lng": "-89.5247"}, {"name": "Durant", "state": "MS", "lat": "33.0799", "lng": "-89.8566"}, {"name": "Purvis", "state": "MS", "lat": "31.1450", "lng": "-89.4054"}, {"name": "Latimer", "state": "MS", "lat": "30.4972", "lng": "-88.8607"}, {"name": "Ripley", "state": "MS", "lat": "34.7321", "lng": "-88.9445"}, {"name": "Glendale", "state": "MS", "lat": "31.3680", "lng": "-89.3086"}, {"name": "Shubuta", "state": "MS", "lat": "31.8620", "lng": "-88.7021"}, {"name": "Lyon", "state": "MS", "lat": "34.2169", "lng": "-90.5426"}, {"name": "Buckatunna", "state": "MS", "lat": "31.5423", "lng": "-88.5293"}, {"name": "Water Valley", "state": "MS", "lat": "34.1622", "lng": "-89.6301"}, {"name": "Duck Hill", "state": "MS", "lat": "33.6316", "lng": "-89.7153"}, {"name": "Oakland", "state": "MS", "lat": "34.0557", "lng": "-89.9151"}, {"name": "Tutwiler", "state": "MS", "lat": "34.0172", "lng": "-90.4333"}, {"name": "Natchez", "state": "MS", "lat": "31.5437", "lng": "-91.3867"}, {"name": "Rienzi", "state": "MS", "lat": "34.7633", "lng": "-88.5340"}, {"name": "Utica", "state": "MS", "lat": "32.1061", "lng": "-90.6221"}, {"name": "Columbia", "state": "MS", "lat": "31.2564", "lng": "-89.8266"}, {"name": "Raymond", "state": "MS", "lat": "32.2609", "lng": "-90.4083"}, {"name": "Picayune", "state": "MS", "lat": "30.5322", "lng": "-89.6724"}, {"name": "Poplarville", "state": "MS", "lat": "30.8391", "lng": "-89.5306"}, {"name": "Centreville", "state": "MS", "lat": "31.0870", "lng": "-91.0654"}, {"name": "Woodville", "state": "MS", "lat": "31.1029", "lng": "-91.2992"}, {"name": "Cleveland", "state": "MS", "lat": "33.7440", "lng": "-90.7285"}, {"name": "Metcalfe", "state": "MS", "lat": "33.4506", "lng": "-91.0018"}, {"name": "Mantachie", "state": "MS", "lat": "34.3251", "lng": "-88.4961"}, {"name": "Schlater", "state": "MS", "lat": "33.6397", "lng": "-90.3494"}, {"name": "Belzoni", "state": "MS", "lat": "33.1804", "lng": "-90.4863"}, {"name": "Blue Springs", "state": "MS", "lat": "34.4013", "lng": "-88.8721"}, {"name": "De Kalb", "state": "MS", "lat": "32.7707", "lng": "-88.6560"}, {"name": "Holly Springs", "state": "MS", "lat": "34.7768", "lng": "-89.4466"}, {"name": "Mize", "state": "MS", "lat": "31.8672", "lng": "-89.5541"}, {"name": "Kearney Park", "state": "MS", "lat": "32.5897", "lng": "-90.3158"}, {"name": "Morton", "state": "MS", "lat": "32.3455", "lng": "-89.6572"}, {"name": "Arcola", "state": "MS", "lat": "33.2705", "lng": "-90.8800"}, {"name": "Montrose", "state": "MS", "lat": "32.1257", "lng": "-89.2344"}, {"name": "Tillatoba", "state": "MS", "lat": "33.9851", "lng": "-89.8960"}]