[{"name": "Cooke City", "state": "MT", "lat": "45.0187", "lng": "-109.9119"}, {"name": "Roy", "state": "MT", "lat": "47.3343", "lng": "-108.9600"}, {"name": "Marion", "state": "MT", "lat": "48.0858", "lng": "-114.6710"}, {"name": "Lodge Pole", "state": "MT", "lat": "48.0272", "lng": "-108.5518"}, {"name": "Fortine", "state": "MT", "lat": "48.7723", "lng": "-114.9008"}, {"name": "Flaxville", "state": "MT", "lat": "48.8045", "lng": "-105.1736"}, {"name": "Stockett", "state": "MT", "lat": "47.3533", "lng": "-111.1698"}, {"name": "Broadview", "state": "MT", "lat": "46.0988", "lng": "-108.8789"}, {"name": "Ronan", "state": "MT", "lat": "47.5287", "lng": "-114.1005"}, {"name": "Sylvanite", "state": "MT", "lat": "48.7062", "lng": "-115.8741"}, {"name": "Crow Agency", "state": "MT", "lat": "45.6026", "lng": "-107.4591"}, {"name": "Huson", "state": "MT", "lat": "47.0326", "lng": "-114.3397"}, {"name": "Lonepine", "state": "MT", "lat": "47.6946", "lng": "-114.6408"}, {"name": "Polson", "state": "MT", "lat": "47.6886", "lng": "-114.1411"}, {"name": "Worden", "state": "MT", "lat": "45.9623", "lng": "-108.1623"}, {"name": "Hinsdale", "state": "MT", "lat": "48.4036", "lng": "-107.0582"}, {"name": "Bozeman", "state": "MT", "lat": "45.6828", "lng": "-111.0549"}, {"name": "Big Timber", "state": "MT", "lat": "45.8347", "lng": "-109.9488"}, {"name": "Heart Butte", "state": "MT", "lat": "48.2905", "lng": "-112.8363"}, {"name": "Carter", "state": "MT", "lat": "47.7812", "lng": "-110.9399"}, {"name": "Stevensville", "state": "MT", "lat": "46.5110", "lng": "-114.0787"}, {"name": "Shawmut", "state": "MT", "lat": "46.3447", "lng": "-109.5123"}, {"name": "Anaconda", "state": "MT", "lat": "46.0607", "lng": "-113.0679"}, {"name": "Victor", "state": "MT", "lat": "46.4161", "lng": "-114.1491"}, {"name": "Beaver Creek", "state": "MT", "lat": "48.5437", "lng": "-109.8068"}, {"name": "Columbia Falls", "state": "MT", "lat": "48.3708", "lng": "-114.1903"}, {"name": "Whitehall", "state": "MT", "lat": "45.8709", "lng": "-112.0975"}, {"name": "Pioneer Junction", "state": "MT", "lat": "48.3157", "lng": "-115.5182"}, {"name": "Ulm", "state": "MT", "lat": "47.4197", "lng": "-111.5252"}, {"name": "Alder", "state": "MT", "lat": "45.3216", "lng": "-112.1093"}, {"name": "Trego", "state": "MT", "lat": "48.6578", "lng": "-114.9302"}, {"name": "Chinook", "state": "MT", "lat": "48.5901", "lng": "-109.2318"}, {"name": "Loma", "state": "MT", "lat": "47.9512", "lng": "-110.4887"}, {"name": "Jette", "state": "MT", "lat": "47.7169", "lng": "-114.1905"}, {"name": "Clancy", "state": "MT", "lat": "46.4493", "lng": "-112.0029"}, {"name": "Great Falls", "state": "MT", "lat": "47.5022", "lng": "-111.2995"}, {"name": "Ashland", "state": "MT", "lat": "45.5977", "lng": "-106.2975"}, {"name": "Greycliff", "state": "MT", "lat": "45.7586", "lng": "-109.7798"}, {"name": "Frazer", "state": "MT", "lat": "48.0532", "lng": "-106.0481"}, {"name": "Whitewater", "state": "MT", "lat": "48.7634", "lng": "-107.6302"}, {"name": "Darby", "state": "MT", "lat": "46.0234", "lng": "-114.1790"}, {"name": "Orchard Homes", "state": "MT", "lat": "46.8560", "lng": "-114.0777"}, {"name": "West Glacier", "state": "MT", "lat": "48.4916", "lng": "-113.9961"}, {"name": "Lima", "state": "MT", "lat": "44.6384", "lng": "-112.5919"}, {"name": "Big Sandy", "state": "MT", "lat": "48.1785", "lng": "-110.1134"}, {"name": "Sand Coulee", "state": "MT", "lat": "47.4026", "lng": "-111.1720"}, {"name": "Springdale", "state": "MT", "lat": "45.7381", "lng": "-110.2236"}, {"name": "Fairfield", "state": "MT", "lat": "47.6152", "lng": "-111.9815"}, {"name": "Arlee", "state": "MT", "lat": "47.1679", "lng": "-114.0838"}, {"name": "Corvallis", "state": "MT", "lat": "46.3139", "lng": "-114.1123"}, {"name": "Sunburst", "state": "MT", "lat": "48.8777", "lng": "-111.9062"}, {"name": "Winston", "state": "MT", "lat": "46.4684", "lng": "-111.6652"}, {"name": "Inverness", "state": "MT", "lat": "48.5599", "lng": "-110.7103"}, {"name": "Lolo", "state": "MT", "lat": "46.7756", "lng": "-114.1018"}, {"name": "Westby", "state": "MT", "lat": "48.8710", "lng": "-104.0551"}, {"name": "Charlo", "state": "MT", "lat": "47.4427", "lng": "-114.1716"}, {"name": "Herron", "state": "MT", "lat": "48.5341", "lng": "-109.7718"}, {"name": "Hebgen Lake Estates", "state": "MT", "lat": "44.7692", "lng": "-111.1905"}, {"name": "Jefferson City", "state": "MT", "lat": "46.3780", "lng": "-112.0305"}, {"name": "South Browning", "state": "MT", "lat": "48.5458", "lng": "-113.0128"}, {"name": "Rudyard", "state": "MT", "lat": "48.5599", "lng": "-110.5500"}, {"name": "Maxville", "state": "MT", "lat": "46.4760", "lng": "-113.2355"}, {"name": "Lavina", "state": "MT", "lat": "46.2950", "lng": "-108.9388"}, {"name": "Glendive", "state": "MT", "lat": "47.1102", "lng": "-104.7069"}, {"name": "Pony", "state": "MT", "lat": "45.6628", "lng": "-111.8827"}, {"name": "Melstone", "state": "MT", "lat": "46.5987", "lng": "-107.8683"}, {"name": "Riverbend", "state": "MT", "lat": "47.1472", "lng": "-114.8318"}, {"name": "Sun River", "state": "MT", "lat": "47.5305", "lng": "-111.7240"}, {"name": "Sidney", "state": "MT", "lat": "47.7152", "lng": "-104.1680"}, {"name": "Happys Inn", "state": "MT", "lat": "48.0638", "lng": "-115.1350"}, {"name": "Little Browning", "state": "MT", "lat": "48.6251", "lng": "-112.3501"}, {"name": "The Silos", "state": "MT", "lat": "46.3984", "lng": "-111.5864"}, {"name": "Fort Benton", "state": "MT", "lat": "47.8291", "lng": "-110.6557"}, {"name": "Billings", "state": "MT", "lat": "45.7889", "lng": "-108.5509"}, {"name": "White Sulphur Springs", "state": "MT", "lat": "46.5452", "lng": "-110.9039"}, {"name": "Carlton", "state": "MT", "lat": "46.6796", "lng": "-114.0718"}, {"name": "King Arthur Park", "state": "MT", "lat": "45.6664", "lng": "-111.1269"}, {"name": "Elkhorn", "state": "MT", "lat": "46.2843", "lng": "-111.9488"}, {"name": "Toston", "state": "MT", "lat": "46.1658", "lng": "-111.4459"}, {"name": "Cascade", "state": "MT", "lat": "47.2770", "lng": "-111.7025"}, {"name": "Harlem", "state": "MT", "lat": "48.5318", "lng": "-108.7847"}, {"name": "Antelope", "state": "MT", "lat": "48.6897", "lng": "-104.4539"}, {"name": "East Glacier Park Village", "state": "MT", "lat": "48.4459", "lng": "-113.2235"}, {"name": "Rocky Point", "state": "MT", "lat": "47.7323", "lng": "-114.1855"}, {"name": "Evaro", "state": "MT", "lat": "47.0737", "lng": "-114.0205"}, {"name": "Logan", "state": "MT", "lat": "45.8843", "lng": "-111.4236"}, {"name": "Helena Valley Northwest", "state": "MT", "lat": "46.7289", "lng": "-112.0627"}, {"name": "Sun Prairie", "state": "MT", "lat": "47.5386", "lng": "-111.4919"}, {"name": "Elliston", "state": "MT", "lat": "46.5587", "lng": "-112.4639"}, {"name": "Lockwood", "state": "MT", "lat": "45.8199", "lng": "-108.4072"}, {"name": "Superior", "state": "MT", "lat": "47.1935", "lng": "-114.8920"}, {"name": "Libby", "state": "MT", "lat": "48.3874", "lng": "-115.5559"}, {"name": "Elmo", "state": "MT", "lat": "47.8290", "lng": "-114.3485"}, {"name": "Deer Lodge", "state": "MT", "lat": "46.3974", "lng": "-112.7337"}, {"name": "Conner", "state": "MT", "lat": "45.9290", "lng": "-114.1326"}, {"name": "Hamilton", "state": "MT", "lat": "46.2527", "lng": "-114.1598"}, {"name": "Birney", "state": "MT", "lat": "45.4155", "lng": "-106.4934"}, {"name": "Yaak", "state": "MT", "lat": "48.8647", "lng": "-115.6777"}, {"name": "Missoula", "state": "MT", "lat": "46.8685", "lng": "-114.0095"}, {"name": "South Hills", "state": "MT", "lat": "46.5564", "lng": "-111.9974"}, {"name": "Belgrade", "state": "MT", "lat": "45.7796", "lng": "-111.1751"}, {"name": "St. Ignatius", "state": "MT", "lat": "47.3186", "lng": "-114.0956"}, {"name": "Nashua", "state": "MT", "lat": "48.1336", "lng": "-106.3571"}, {"name": "Pablo", "state": "MT", "lat": "47.6035", "lng": "-114.1059"}, {"name": "Ovando", "state": "MT", "lat": "47.0207", "lng": "-113.1717"}, {"name": "White Haven", "state": "MT", "lat": "48.3478", "lng": "-115.5160"}, {"name": "Valier", "state": "MT", "lat": "48.3056", "lng": "-112.2523"}, {"name": "Swan Lake", "state": "MT", "lat": "47.9361", "lng": "-113.7997"}, {"name": "Lodge Grass", "state": "MT", "lat": "45.3142", "lng": "-107.3677"}, {"name": "Big Sky", "state": "MT", "lat": "45.2592", "lng": "-111.3426"}, {"name": "Spokane Creek", "state": "MT", "lat": "46.5342", "lng": "-111.7393"}, {"name": "Gallatin River Ranch", "state": "MT", "lat": "45.9072", "lng": "-111.3313"}, {"name": "Custer", "state": "MT", "lat": "46.1292", "lng": "-107.5554"}, {"name": "Musselshell", "state": "MT", "lat": "46.5064", "lng": "-108.0862"}, {"name": "East Helena", "state": "MT", "lat": "46.5850", "lng": "-111.9158"}, {"name": "Paradise", "state": "MT", "lat": "47.3856", "lng": "-114.7988"}, {"name": "Pryor", "state": "MT", "lat": "45.4125", "lng": "-108.5291"}, {"name": "Sula", "state": "MT", "lat": "45.8452", "lng": "-113.9629"}, {"name": "Gardiner", "state": "MT", "lat": "45.0570", "lng": "-110.7421"}, {"name": "St. Regis", "state": "MT", "lat": "47.3016", "lng": "-115.1015"}, {"name": "Pinesdale", "state": "MT", "lat": "46.3338", "lng": "-114.2231"}, {"name": "Livingston", "state": "MT", "lat": "45.6665", "lng": "-110.5538"}, {"name": "Savage", "state": "MT", "lat": "47.4536", "lng": "-104.3413"}, {"name": "Miles City", "state": "MT", "lat": "46.4059", "lng": "-105.8385"}, {"name": "Saco", "state": "MT", "lat": "48.4571", "lng": "-107.3414"}, {"name": "Whitefish", "state": "MT", "lat": "48.4333", "lng": "-114.3593"}, {"name": "West Glendive", "state": "MT", "lat": "47.1056", "lng": "-104.7541"}, {"name": "Amsterdam", "state": "MT", "lat": "45.7462", "lng": "-111.3301"}, {"name": "Shepherd", "state": "MT", "lat": "45.9469", "lng": "-108.3463"}, {"name": "Gallatin Gateway", "state": "MT", "lat": "45.5899", "lng": "-111.1953"}, {"name": "Rocky Boy West", "state": "MT", "lat": "48.2971", "lng": "-109.9919"}, {"name": "St. Xavier", "state": "MT", "lat": "45.4571", "lng": "-107.7251"}, {"name": "West Yellowstone", "state": "MT", "lat": "44.6627", "lng": "-111.1057"}, {"name": "Biddle", "state": "MT", "lat": "45.1051", "lng": "-105.3116"}, {"name": "Reed Point", "state": "MT", "lat": "45.7071", "lng": "-109.5471"}, {"name": "Somers", "state": "MT", "lat": "48.0824", "lng": "-114.2343"}, {"name": "Jordan", "state": "MT", "lat": "47.3210", "lng": "-106.9097"}, {"name": "Bynum", "state": "MT", "lat": "47.9682", "lng": "-112.3165"}, {"name": "Hays", "state": "MT", "lat": "48.0104", "lng": "-108.6607"}, {"name": "Richey", "state": "MT", "lat": "47.6440", "lng": "-105.0697"}, {"name": "Opheim", "state": "MT", "lat": "48.8571", "lng": "-106.4084"}, {"name": "North Browning", "state": "MT", "lat": "48.5684", "lng": "-113.0171"}, {"name": "Browning", "state": "MT", "lat": "48.5564", "lng": "-113.0151"}, {"name": "Roberts", "state": "MT", "lat": "45.3436", "lng": "-109.1817"}, {"name": "Townsend", "state": "MT", "lat": "46.3192", "lng": "-111.5197"}, {"name": "Garrison", "state": "MT", "lat": "46.5259", "lng": "-112.8205"}, {"name": "Craig", "state": "MT", "lat": "47.0742", "lng": "-111.9652"}, {"name": "Winifred", "state": "MT", "lat": "47.5621", "lng": "-109.3773"}, {"name": "Cut Bank", "state": "MT", "lat": "48.6345", "lng": "-112.3304"}, {"name": "Forest Hill Village", "state": "MT", "lat": "48.1208", "lng": "-114.2618"}, {"name": "Turner", "state": "MT", "lat": "48.8469", "lng": "-108.4006"}, {"name": "Kevin", "state": "MT", "lat": "48.7457", "lng": "-111.9656"}, {"name": "Malmstrom AFB", "state": "MT", "lat": "47.5059", "lng": "-111.1825"}, {"name": "Jardine", "state": "MT", "lat": "45.0565", "lng": "-110.6186"}, {"name": "Fort Shaw", "state": "MT", "lat": "47.4969", "lng": "-111.8194"}, {"name": "Malta", "state": "MT", "lat": "48.3555", "lng": "-107.8709"}, {"name": "Fort Smith", "state": "MT", "lat": "45.3134", "lng": "-107.9296"}, {"name": "Kremlin", "state": "MT", "lat": "48.5707", "lng": "-110.0862"}, {"name": "Busby", "state": "MT", "lat": "45.5280", "lng": "-106.9753"}, {"name": "Fox Lake", "state": "MT", "lat": "47.6858", "lng": "-104.6331"}, {"name": "Niarada", "state": "MT", "lat": "47.8309", "lng": "-114.5578"}, {"name": "Harlowton", "state": "MT", "lat": "46.4368", "lng": "-109.8350"}, {"name": "Marysville", "state": "MT", "lat": "46.7503", "lng": "-112.3027"}, {"name": "Radersburg", "state": "MT", "lat": "46.1962", "lng": "-111.6313"}, {"name": "Turtle Lake", "state": "MT", "lat": "47.6697", "lng": "-114.0815"}, {"name": "Huntley", "state": "MT", "lat": "45.8995", "lng": "-108.3054"}, {"name": "Rocky Boy's Agency", "state": "MT", "lat": "48.2590", "lng": "-109.7648"}, {"name": "Chester", "state": "MT", "lat": "48.5113", "lng": "-110.9663"}, {"name": "Box Elder", "state": "MT", "lat": "48.3230", "lng": "-110.0177"}, {"name": "West Havre", "state": "MT", "lat": "48.5471", "lng": "-109.7310"}, {"name": "Frenchtown", "state": "MT", "lat": "47.0287", "lng": "-114.2461"}, {"name": "Silesia", "state": "MT", "lat": "45.5558", "lng": "-108.8374"}, {"name": "Froid", "state": "MT", "lat": "48.3380", "lng": "-104.4909"}, {"name": "Troy", "state": "MT", "lat": "48.4623", "lng": "-115.8917"}, {"name": "Big Arm", "state": "MT", "lat": "47.7936", "lng": "-114.2700"}, {"name": "Hobson", "state": "MT", "lat": "46.9994", "lng": "-109.8734"}, {"name": "Geyser", "state": "MT", "lat": "47.2633", "lng": "-110.4927"}, {"name": "Kicking Horse", "state": "MT", "lat": "47.4568", "lng": "-114.0717"}, {"name": "Brady", "state": "MT", "lat": "48.0279", "lng": "-111.8441"}, {"name": "Santa Rita", "state": "MT", "lat": "48.6977", "lng": "-112.3173"}, {"name": "Boulder", "state": "MT", "lat": "46.2358", "lng": "-112.1198"}, {"name": "Klein", "state": "MT", "lat": "46.3983", "lng": "-108.5525"}, {"name": "De Borgia", "state": "MT", "lat": "47.3778", "lng": "-115.3189"}, {"name": "Zortman", "state": "MT", "lat": "47.9167", "lng": "-108.5091"}, {"name": "Helena Valley West Central", "state": "MT", "lat": "46.6634", "lng": "-112.0605"}, {"name": "Fairview", "state": "MT", "lat": "47.8520", "lng": "-104.0510"}, {"name": "Virginia City", "state": "MT", "lat": "45.2962", "lng": "-111.9369"}, {"name": "Hardin", "state": "MT", "lat": "45.7423", "lng": "-107.6082"}, {"name": "Helena", "state": "MT", "lat": "46.5965", "lng": "-112.0199"}, {"name": "Trout Creek", "state": "MT", "lat": "47.8331", "lng": "-115.5837"}, {"name": "Cardwell", "state": "MT", "lat": "45.8621", "lng": "-111.9555"}, {"name": "Sweet Grass", "state": "MT", "lat": "48.9929", "lng": "-111.9668"}, {"name": "Old Agency", "state": "MT", "lat": "47.3227", "lng": "-114.2987"}, {"name": "Kings Point", "state": "MT", "lat": "47.7634", "lng": "-114.1498"}, {"name": "Rexford", "state": "MT", "lat": "48.8998", "lng": "-115.1714"}, {"name": "Piltzville", "state": "MT", "lat": "46.8582", "lng": "-113.8591"}, {"name": "Ismay", "state": "MT", "lat": "46.5002", "lng": "-104.7930"}, {"name": "Dillon", "state": "MT", "lat": "45.2177", "lng": "-112.6348"}, {"name": "Philipsburg", "state": "MT", "lat": "46.3324", "lng": "-113.2960"}, {"name": "Evergreen", "state": "MT", "lat": "48.2308", "lng": "-114.2700"}, {"name": "Silver Gate", "state": "MT", "lat": "45.0198", "lng": "-109.9829"}, {"name": "Lindisfarne", "state": "MT", "lat": "47.8042", "lng": "-114.2122"}, {"name": "Roscoe", "state": "MT", "lat": "45.3517", "lng": "-109.4933"}, {"name": "Simms", "state": "MT", "lat": "47.4931", "lng": "-111.9474"}, {"name": "Wibaux", "state": "MT", "lat": "46.9865", "lng": "-104.1901"}, {"name": "Glasgow", "state": "MT", "lat": "48.1990", "lng": "-106.6321"}, {"name": "Alzada", "state": "MT", "lat": "45.0205", "lng": "-104.4129"}, {"name": "Bridger", "state": "MT", "lat": "45.2946", "lng": "-108.9167"}, {"name": "Wineglass", "state": "MT", "lat": "45.6280", "lng": "-110.6233"}, {"name": "Walkerville", "state": "MT", "lat": "46.0366", "lng": "-112.5396"}, {"name": "Three Forks", "state": "MT", "lat": "45.8900", "lng": "-111.5522"}, {"name": "Gibson Flats", "state": "MT", "lat": "47.4650", "lng": "-111.2429"}, {"name": "Wolf Point", "state": "MT", "lat": "48.0933", "lng": "-105.6413"}, {"name": "Butte", "state": "MT", "lat": "45.9020", "lng": "-112.6571"}, {"name": "Avon", "state": "MT", "lat": "46.6264", "lng": "-112.5820"}, {"name": "Helena Valley Northeast", "state": "MT", "lat": "46.6993", "lng": "-111.9517"}, {"name": "Emigrant", "state": "MT", "lat": "45.3755", "lng": "-110.7465"}, {"name": "Lake Mary Ronan", "state": "MT", "lat": "47.9290", "lng": "-114.3889"}, {"name": "Little Bitterroot Lake", "state": "MT", "lat": "48.1180", "lng": "-114.7206"}, {"name": "Ballantine", "state": "MT", "lat": "45.9511", "lng": "-108.1428"}, {"name": "Broadus", "state": "MT", "lat": "45.4431", "lng": "-105.4085"}, {"name": "Plentywood", "state": "MT", "lat": "48.7761", "lng": "-104.5574"}, {"name": "Edgar", "state": "MT", "lat": "45.4637", "lng": "-108.8554"}, {"name": "Seeley Lake", "state": "MT", "lat": "47.1614", "lng": "-113.4524"}, {"name": "Pray", "state": "MT", "lat": "45.4150", "lng": "-110.6533"}, {"name": "Forsyth", "state": "MT", "lat": "46.2669", "lng": "-106.6749"}, {"name": "Heron", "state": "MT", "lat": "48.0637", "lng": "-115.9800"}, {"name": "Helena Flats", "state": "MT", "lat": "48.2864", "lng": "-114.2369"}, {"name": "Batavia", "state": "MT", "lat": "48.1778", "lng": "-114.4107"}, {"name": "Bainville", "state": "MT", "lat": "48.1394", "lng": "-104.2197"}, {"name": "Weeksville", "state": "MT", "lat": "47.5309", "lng": "-115.0082"}, {"name": "Wheatland", "state": "MT", "lat": "45.9580", "lng": "-111.5782"}, {"name": "St. Marie", "state": "MT", "lat": "48.4053", "lng": "-106.4986"}, {"name": "Belt", "state": "MT", "lat": "47.3873", "lng": "-110.9276"}, {"name": "Muddy", "state": "MT", "lat": "45.5798", "lng": "-106.7754"}, {"name": "Basin", "state": "MT", "lat": "46.2834", "lng": "-112.2871"}, {"name": "Lame Deer", "state": "MT", "lat": "45.6176", "lng": "-106.6134"}, {"name": "Bonner-West Riverside", "state": "MT", "lat": "46.8767", "lng": "-113.8868"}, {"name": "Brockton", "state": "MT", "lat": "48.1498", "lng": "-104.9142"}, {"name": "South Glastonbury", "state": "MT", "lat": "45.3121", "lng": "-110.8076"}, {"name": "Sheridan", "state": "MT", "lat": "45.4588", "lng": "-112.1946"}, {"name": "Fort Belknap Agency", "state": "MT", "lat": "48.4278", "lng": "-108.6829"}, {"name": "Fallon", "state": "MT", "lat": "46.8373", "lng": "-105.1270"}, {"name": "Augusta", "state": "MT", "lat": "47.4893", "lng": "-112.3922"}, {"name": "Circle", "state": "MT", "lat": "47.4176", "lng": "-105.5870"}, {"name": "Fromberg", "state": "MT", "lat": "45.3921", "lng": "-108.9067"}, {"name": "Black Eagle", "state": "MT", "lat": "47.5270", "lng": "-111.2670"}, {"name": "Plevna", "state": "MT", "lat": "46.4184", "lng": "-104.5186"}, {"name": "Lakeside", "state": "MT", "lat": "48.0182", "lng": "-114.2274"}, {"name": "Neihart", "state": "MT", "lat": "46.9354", "lng": "-110.7360"}, {"name": "Four Corners", "state": "MT", "lat": "45.6704", "lng": "-111.1780"}, {"name": "West Kootenai", "state": "MT", "lat": "48.9652", "lng": "-115.2212"}, {"name": "Kalispell", "state": "MT", "lat": "48.2156", "lng": "-114.3261"}, {"name": "Havre", "state": "MT", "lat": "48.5427", "lng": "-109.6804"}, {"name": "Gildford", "state": "MT", "lat": "48.5737", "lng": "-110.3071"}, {"name": "Montana City", "state": "MT", "lat": "46.5257", "lng": "-111.9400"}, {"name": "Belfry", "state": "MT", "lat": "45.1375", "lng": "-108.9985"}, {"name": "Lewistown Heights", "state": "MT", "lat": "47.0784", "lng": "-109.4736"}, {"name": "Sangrey", "state": "MT", "lat": "48.2817", "lng": "-109.8166"}, {"name": "Indian Springs", "state": "MT", "lat": "48.9534", "lng": "-115.0446"}, {"name": "St. Pierre", "state": "MT", "lat": "48.2439", "lng": "-109.8161"}, {"name": "Ryegate", "state": "MT", "lat": "46.2985", "lng": "-109.2538"}, {"name": "Shelby", "state": "MT", "lat": "48.5033", "lng": "-111.8615"}, {"name": "Eureka", "state": "MT", "lat": "48.8760", "lng": "-115.0475"}, {"name": "Hysham", "state": "MT", "lat": "46.2909", "lng": "-107.2305"}, {"name": "Wye", "state": "MT", "lat": "46.9523", "lng": "-114.1331"}, {"name": "Poplar", "state": "MT", "lat": "48.1105", "lng": "-105.1969"}, {"name": "Turah", "state": "MT", "lat": "46.8400", "lng": "-113.8251"}, {"name": "Boneau", "state": "MT", "lat": "48.2926", "lng": "-109.8632"}, {"name": "Rader Creek", "state": "MT", "lat": "45.8456", "lng": "-112.3160"}, {"name": "Culbertson", "state": "MT", "lat": "48.1447", "lng": "-104.5182"}, {"name": "Harrison", "state": "MT", "lat": "45.7035", "lng": "-111.7854"}, {"name": "Laurel", "state": "MT", "lat": "45.6734", "lng": "-108.7707"}, {"name": "Plains", "state": "MT", "lat": "47.4602", "lng": "-114.8842"}, {"name": "Finley Point", "state": "MT", "lat": "47.7464", "lng": "-114.0666"}, {"name": "Denton", "state": "MT", "lat": "47.3222", "lng": "-109.9481"}, {"name": "Hingham", "state": "MT", "lat": "48.5554", "lng": "-110.4213"}, {"name": "Dodson", "state": "MT", "lat": "48.3953", "lng": "-108.2473"}, {"name": "Sedan", "state": "MT", "lat": "45.9653", "lng": "-110.8887"}, {"name": "Dixon", "state": "MT", "lat": "47.3172", "lng": "-114.3569"}, {"name": "Springhill", "state": "MT", "lat": "45.8788", "lng": "-111.0773"}, {"name": "Twin Bridges", "state": "MT", "lat": "45.5429", "lng": "-112.3341"}, {"name": "Vaughn", "state": "MT", "lat": "47.5524", "lng": "-111.5608"}, {"name": "Grass Range", "state": "MT", "lat": "47.0259", "lng": "-108.8031"}, {"name": "Martin City", "state": "MT", "lat": "48.3935", "lng": "-114.0308"}, {"name": "Joliet", "state": "MT", "lat": "45.4845", "lng": "-108.9721"}, {"name": "Noxon", "state": "MT", "lat": "47.9850", "lng": "-115.7707"}, {"name": "Ravalli", "state": "MT", "lat": "47.2798", "lng": "-114.1658"}, {"name": "Starr School", "state": "MT", "lat": "48.5976", "lng": "-113.1433"}, {"name": "Thompson Falls", "state": "MT", "lat": "47.5993", "lng": "-115.3426"}, {"name": "Olney", "state": "MT", "lat": "48.5489", "lng": "-114.5720"}, {"name": "Conrad", "state": "MT", "lat": "48.1740", "lng": "-111.9468"}, {"name": "Ennis", "state": "MT", "lat": "45.3461", "lng": "-111.7319"}, {"name": "Stryker", "state": "MT", "lat": "48.6728", "lng": "-114.7677"}, {"name": "Dupuyer", "state": "MT", "lat": "48.1869", "lng": "-112.4772"}, {"name": "Kerr", "state": "MT", "lat": "47.6771", "lng": "-114.1874"}, {"name": "Woods Bay", "state": "MT", "lat": "48.0082", "lng": "-114.0612"}, {"name": "Belknap", "state": "MT", "lat": "47.6472", "lng": "-115.4222"}, {"name": "Saddle Butte", "state": "MT", "lat": "48.5235", "lng": "-109.6448"}, {"name": "Babb", "state": "MT", "lat": "48.8777", "lng": "-113.4408"}, {"name": "Dayton", "state": "MT", "lat": "47.8644", "lng": "-114.2765"}, {"name": "Alberton", "state": "MT", "lat": "47.0037", "lng": "-114.4817"}, {"name": "Hot Springs", "state": "MT", "lat": "47.6091", "lng": "-114.6702"}, {"name": "Columbus", "state": "MT", "lat": "45.6360", "lng": "-109.2488"}, {"name": "Power", "state": "MT", "lat": "47.7203", "lng": "-111.6944"}, {"name": "Ekalaka", "state": "MT", "lat": "45.8897", "lng": "-104.5506"}, {"name": "Florence", "state": "MT", "lat": "46.6345", "lng": "-114.0814"}, {"name": "Fort Peck", "state": "MT", "lat": "48.0070", "lng": "-106.4552"}, {"name": "Highwood", "state": "MT", "lat": "47.5991", "lng": "-110.7677"}, {"name": "Willow Creek", "state": "MT", "lat": "45.8178", "lng": "-111.6402"}, {"name": "Roundup", "state": "MT", "lat": "46.4485", "lng": "-108.5402"}, {"name": "Camp Three", "state": "MT", "lat": "46.4534", "lng": "-108.5741"}, {"name": "Coram", "state": "MT", "lat": "48.4305", "lng": "-114.0442"}, {"name": "Clyde Park", "state": "MT", "lat": "45.8840", "lng": "-110.6059"}, {"name": "Dutton", "state": "MT", "lat": "47.8475", "lng": "-111.7142"}, {"name": "Joplin", "state": "MT", "lat": "48.5590", "lng": "-110.7730"}, {"name": "Outlook", "state": "MT", "lat": "48.8888", "lng": "-104.7850"}, {"name": "Clinton", "state": "MT", "lat": "46.7718", "lng": "-113.7170"}, {"name": "Terry", "state": "MT", "lat": "46.7923", "lng": "-105.3125"}, {"name": "Parker School", "state": "MT", "lat": "48.2468", "lng": "-109.7342"}, {"name": "Helena West Side", "state": "MT", "lat": "46.5967", "lng": "-112.1135"}, {"name": "Judith Gap", "state": "MT", "lat": "46.6791", "lng": "-109.7533"}, {"name": "Winnett", "state": "MT", "lat": "47.0043", "lng": "-108.3466"}, {"name": "Park City", "state": "MT", "lat": "45.6292", "lng": "-108.9214"}, {"name": "Colstrip", "state": "MT", "lat": "45.8943", "lng": "-106.6280"}, {"name": "Boyd", "state": "MT", "lat": "45.4557", "lng": "-109.0666"}, {"name": "Reserve", "state": "MT", "lat": "48.6024", "lng": "-104.4677"}, {"name": "Choteau", "state": "MT", "lat": "47.8137", "lng": "-112.1794"}, {"name": "Rosebud", "state": "MT", "lat": "46.2712", "lng": "-106.4470"}, {"name": "Azure", "state": "MT", "lat": "48.3050", "lng": "-109.8072"}, {"name": "Drummond", "state": "MT", "lat": "46.6665", "lng": "-113.1471"}, {"name": "Lewistown", "state": "MT", "lat": "47.0514", "lng": "-109.4525"}, {"name": "Crane", "state": "MT", "lat": "47.5772", "lng": "-104.2509"}, {"name": "Wisdom", "state": "MT", "lat": "45.6114", "lng": "-113.4469"}, {"name": "Stanford", "state": "MT", "lat": "47.1521", "lng": "-110.2189"}, {"name": "Havre North", "state": "MT", "lat": "48.5632", "lng": "-109.6712"}, {"name": "Kila", "state": "MT", "lat": "48.1215", "lng": "-114.4767"}, {"name": "Helena Valley Southeast", "state": "MT", "lat": "46.6175", "lng": "-111.9186"}, {"name": "Bearcreek", "state": "MT", "lat": "45.1606", "lng": "-109.1572"}, {"name": "Baker", "state": "MT", "lat": "46.3640", "lng": "-104.2742"}, {"name": "Moore", "state": "MT", "lat": "46.9750", "lng": "-109.6949"}, {"name": "Corwin Springs", "state": "MT", "lat": "45.1278", "lng": "-110.7998"}, {"name": "Wilsall", "state": "MT", "lat": "45.9844", "lng": "-110.6604"}, {"name": "East Missoula", "state": "MT", "lat": "46.8801", "lng": "-113.9401"}, {"name": "Bear Dance", "state": "MT", "lat": "47.9020", "lng": "-114.0273"}, {"name": "Hungry Horse", "state": "MT", "lat": "48.3842", "lng": "-114.0651"}, {"name": "Bigfork", "state": "MT", "lat": "48.0852", "lng": "-114.0551"}, {"name": "Ponderosa Pines", "state": "MT", "lat": "46.0374", "lng": "-111.3500"}, {"name": "Camas", "state": "MT", "lat": "47.6179", "lng": "-114.6561"}, {"name": "Churchill", "state": "MT", "lat": "45.7500", "lng": "-111.3102"}, {"name": "Scobey", "state": "MT", "lat": "48.7904", "lng": "-105.4206"}, {"name": "Absarokee", "state": "MT", "lat": "45.5242", "lng": "-109.4474"}, {"name": "Manhattan", "state": "MT", "lat": "45.8621", "lng": "-111.3343"}, {"name": "Red Lodge", "state": "MT", "lat": "45.1933", "lng": "-109.2501"}, {"name": "Charlos Heights", "state": "MT", "lat": "46.1337", "lng": "-114.1811"}, {"name": "Rollins", "state": "MT", "lat": "47.9106", "lng": "-114.1948"}, {"name": "Medicine Lake", "state": "MT", "lat": "48.5022", "lng": "-104.5016"}, {"name": "Lincoln", "state": "MT", "lat": "46.9530", "lng": "-112.6693"}, {"name": "Condon", "state": "MT", "lat": "47.5225", "lng": "-113.6987"}, {"name": "Martinsdale", "state": "MT", "lat": "46.4548", "lng": "-110.3120"}, {"name": "Geraldine", "state": "MT", "lat": "47.6022", "lng": "-110.2663"}, {"name": "Wyola", "state": "MT", "lat": "45.1154", "lng": "-107.3738"}]