[{"name": "Trenton", "state": "NC", "lat": "35.0640", "lng": "-77.3553"}, {"name": "Stanfield", "state": "NC", "lat": "35.2336", "lng": "-80.4303"}, {"name": "Sanford", "state": "NC", "lat": "35.4874", "lng": "-79.1772"}, {"name": "Cofield", "state": "NC", "lat": "36.3567", "lng": "-76.9105"}, {"name": "Thomasville", "state": "NC", "lat": "35.8813", "lng": "-80.0807"}, {"name": "Aurora", "state": "NC", "lat": "35.3030", "lng": "-76.7889"}, {"name": "Casar", "state": "NC", "lat": "35.5127", "lng": "-81.6168"}, {"name": "Mebane", "state": "NC", "lat": "36.0876", "lng": "-79.2756"}, {"name": "Vass", "state": "NC", "lat": "35.2533", "lng": "-79.2845"}, {"name": "Forest Hills", "state": "NC", "lat": "35.2958", "lng": "-83.1954"}, {"name": "Cape Carteret", "state": "NC", "lat": "34.6973", "lng": "-77.0572"}, {"name": "Lowgap", "state": "NC", "lat": "36.5233", "lng": "-80.8671"}, {"name": "Greenevers", "state": "NC", "lat": "34.8271", "lng": "-77.9247"}, {"name": "Lillington", "state": "NC", "lat": "35.3999", "lng": "-78.8140"}, {"name": "Gorman", "state": "NC", "lat": "36.0418", "lng": "-78.8091"}, {"name": "Colerain", "state": "NC", "lat": "36.2015", "lng": "-76.7663"}, {"name": "Liberty", "state": "NC", "lat": "35.8556", "lng": "-79.5682"}, {"name": "Bakersville", "state": "NC", "lat": "36.0154", "lng": "-82.1582"}, {"name": "New London", "state": "NC", "lat": "35.4346", "lng": "-80.2198"}, {"name": "High Point", "state": "NC", "lat": "35.9905", "lng": "-79.9937"}, {"name": "Pineville", "state": "NC", "lat": "35.0864", "lng": "-80.8915"}, {"name": "Grandfather", "state": "NC", "lat": "36.0987", "lng": "-81.8482"}, {"name": "Midway", "state": "NC", "lat": "35.9751", "lng": "-80.2204"}, {"name": "Snow Hill", "state": "NC", "lat": "35.4505", "lng": "-77.6768"}, {"name": "Angier", "state": "NC", "lat": "35.5105", "lng": "-78.7394"}, {"name": "East Spencer", "state": "NC", "lat": "35.6821", "lng": "-80.4275"}, {"name": "Advance", "state": "NC", "lat": "35.9468", "lng": "-80.4045"}, {"name": "Franklinton", "state": "NC", "lat": "36.1011", "lng": "-78.4522"}, {"name": "Norwood", "state": "NC", "lat": "35.2338", "lng": "-80.1142"}, {"name": "Grifton", "state": "NC", "lat": "35.3804", "lng": "-77.4334"}, {"name": "Grover", "state": "NC", "lat": "35.1735", "lng": "-81.4520"}, {"name": "Nags Head", "state": "NC", "lat": "35.9475", "lng": "-75.6275"}, {"name": "Lowesville", "state": "NC", "lat": "35.4193", "lng": "-80.9999"}, {"name": "Morrisville", "state": "NC", "lat": "35.8366", "lng": "-78.8348"}, {"name": "Piney Green", "state": "NC", "lat": "34.7498", "lng": "-77.3209"}, {"name": "Navassa", "state": "NC", "lat": "34.2830", "lng": "-78.0290"}, {"name": "Farmville", "state": "NC", "lat": "35.5955", "lng": "-77.5913"}, {"name": "Kannapolis", "state": "NC", "lat": "35.4764", "lng": "-80.6403"}, {"name": "South Mills", "state": "NC", "lat": "36.4379", "lng": "-76.3308"}, {"name": "Myrtle Grove", "state": "NC", "lat": "34.1230", "lng": "-77.8834"}, {"name": "Rose Hill", "state": "NC", "lat": "34.8263", "lng": "-78.0259"}, {"name": "Bunn", "state": "NC", "lat": "35.9591", "lng": "-78.2519"}, {"name": "Davis", "state": "NC", "lat": "34.7996", "lng": "-76.4641"}, {"name": "Pumpkin Center", "state": "NC", "lat": "34.7860", "lng": "-77.3642"}, {"name": "Black Mountain", "state": "NC", "lat": "35.6142", "lng": "-82.3275"}, {"name": "Knightdale", "state": "NC", "lat": "35.7917", "lng": "-78.4966"}, {"name": "Denver", "state": "NC", "lat": "35.5344", "lng": "-81.0340"}, {"name": "Rockingham", "state": "NC", "lat": "34.9386", "lng": "-79.7608"}, {"name": "Richlands", "state": "NC", "lat": "34.9003", "lng": "-77.5427"}, {"name": "Proctorville", "state": "NC", "lat": "34.4751", "lng": "-79.0370"}, {"name": "Concord", "state": "NC", "lat": "35.3932", "lng": "-80.6363"}, {"name": "Stovall", "state": "NC", "lat": "36.4475", "lng": "-78.5689"}, {"name": "Fairmont", "state": "NC", "lat": "34.4947", "lng": "-79.1135"}, {"name": "Hookerton", "state": "NC", "lat": "35.4230", "lng": "-77.5895"}, {"name": "Manns Harbor", "state": "NC", "lat": "35.8934", "lng": "-75.7733"}, {"name": "Ocean Isle Beach", "state": "NC", "lat": "33.9011", "lng": "-78.4393"}, {"name": "McAdenville", "state": "NC", "lat": "35.2652", "lng": "-81.0805"}, {"name": "Barker Ten Mile", "state": "NC", "lat": "34.6825", "lng": "-78.9889"}, {"name": "Glen Raven", "state": "NC", "lat": "36.1247", "lng": "-79.4649"}, {"name": "Hildebran", "state": "NC", "lat": "35.7181", "lng": "-81.4211"}, {"name": "West Jefferson", "state": "NC", "lat": "36.3944", "lng": "-81.4898"}, {"name": "Glenville", "state": "NC", "lat": "35.1718", "lng": "-83.1273"}, {"name": "East Laurinburg", "state": "NC", "lat": "34.7691", "lng": "-79.4450"}, {"name": "Cedar Rock", "state": "NC", "lat": "35.9436", "lng": "-81.4580"}, {"name": "Leggett", "state": "NC", "lat": "35.9896", "lng": "-77.5800"}, {"name": "Wagram", "state": "NC", "lat": "34.8891", "lng": "-79.3652"}, {"name": "Efland", "state": "NC", "lat": "36.0806", "lng": "-79.1718"}, {"name": "Winterville", "state": "NC", "lat": "35.5288", "lng": "-77.3994"}, {"name": "Hays", "state": "NC", "lat": "36.2469", "lng": "-81.1142"}, {"name": "Princeton", "state": "NC", "lat": "35.4669", "lng": "-78.1612"}, {"name": "Seagrove", "state": "NC", "lat": "35.5398", "lng": "-79.7789"}, {"name": "Godwin", "state": "NC", "lat": "35.2133", "lng": "-78.6770"}, {"name": "Davidson", "state": "NC", "lat": "35.4862", "lng": "-80.8271"}, {"name": "Elizabeth City", "state": "NC", "lat": "36.2942", "lng": "-76.2360"}, {"name": "Hallsboro", "state": "NC", "lat": "34.3189", "lng": "-78.5934"}, {"name": "Maiden", "state": "NC", "lat": "35.5853", "lng": "-81.2201"}, {"name": "Cramerton", "state": "NC", "lat": "35.2344", "lng": "-81.0735"}, {"name": "Dover", "state": "NC", "lat": "35.2155", "lng": "-77.4337"}, {"name": "Hoopers Creek", "state": "NC", "lat": "35.4481", "lng": "-82.4294"}, {"name": "Horse Shoe", "state": "NC", "lat": "35.3423", "lng": "-82.5568"}, {"name": "Greenville", "state": "NC", "lat": "35.5956", "lng": "-77.3768"}, {"name": "Hendersonville", "state": "NC", "lat": "35.3241", "lng": "-82.4578"}, {"name": "Roxobel", "state": "NC", "lat": "36.2015", "lng": "-77.2398"}, {"name": "Pollocksville", "state": "NC", "lat": "35.0055", "lng": "-77.2212"}, {"name": "St. Helena", "state": "NC", "lat": "34.5166", "lng": "-77.9174"}, {"name": "Silver Lake", "state": "NC", "lat": "34.1408", "lng": "-77.9090"}, {"name": "Polkville", "state": "NC", "lat": "35.4163", "lng": "-81.6440"}, {"name": "Troutman", "state": "NC", "lat": "35.6871", "lng": "-80.8832"}, {"name": "Earl", "state": "NC", "lat": "35.1954", "lng": "-81.5340"}, {"name": "Lexington", "state": "NC", "lat": "35.8017", "lng": "-80.2682"}, {"name": "Patterson Springs", "state": "NC", "lat": "35.2330", "lng": "-81.5162"}, {"name": "Dortches", "state": "NC", "lat": "36.0114", "lng": "-77.8572"}, {"name": "Huntersville", "state": "NC", "lat": "35.4057", "lng": "-80.8729"}, {"name": "Old Hundred", "state": "NC", "lat": "34.8246", "lng": "-79.5922"}, {"name": "Burnsville", "state": "NC", "lat": "35.9164", "lng": "-82.2974"}, {"name": "Wanchese", "state": "NC", "lat": "35.8396", "lng": "-75.6379"}, {"name": "Ellerbe", "state": "NC", "lat": "35.0718", "lng": "-79.7595"}, {"name": "Flat Rock", "state": "NC", "lat": "35.2678", "lng": "-82.4526"}, {"name": "Boardman", "state": "NC", "lat": "34.4365", "lng": "-78.9468"}, {"name": "Vander", "state": "NC", "lat": "35.0347", "lng": "-78.7888"}, {"name": "Prospect", "state": "NC", "lat": "34.7358", "lng": "-79.2251"}, {"name": "Alamance", "state": "NC", "lat": "36.0283", "lng": "-79.4894"}, {"name": "Goldsboro", "state": "NC", "lat": "35.3777", "lng": "-77.9720"}, {"name": "Hope Mills", "state": "NC", "lat": "34.9689", "lng": "-78.9559"}, {"name": "Laurel Park", "state": "NC", "lat": "35.3118", "lng": "-82.5039"}, {"name": "Roper", "state": "NC", "lat": "35.8786", "lng": "-76.6170"}, {"name": "Ruffin", "state": "NC", "lat": "36.4428", "lng": "-79.5433"}, {"name": "Dellview", "state": "NC", "lat": "35.3865", "lng": "-81.4127"}, {"name": "Swansboro", "state": "NC", "lat": "34.6957", "lng": "-77.1356"}, {"name": "Belhaven", "state": "NC", "lat": "35.5428", "lng": "-76.6232"}, {"name": "Westport", "state": "NC", "lat": "35.5103", "lng": "-80.9784"}, {"name": "Bowmore", "state": "NC", "lat": "34.9358", "lng": "-79.2999"}, {"name": "Gamewell", "state": "NC", "lat": "35.8637", "lng": "-81.5979"}, {"name": "Oak Ridge", "state": "NC", "lat": "36.1738", "lng": "-79.9920"}, {"name": "Dobson", "state": "NC", "lat": "36.3927", "lng": "-80.7238"}, {"name": "Mount Gilead", "state": "NC", "lat": "35.2162", "lng": "-80.0046"}, {"name": "Belwood", "state": "NC", "lat": "35.4794", "lng": "-81.5227"}, {"name": "Harmony", "state": "NC", "lat": "35.9591", "lng": "-80.7735"}, {"name": "Gerton", "state": "NC", "lat": "35.4758", "lng": "-82.3504"}, {"name": "Indian Trail", "state": "NC", "lat": "35.0699", "lng": "-80.6453"}, {"name": "Half Moon", "state": "NC", "lat": "34.8298", "lng": "-77.4591"}, {"name": "Creedmoor", "state": "NC", "lat": "36.1224", "lng": "-78.6764"}, {"name": "Maggie Valley", "state": "NC", "lat": "35.5240", "lng": "-83.0642"}, {"name": "Moncure", "state": "NC", "lat": "35.6239", "lng": "-79.0768"}, {"name": "Germanton", "state": "NC", "lat": "36.2587", "lng": "-80.2360"}, {"name": "Spencer", "state": "NC", "lat": "35.6987", "lng": "-80.4250"}, {"name": "Fontana Dam", "state": "NC", "lat": "35.4328", "lng": "-83.8248"}, {"name": "Newton", "state": "NC", "lat": "35.6631", "lng": "-81.2332"}, {"name": "Ranlo", "state": "NC", "lat": "35.2889", "lng": "-81.1293"}, {"name": "Falcon", "state": "NC", "lat": "35.1937", "lng": "-78.6489"}, {"name": "Rolesville", "state": "NC", "lat": "35.9241", "lng": "-78.4660"}, {"name": "Pinehurst", "state": "NC", "lat": "35.1922", "lng": "-79.4682"}, {"name": "Denton", "state": "NC", "lat": "35.6378", "lng": "-80.1106"}, {"name": "Franklinville", "state": "NC", "lat": "35.7421", "lng": "-79.6893"}, {"name": "Woodlawn", "state": "NC", "lat": "36.1158", "lng": "-79.2898"}, {"name": "Oak Island", "state": "NC", "lat": "33.9433", "lng": "-78.1366"}, {"name": "Tar Heel", "state": "NC", "lat": "34.7332", "lng": "-78.7903"}, {"name": "Chocowinity", "state": "NC", "lat": "35.5148", "lng": "-77.1017"}, {"name": "Sunset Beach", "state": "NC", "lat": "33.8920", "lng": "-78.5104"}, {"name": "Whitakers", "state": "NC", "lat": "36.1057", "lng": "-77.7130"}, {"name": "Brogden", "state": "NC", "lat": "35.2961", "lng": "-78.0250"}, {"name": "Hot Springs", "state": "NC", "lat": "35.8920", "lng": "-82.8291"}, {"name": "Ahoskie", "state": "NC", "lat": "36.2843", "lng": "-76.9898"}, {"name": "Columbus", "state": "NC", "lat": "35.2660", "lng": "-82.1985"}, {"name": "Stokes", "state": "NC", "lat": "35.7106", "lng": "-77.2677"}, {"name": "Emerald Isle", "state": "NC", "lat": "34.6649", "lng": "-77.0291"}, {"name": "Granite Falls", "state": "NC", "lat": "35.7965", "lng": "-81.4233"}, {"name": "Bath", "state": "NC", "lat": "35.4702", "lng": "-76.8119"}, {"name": "Wadesboro", "state": "NC", "lat": "34.9645", "lng": "-80.0746"}, {"name": "Holden Beach", "state": "NC", "lat": "33.9120", "lng": "-78.3182"}, {"name": "Salisbury", "state": "NC", "lat": "35.6657", "lng": "-80.4910"}, {"name": "Valle Crucis", "state": "NC", "lat": "36.2074", "lng": "-81.7860"}, {"name": "Mount Holly", "state": "NC", "lat": "35.3136", "lng": "-81.0072"}, {"name": "Grantsboro", "state": "NC", "lat": "35.1449", "lng": "-76.8447"}, {"name": "Kure Beach", "state": "NC", "lat": "34.0003", "lng": "-77.9077"}, {"name": "Bolivia", "state": "NC", "lat": "34.0699", "lng": "-78.1472"}, {"name": "Pinebluff", "state": "NC", "lat": "35.1087", "lng": "-79.4712"}, {"name": "Danbury", "state": "NC", "lat": "36.4113", "lng": "-80.2122"}, {"name": "Mesic", "state": "NC", "lat": "35.2034", "lng": "-76.6450"}, {"name": "Waynesville", "state": "NC", "lat": "35.4853", "lng": "-82.9996"}, {"name": "Plymouth", "state": "NC", "lat": "35.8587", "lng": "-76.7487"}, {"name": "Bryson City", "state": "NC", "lat": "35.4262", "lng": "-83.4474"}, {"name": "Rutherford College", "state": "NC", "lat": "35.7507", "lng": "-81.5269"}, {"name": "Wentworth", "state": "NC", "lat": "36.3914", "lng": "-79.7510"}, {"name": "Beulaville", "state": "NC", "lat": "34.9227", "lng": "-77.7726"}, {"name": "Stedman", "state": "NC", "lat": "35.0131", "lng": "-78.7028"}, {"name": "Elon", "state": "NC", "lat": "36.1014", "lng": "-79.5085"}, {"name": "Burgaw", "state": "NC", "lat": "34.5507", "lng": "-77.9224"}, {"name": "Falkland", "state": "NC", "lat": "35.6986", "lng": "-77.5132"}, {"name": "Evergreen", "state": "NC", "lat": "34.4149", "lng": "-78.9114"}, {"name": "Garland", "state": "NC", "lat": "34.7859", "lng": "-78.3947"}, {"name": "Robbins", "state": "NC", "lat": "35.4305", "lng": "-79.5835"}, {"name": "Welcome", "state": "NC", "lat": "35.9066", "lng": "-80.2548"}, {"name": "Elk Park", "state": "NC", "lat": "36.1582", "lng": "-81.9808"}, {"name": "Dobbins Heights", "state": "NC", "lat": "34.9069", "lng": "-79.6933"}, {"name": "Peletier", "state": "NC", "lat": "34.7270", "lng": "-77.0759"}, {"name": "Marshville", "state": "NC", "lat": "34.9866", "lng": "-80.3685"}, {"name": "Jonesville", "state": "NC", "lat": "36.2336", "lng": "-80.8351"}, {"name": "Pine Knoll Shores", "state": "NC", "lat": "34.6974", "lng": "-76.8205"}, {"name": "Bostic", "state": "NC", "lat": "35.3624", "lng": "-81.8360"}, {"name": "Marion", "state": "NC", "lat": "35.6775", "lng": "-82.0014"}, {"name": "Burlington", "state": "NC", "lat": "36.0762", "lng": "-79.4687"}, {"name": "Wallburg", "state": "NC", "lat": "36.0088", "lng": "-80.1453"}, {"name": "Henderson", "state": "NC", "lat": "36.3259", "lng": "-78.4155"}, {"name": "Drexel", "state": "NC", "lat": "35.7568", "lng": "-81.6088"}, {"name": "Valley Hill", "state": "NC", "lat": "35.2958", "lng": "-82.4913"}, {"name": "Henrietta", "state": "NC", "lat": "35.2569", "lng": "-81.8012"}, {"name": "Rosman", "state": "NC", "lat": "35.1458", "lng": "-82.8201"}, {"name": "Cajah's Mountain", "state": "NC", "lat": "35.8508", "lng": "-81.5361"}, {"name": "Red Springs", "state": "NC", "lat": "34.8046", "lng": "-79.1822"}, {"name": "Elroy", "state": "NC", "lat": "35.3307", "lng": "-77.9226"}, {"name": "Hertford", "state": "NC", "lat": "36.1813", "lng": "-76.4673"}, {"name": "Goldston", "state": "NC", "lat": "35.5929", "lng": "-79.3284"}, {"name": "Raynham", "state": "NC", "lat": "34.5758", "lng": "-79.1910"}, {"name": "South Henderson", "state": "NC", "lat": "36.3035", "lng": "-78.4053"}, {"name": "Bladenboro", "state": "NC", "lat": "34.5407", "lng": "-78.7950"}, {"name": "Teachey", "state": "NC", "lat": "34.7690", "lng": "-78.0093"}, {"name": "Benson", "state": "NC", "lat": "35.3861", "lng": "-78.5436"}, {"name": "Montreat", "state": "NC", "lat": "35.6478", "lng": "-82.3001"}, {"name": "Clarkton", "state": "NC", "lat": "34.4889", "lng": "-78.6559"}, {"name": "Dublin", "state": "NC", "lat": "34.6562", "lng": "-78.7231"}, {"name": "Franklin", "state": "NC", "lat": "35.1798", "lng": "-83.3809"}, {"name": "Bessemer City", "state": "NC", "lat": "35.2843", "lng": "-81.2841"}, {"name": "Morven", "state": "NC", "lat": "34.8643", "lng": "-80.0000"}, {"name": "Connelly Springs", "state": "NC", "lat": "35.7550", "lng": "-81.4971"}, {"name": "Macclesfield", "state": "NC", "lat": "35.7522", "lng": "-77.6703"}, {"name": "Durham", "state": "NC", "lat": "35.9795", "lng": "-78.9032"}, {"name": "Balfour", "state": "NC", "lat": "35.3494", "lng": "-82.4825"}, {"name": "Fairfield", "state": "NC", "lat": "35.5472", "lng": "-76.2261"}, {"name": "Polkton", "state": "NC", "lat": "35.0031", "lng": "-80.1963"}, {"name": "Catawba", "state": "NC", "lat": "35.7067", "lng": "-81.0659"}, {"name": "Wakulla", "state": "NC", "lat": "34.7970", "lng": "-79.2559"}, {"name": "Stantonsburg", "state": "NC", "lat": "35.6055", "lng": "-77.8200"}, {"name": "Pinetops", "state": "NC", "lat": "35.7912", "lng": "-77.6378"}, {"name": "Gaston", "state": "NC", "lat": "36.4965", "lng": "-77.6448"}, {"name": "Sandy Creek", "state": "NC", "lat": "34.2814", "lng": "-78.1531"}, {"name": "Lenoir", "state": "NC", "lat": "35.9097", "lng": "-81.5247"}, {"name": "Ingold", "state": "NC", "lat": "34.8312", "lng": "-78.3497"}, {"name": "Morganton", "state": "NC", "lat": "35.7408", "lng": "-81.7003"}, {"name": "Lincolnton", "state": "NC", "lat": "35.4747", "lng": "-81.2385"}, {"name": "Bethel", "state": "NC", "lat": "35.8072", "lng": "-77.3762"}, {"name": "Conetoe", "state": "NC", "lat": "35.8176", "lng": "-77.4569"}, {"name": "Dillsboro", "state": "NC", "lat": "35.3706", "lng": "-83.2526"}, {"name": "Rhodhiss", "state": "NC", "lat": "35.7683", "lng": "-81.4312"}, {"name": "Etowah", "state": "NC", "lat": "35.3061", "lng": "-82.5902"}, {"name": "Cornelius", "state": "NC", "lat": "35.4731", "lng": "-80.8822"}, {"name": "Ronda", "state": "NC", "lat": "36.2217", "lng": "-80.9432"}, {"name": "Apex", "state": "NC", "lat": "35.7246", "lng": "-78.8698"}, {"name": "Jackson Heights", "state": "NC", "lat": "35.2236", "lng": "-77.6333"}, {"name": "Marshall", "state": "NC", "lat": "35.7974", "lng": "-82.6818"}, {"name": "Forest City", "state": "NC", "lat": "35.3339", "lng": "-81.8702"}, {"name": "Sea Breeze", "state": "NC", "lat": "34.0699", "lng": "-77.8965"}, {"name": "Rockfish", "state": "NC", "lat": "34.9902", "lng": "-79.0694"}, {"name": "Hamilton", "state": "NC", "lat": "35.9443", "lng": "-77.2067"}, {"name": "Pilot Mountain", "state": "NC", "lat": "36.3854", "lng": "-80.4735"}, {"name": "Hickory", "state": "NC", "lat": "35.7426", "lng": "-81.3230"}, {"name": "Glen Alpine", "state": "NC", "lat": "35.7308", "lng": "-81.7826"}, {"name": "Belville", "state": "NC", "lat": "34.2195", "lng": "-77.9983"}, {"name": "Foxfire", "state": "NC", "lat": "35.1790", "lng": "-79.5639"}, {"name": "Pantego", "state": "NC", "lat": "35.5874", "lng": "-76.6594"}, {"name": "Cary", "state": "NC", "lat": "35.7817", "lng": "-78.8175"}, {"name": "Mountain Home", "state": "NC", "lat": "35.3708", "lng": "-82.5021"}, {"name": "Raleigh", "state": "NC", "lat": "35.8324", "lng": "-78.6438"}, {"name": "Macon", "state": "NC", "lat": "36.4396", "lng": "-78.0839"}, {"name": "Mars Hill", "state": "NC", "lat": "35.8281", "lng": "-82.5485"}, {"name": "Neuse Forest", "state": "NC", "lat": "34.9660", "lng": "-76.9401"}, {"name": "Vann Crossroads", "state": "NC", "lat": "35.1697", "lng": "-78.4026"}, {"name": "Rural Hall", "state": "NC", "lat": "36.2252", "lng": "-80.2974"}, {"name": "Sandyfield", "state": "NC", "lat": "34.3738", "lng": "-78.3000"}, {"name": "Watha", "state": "NC", "lat": "34.6516", "lng": "-77.9568"}, {"name": "Southern Shores", "state": "NC", "lat": "36.1205", "lng": "-75.7327"}, {"name": "Biltmore Forest", "state": "NC", "lat": "35.5348", "lng": "-82.5403"}, {"name": "Garner", "state": "NC", "lat": "35.6938", "lng": "-78.6199"}, {"name": "Lake Waccamaw", "state": "NC", "lat": "34.3141", "lng": "-78.5117"}, {"name": "Skippers Corner", "state": "NC", "lat": "34.3292", "lng": "-77.9141"}, {"name": "Milton", "state": "NC", "lat": "36.5372", "lng": "-79.2081"}, {"name": "Coats", "state": "NC", "lat": "35.4069", "lng": "-78.6684"}, {"name": "Windsor", "state": "NC", "lat": "35.9923", "lng": "-76.9392"}, {"name": "Warsaw", "state": "NC", "lat": "34.9987", "lng": "-78.0925"}, {"name": "Aulander", "state": "NC", "lat": "36.2280", "lng": "-77.1136"}, {"name": "Mills River", "state": "NC", "lat": "35.3853", "lng": "-82.5854"}, {"name": "Canton", "state": "NC", "lat": "35.5516", "lng": "-82.8406"}, {"name": "Asheboro", "state": "NC", "lat": "35.7157", "lng": "-79.8129"}, {"name": "Jefferson", "state": "NC", "lat": "36.4209", "lng": "-81.4686"}, {"name": "Bailey", "state": "NC", "lat": "35.7805", "lng": "-78.1129"}, {"name": "White Lake", "state": "NC", "lat": "34.6417", "lng": "-78.4969"}, {"name": "Fearrington Village", "state": "NC", "lat": "35.7996", "lng": "-79.0818"}, {"name": "Norman", "state": "NC", "lat": "35.1698", "lng": "-79.7231"}, {"name": "St. Pauls", "state": "NC", "lat": "34.8087", "lng": "-78.9751"}, {"name": "Statesville", "state": "NC", "lat": "35.7838", "lng": "-80.8711"}, {"name": "Madison", "state": "NC", "lat": "36.3868", "lng": "-79.9750"}, {"name": "Rougemont", "state": "NC", "lat": "36.2208", "lng": "-78.9206"}, {"name": "Ellenboro", "state": "NC", "lat": "35.3309", "lng": "-81.7612"}, {"name": "Kelford", "state": "NC", "lat": "36.1813", "lng": "-77.2243"}, {"name": "Troy", "state": "NC", "lat": "35.3652", "lng": "-79.8914"}, {"name": "Ivanhoe", "state": "NC", "lat": "34.5870", "lng": "-78.2447"}, {"name": "Robbinsville", "state": "NC", "lat": "35.3217", "lng": "-83.8094"}, {"name": "Landis", "state": "NC", "lat": "35.5484", "lng": "-80.6115"}, {"name": "Gulf", "state": "NC", "lat": "35.5597", "lng": "-79.2807"}, {"name": "Dundarrach", "state": "NC", "lat": "34.9247", "lng": "-79.1575"}, {"name": "Lansing", "state": "NC", "lat": "36.4989", "lng": "-81.5098"}, {"name": "Newland", "state": "NC", "lat": "36.0880", "lng": "-81.9274"}, {"name": "Bent Creek", "state": "NC", "lat": "35.5081", "lng": "-82.6176"}, {"name": "Rodanthe", "state": "NC", "lat": "35.5897", "lng": "-75.4660"}, {"name": "Oak City", "state": "NC", "lat": "35.9617", "lng": "-77.3040"}, {"name": "Murfreesboro", "state": "NC", "lat": "36.4421", "lng": "-77.0965"}, {"name": "Fairview", "state": "NC", "lat": "35.1545", "lng": "-80.5345"}, {"name": "Pinnacle", "state": "NC", "lat": "36.3230", "lng": "-80.4241"}, {"name": "Cedar Point", "state": "NC", "lat": "34.6862", "lng": "-77.0833"}, {"name": "Yanceyville", "state": "NC", "lat": "36.4109", "lng": "-79.3403"}, {"name": "Stanley", "state": "NC", "lat": "35.3552", "lng": "-81.0937"}, {"name": "Pittsboro", "state": "NC", "lat": "35.7255", "lng": "-79.1732"}, {"name": "Marvin", "state": "NC", "lat": "34.9890", "lng": "-80.8034"}, {"name": "Clayton", "state": "NC", "lat": "35.6594", "lng": "-78.4503"}, {"name": "Sylva", "state": "NC", "lat": "35.3754", "lng": "-83.2185"}, {"name": "Marietta", "state": "NC", "lat": "34.3682", "lng": "-79.1249"}, {"name": "Como", "state": "NC", "lat": "36.5011", "lng": "-77.0073"}, {"name": "Yadkinville", "state": "NC", "lat": "36.1310", "lng": "-80.6588"}, {"name": "Cove Creek", "state": "NC", "lat": "36.2763", "lng": "-81.7830"}, {"name": "Vanceboro", "state": "NC", "lat": "35.3030", "lng": "-77.1567"}, {"name": "Lucama", "state": "NC", "lat": "35.6447", "lng": "-78.0072"}, {"name": "Bell Arthur", "state": "NC", "lat": "35.5912", "lng": "-77.5127"}, {"name": "Turkey", "state": "NC", "lat": "34.9950", "lng": "-78.1841"}, {"name": "Saratoga", "state": "NC", "lat": "35.6537", "lng": "-77.7753"}, {"name": "Raemon", "state": "NC", "lat": "34.6229", "lng": "-79.3491"}, {"name": "Winfall", "state": "NC", "lat": "36.2111", "lng": "-76.4554"}, {"name": "Ashley Heights", "state": "NC", "lat": "35.0900", "lng": "-79.3739"}, {"name": "Roanoke Rapids", "state": "NC", "lat": "36.4452", "lng": "-77.6490"}, {"name": "Buies Creek", "state": "NC", "lat": "35.4127", "lng": "-78.7363"}, {"name": "Red Oak", "state": "NC", "lat": "36.0415", "lng": "-77.9065"}, {"name": "Centerville", "state": "NC", "lat": "36.1866", "lng": "-78.1114"}, {"name": "Valdese", "state": "NC", "lat": "35.7565", "lng": "-81.5632"}, {"name": "Taylortown", "state": "NC", "lat": "35.2146", "lng": "-79.4916"}, {"name": "St. Stephens", "state": "NC", "lat": "35.7641", "lng": "-81.2746"}, {"name": "Graham", "state": "NC", "lat": "36.0596", "lng": "-79.3898"}, {"name": "Woodland", "state": "NC", "lat": "36.3307", "lng": "-77.2147"}, {"name": "Morehead City", "state": "NC", "lat": "34.7304", "lng": "-76.7386"}, {"name": "Lewisville", "state": "NC", "lat": "36.1030", "lng": "-80.4164"}, {"name": "Pikeville", "state": "NC", "lat": "35.4971", "lng": "-77.9877"}, {"name": "Blue Clay Farms", "state": "NC", "lat": "34.3005", "lng": "-77.8916"}, {"name": "Spencer Mountain", "state": "NC", "lat": "35.3073", "lng": "-81.1101"}, {"name": "Pine Level", "state": "NC", "lat": "35.5033", "lng": "-78.2502"}, {"name": "McDonald", "state": "NC", "lat": "34.5537", "lng": "-79.1763"}, {"name": "Mountain View", "state": "NC", "lat": "35.6828", "lng": "-81.3683"}, {"name": "Swan Quarter", "state": "NC", "lat": "35.4109", "lng": "-76.3251"}, {"name": "Calypso", "state": "NC", "lat": "35.1548", "lng": "-78.1045"}, {"name": "Bald Head Island", "state": "NC", "lat": "33.8660", "lng": "-77.9864"}, {"name": "Selma", "state": "NC", "lat": "35.5436", "lng": "-78.2955"}, {"name": "Hobgood", "state": "NC", "lat": "36.0267", "lng": "-77.3940"}, {"name": "Arapahoe", "state": "NC", "lat": "35.0216", "lng": "-76.8260"}, {"name": "Walnut Creek", "state": "NC", "lat": "35.3050", "lng": "-77.8714"}, {"name": "Carrboro", "state": "NC", "lat": "35.9259", "lng": "-79.0877"}, {"name": "Kittrell", "state": "NC", "lat": "36.2218", "lng": "-78.4413"}, {"name": "Misenheimer", "state": "NC", "lat": "35.4818", "lng": "-80.2870"}, {"name": "Tryon", "state": "NC", "lat": "35.2086", "lng": "-82.2379"}, {"name": "Butner", "state": "NC", "lat": "36.1285", "lng": "-78.7501"}, {"name": "Mount Airy", "state": "NC", "lat": "36.5083", "lng": "-80.6155"}, {"name": "Blowing Rock", "state": "NC", "lat": "36.1291", "lng": "-81.6713"}, {"name": "Southmont", "state": "NC", "lat": "35.6536", "lng": "-80.2702"}, {"name": "Newport", "state": "NC", "lat": "34.7720", "lng": "-76.8771"}, {"name": "Wilmington", "state": "NC", "lat": "34.2101", "lng": "-77.8860"}, {"name": "Old Fort", "state": "NC", "lat": "35.6305", "lng": "-82.1777"}, {"name": "Saluda", "state": "NC", "lat": "35.2375", "lng": "-82.3469"}, {"name": "Spring Hope", "state": "NC", "lat": "35.9441", "lng": "-78.1090"}, {"name": "Caswell Beach", "state": "NC", "lat": "33.9074", "lng": "-78.0472"}, {"name": "Bunnlevel", "state": "NC", "lat": "35.3100", "lng": "-78.7725"}, {"name": "Mamers", "state": "NC", "lat": "35.4160", "lng": "-78.9390"}, {"name": "Millingport", "state": "NC", "lat": "35.3763", "lng": "-80.3113"}, {"name": "Lake Norman of Catawba", "state": "NC", "lat": "35.5995", "lng": "-80.9840"}, {"name": "Wade", "state": "NC", "lat": "35.1639", "lng": "-78.7371"}, {"name": "Wilkesboro", "state": "NC", "lat": "36.1417", "lng": "-81.1726"}, {"name": "Mineral Springs", "state": "NC", "lat": "34.9412", "lng": "-80.6842"}, {"name": "Momeyer", "state": "NC", "lat": "35.9592", "lng": "-78.0511"}, {"name": "Love Valley", "state": "NC", "lat": "35.9872", "lng": "-80.9835"}, {"name": "Stokesdale", "state": "NC", "lat": "36.2316", "lng": "-79.9834"}, {"name": "Ogden", "state": "NC", "lat": "34.2656", "lng": "-77.7965"}, {"name": "Walkertown", "state": "NC", "lat": "36.1575", "lng": "-80.1645"}, {"name": "Salem", "state": "NC", "lat": "35.6997", "lng": "-81.7003"}, {"name": "Beech Mountain", "state": "NC", "lat": "36.2105", "lng": "-81.8875"}, {"name": "Middlesex", "state": "NC", "lat": "35.7891", "lng": "-78.2042"}, {"name": "Jamesville", "state": "NC", "lat": "35.8121", "lng": "-76.9003"}, {"name": "Middleburg", "state": "NC", "lat": "36.3990", "lng": "-78.3235"}, {"name": "Boone", "state": "NC", "lat": "36.2111", "lng": "-81.6668"}, {"name": "Bolton", "state": "NC", "lat": "34.3174", "lng": "-78.3977"}, {"name": "Hatteras", "state": "NC", "lat": "35.2173", "lng": "-75.6873"}, {"name": "Cameron", "state": "NC", "lat": "35.3259", "lng": "-79.2540"}, {"name": "Southern Pines", "state": "NC", "lat": "35.1921", "lng": "-79.4042"}, {"name": "Hillsborough", "state": "NC", "lat": "36.0680", "lng": "-79.0994"}, {"name": "Cullowhee", "state": "NC", "lat": "35.3107", "lng": "-83.1815"}, {"name": "Fountain", "state": "NC", "lat": "35.6720", "lng": "-77.6308"}, {"name": "Tobaccoville", "state": "NC", "lat": "36.2256", "lng": "-80.3591"}, {"name": "Green Level", "state": "NC", "lat": "36.1232", "lng": "-79.3462"}, {"name": "Atlantic Beach", "state": "NC", "lat": "34.7011", "lng": "-76.7403"}, {"name": "Smithfield", "state": "NC", "lat": "35.5131", "lng": "-78.3495"}, {"name": "Roxboro", "state": "NC", "lat": "36.3905", "lng": "-78.9811"}, {"name": "Iron Station", "state": "NC", "lat": "35.4515", "lng": "-81.1568"}, {"name": "Webster", "state": "NC", "lat": "35.3500", "lng": "-83.2190"}, {"name": "Warrenton", "state": "NC", "lat": "36.3995", "lng": "-78.1575"}, {"name": "Pink Hill", "state": "NC", "lat": "35.0563", "lng": "-77.7436"}, {"name": "Harrells", "state": "NC", "lat": "34.7279", "lng": "-78.2015"}, {"name": "JAARS", "state": "NC", "lat": "34.8622", "lng": "-80.7489"}, {"name": "Kinston", "state": "NC", "lat": "35.2748", "lng": "-77.5937"}, {"name": "Wesley Chapel", "state": "NC", "lat": "34.9984", "lng": "-80.6906"}, {"name": "Magnolia", "state": "NC", "lat": "34.8965", "lng": "-78.0537"}, {"name": "Albemarle", "state": "NC", "lat": "35.3601", "lng": "-80.1919"}, {"name": "Weldon", "state": "NC", "lat": "36.4210", "lng": "-77.6135"}, {"name": "Fuquay-Varina", "state": "NC", "lat": "35.5961", "lng": "-78.7807"}, {"name": "Brices Creek", "state": "NC", "lat": "35.0505", "lng": "-77.0844"}, {"name": "Boiling Springs", "state": "NC", "lat": "35.2521", "lng": "-81.6636"}, {"name": "Lake Lure", "state": "NC", "lat": "35.4404", "lng": "-82.2064"}, {"name": "Maxton", "state": "NC", "lat": "34.7364", "lng": "-79.3527"}, {"name": "Tarboro", "state": "NC", "lat": "35.9046", "lng": "-77.5563"}, {"name": "Sedalia", "state": "NC", "lat": "36.0760", "lng": "-79.6208"}, {"name": "Carolina Beach", "state": "NC", "lat": "34.0396", "lng": "-77.8966"}, {"name": "Brunswick", "state": "NC", "lat": "34.2879", "lng": "-78.7083"}, {"name": "Linden", "state": "NC", "lat": "35.2546", "lng": "-78.7484"}, {"name": "Hoffman", "state": "NC", "lat": "35.0313", "lng": "-79.5491"}, {"name": "Asheville", "state": "NC", "lat": "35.5704", "lng": "-82.5537"}, {"name": "Castle Hayne", "state": "NC", "lat": "34.3583", "lng": "-77.9114"}, {"name": "Light Oak", "state": "NC", "lat": "35.2867", "lng": "-81.4775"}, {"name": "St. James", "state": "NC", "lat": "33.9467", "lng": "-78.1132"}, {"name": "Williamston", "state": "NC", "lat": "35.8468", "lng": "-77.0655"}, {"name": "Eden", "state": "NC", "lat": "36.5029", "lng": "-79.7421"}, {"name": "Grimesland", "state": "NC", "lat": "35.5685", "lng": "-77.2025"}, {"name": "Marble", "state": "NC", "lat": "35.1771", "lng": "-83.9265"}, {"name": "Faison", "state": "NC", "lat": "35.1164", "lng": "-78.1368"}, {"name": "Bethania", "state": "NC", "lat": "36.1808", "lng": "-80.3376"}, {"name": "Wake Forest", "state": "NC", "lat": "35.9634", "lng": "-78.5139"}, {"name": "Minnesott Beach", "state": "NC", "lat": "34.9858", "lng": "-76.8239"}, {"name": "Swannanoa", "state": "NC", "lat": "35.6008", "lng": "-82.3917"}, {"name": "Youngsville", "state": "NC", "lat": "36.0245", "lng": "-78.4809"}, {"name": "Eastover", "state": "NC", "lat": "35.0959", "lng": "-78.7862"}, {"name": "Waves", "state": "NC", "lat": "35.5672", "lng": "-75.4670"}, {"name": "Rutherfordton", "state": "NC", "lat": "35.3642", "lng": "-81.9613"}, {"name": "Havelock", "state": "NC", "lat": "34.9078", "lng": "-76.8987"}, {"name": "Foscoe", "state": "NC", "lat": "36.1535", "lng": "-81.7736"}, {"name": "Salemburg", "state": "NC", "lat": "35.0151", "lng": "-78.5028"}, {"name": "Indian Beach", "state": "NC", "lat": "34.6882", "lng": "-76.8876"}, {"name": "Millers Creek", "state": "NC", "lat": "36.1909", "lng": "-81.2356"}, {"name": "Broadway", "state": "NC", "lat": "35.4579", "lng": "-79.0547"}, {"name": "Princeville", "state": "NC", "lat": "35.8861", "lng": "-77.5194"}, {"name": "East Flat Rock", "state": "NC", "lat": "35.2802", "lng": "-82.4171"}, {"name": "Lowell", "state": "NC", "lat": "35.2689", "lng": "-81.1013"}, {"name": "Spruce Pine", "state": "NC", "lat": "35.9104", "lng": "-82.0731"}, {"name": "Oakboro", "state": "NC", "lat": "35.2283", "lng": "-80.3340"}, {"name": "Oxford", "state": "NC", "lat": "36.3156", "lng": "-78.5848"}, {"name": "Fairplains", "state": "NC", "lat": "36.1954", "lng": "-81.1559"}, {"name": "Sawmills", "state": "NC", "lat": "35.8162", "lng": "-81.4779"}, {"name": "Micro", "state": "NC", "lat": "35.5623", "lng": "-78.2037"}, {"name": "Hightsville", "state": "NC", "lat": "34.2667", "lng": "-77.9342"}, {"name": "Walnut Cove", "state": "NC", "lat": "36.2943", "lng": "-80.1407"}, {"name": "Zebulon", "state": "NC", "lat": "35.8318", "lng": "-78.3162"}, {"name": "Fruitland", "state": "NC", "lat": "35.3928", "lng": "-82.4120"}, {"name": "Ramseur", "state": "NC", "lat": "35.7372", "lng": "-79.6543"}, {"name": "Dunn", "state": "NC", "lat": "35.3113", "lng": "-78.6129"}, {"name": "Lawndale", "state": "NC", "lat": "35.4142", "lng": "-81.5631"}, {"name": "Nashville", "state": "NC", "lat": "35.9693", "lng": "-77.9552"}, {"name": "Matthews", "state": "NC", "lat": "35.1195", "lng": "-80.7101"}, {"name": "Aberdeen", "state": "NC", "lat": "35.1351", "lng": "-79.4319"}, {"name": "Weaverville", "state": "NC", "lat": "35.6962", "lng": "-82.5581"}, {"name": "Mount Pleasant", "state": "NC", "lat": "35.3752", "lng": "-80.4496"}, {"name": "East Bend", "state": "NC", "lat": "36.2178", "lng": "-80.5085"}, {"name": "Fairfield Harbour", "state": "NC", "lat": "35.0706", "lng": "-76.9571"}, {"name": "Winton", "state": "NC", "lat": "36.3899", "lng": "-76.9349"}, {"name": "Bennett", "state": "NC", "lat": "35.5664", "lng": "-79.5400"}, {"name": "Rich Square", "state": "NC", "lat": "36.2739", "lng": "-77.2839"}, {"name": "King", "state": "NC", "lat": "36.2767", "lng": "-80.3561"}, {"name": "River Road", "state": "NC", "lat": "35.5107", "lng": "-76.9898"}, {"name": "Newton Grove", "state": "NC", "lat": "35.2522", "lng": "-78.3552"}, {"name": "Dana", "state": "NC", "lat": "35.3239", "lng": "-82.3722"}, {"name": "West Marion", "state": "NC", "lat": "35.6525", "lng": "-82.0191"}, {"name": "Eureka", "state": "NC", "lat": "35.5414", "lng": "-77.8763"}, {"name": "Wilson", "state": "NC", "lat": "35.7312", "lng": "-77.9284"}, {"name": "Shallotte", "state": "NC", "lat": "33.9755", "lng": "-78.3807"}, {"name": "Caroleen", "state": "NC", "lat": "35.2811", "lng": "-81.7914"}, {"name": "Wilson's Mills", "state": "NC", "lat": "35.5842", "lng": "-78.3601"}, {"name": "South Weldon", "state": "NC", "lat": "36.4135", "lng": "-77.6024"}, {"name": "Four Oaks", "state": "NC", "lat": "35.4503", "lng": "-78.4172"}, {"name": "Clemmons", "state": "NC", "lat": "36.0318", "lng": "-80.3861"}, {"name": "Louisburg", "state": "NC", "lat": "36.0979", "lng": "-78.3010"}, {"name": "Elrod", "state": "NC", "lat": "34.6072", "lng": "-79.2307"}, {"name": "Parkton", "state": "NC", "lat": "34.9028", "lng": "-79.0098"}, {"name": "Kitty Hawk", "state": "NC", "lat": "36.0717", "lng": "-75.7184"}, {"name": "McFarlan", "state": "NC", "lat": "34.8148", "lng": "-79.9766"}, {"name": "Norlina", "state": "NC", "lat": "36.4451", "lng": "-78.1952"}, {"name": "Bethlehem", "state": "NC", "lat": "35.8162", "lng": "-81.2962"}, {"name": "Hayesville", "state": "NC", "lat": "35.0463", "lng": "-83.8181"}, {"name": "Silver City", "state": "NC", "lat": "34.9972", "lng": "-79.2292"}, {"name": "Vandemere", "state": "NC", "lat": "35.1886", "lng": "-76.6651"}, {"name": "Gloucester", "state": "NC", "lat": "34.7292", "lng": "-76.5390"}, {"name": "Hassell", "state": "NC", "lat": "35.9084", "lng": "-77.2762"}, {"name": "Candor", "state": "NC", "lat": "35.2964", "lng": "-79.7323"}, {"name": "Whispering Pines", "state": "NC", "lat": "35.2538", "lng": "-79.3753"}, {"name": "Northlakes", "state": "NC", "lat": "35.7755", "lng": "-81.3669"}, {"name": "Bridgeton", "state": "NC", "lat": "35.1348", "lng": "-77.0160"}, {"name": "Charlotte", "state": "NC", "lat": "35.2079", "lng": "-80.8304"}, {"name": "Tabor City", "state": "NC", "lat": "34.1538", "lng": "-78.8737"}, {"name": "North Wilkesboro", "state": "NC", "lat": "36.1728", "lng": "-81.1391"}, {"name": "Saxapahaw", "state": "NC", "lat": "35.9489", "lng": "-79.3210"}, {"name": "Delco", "state": "NC", "lat": "34.3188", "lng": "-78.2267"}, {"name": "Coinjock", "state": "NC", "lat": "36.3513", "lng": "-75.9527"}, {"name": "Potters Hill", "state": "NC", "lat": "34.9645", "lng": "-77.6983"}, {"name": "Laurel Hill", "state": "NC", "lat": "34.8102", "lng": "-79.5460"}, {"name": "Carolina Shores", "state": "NC", "lat": "33.9077", "lng": "-78.5738"}, {"name": "Icard", "state": "NC", "lat": "35.7253", "lng": "-81.4582"}, {"name": "Leland", "state": "NC", "lat": "34.2040", "lng": "-78.0280"}, {"name": "Whiteville", "state": "NC", "lat": "34.3306", "lng": "-78.7013"}, {"name": "Cooleemee", "state": "NC", "lat": "35.8126", "lng": "-80.5561"}, {"name": "Belmont", "state": "NC", "lat": "35.2214", "lng": "-81.0403"}, {"name": "Monroe", "state": "NC", "lat": "35.0061", "lng": "-80.5593"}, {"name": "High Shoals", "state": "NC", "lat": "35.3957", "lng": "-81.2047"}, {"name": "Varnamtown", "state": "NC", "lat": "33.9432", "lng": "-78.2360"}, {"name": "Robersonville", "state": "NC", "lat": "35.8248", "lng": "-77.2529"}, {"name": "Ruth", "state": "NC", "lat": "35.3824", "lng": "-81.9448"}, {"name": "Creswell", "state": "NC", "lat": "35.8743", "lng": "-76.4033"}, {"name": "South Rosemary", "state": "NC", "lat": "36.4463", "lng": "-77.7065"}, {"name": "Southport", "state": "NC", "lat": "33.9411", "lng": "-78.0205"}, {"name": "Shelby", "state": "NC", "lat": "35.2904", "lng": "-81.5451"}, {"name": "Cherokee", "state": "NC", "lat": "35.4860", "lng": "-83.3011"}, {"name": "Belvoir", "state": "NC", "lat": "35.7111", "lng": "-77.4700"}, {"name": "Sims", "state": "NC", "lat": "35.7601", "lng": "-78.0589"}, {"name": "Salvo", "state": "NC", "lat": "35.5490", "lng": "-75.4689"}, {"name": "Badin", "state": "NC", "lat": "35.4072", "lng": "-80.1184"}, {"name": "Lake Royale", "state": "NC", "lat": "35.9666", "lng": "-78.1960"}, {"name": "Long View", "state": "NC", "lat": "35.7217", "lng": "-81.3858"}, {"name": "Elizabethtown", "state": "NC", "lat": "34.6238", "lng": "-78.6097"}, {"name": "Sparta", "state": "NC", "lat": "36.5035", "lng": "-81.1218"}, {"name": "Fremont", "state": "NC", "lat": "35.5436", "lng": "-77.9751"}, {"name": "Plain View", "state": "NC", "lat": "35.2457", "lng": "-78.5634"}, {"name": "Jacksonville", "state": "NC", "lat": "34.7287", "lng": "-77.3940"}, {"name": "Stallings", "state": "NC", "lat": "35.1090", "lng": "-80.6594"}, {"name": "Harkers Island", "state": "NC", "lat": "34.7002", "lng": "-76.5612"}, {"name": "Broad Creek", "state": "NC", "lat": "34.7304", "lng": "-76.9241"}, {"name": "Duck", "state": "NC", "lat": "36.1836", "lng": "-75.7559"}, {"name": "Lewiston Woodville", "state": "NC", "lat": "36.1141", "lng": "-77.1811"}, {"name": "Cliffside", "state": "NC", "lat": "35.2480", "lng": "-81.7653"}, {"name": "Kings Mountain", "state": "NC", "lat": "35.2348", "lng": "-81.3501"}, {"name": "Andrews", "state": "NC", "lat": "35.1994", "lng": "-83.8258"}, {"name": "Stem", "state": "NC", "lat": "36.1963", "lng": "-78.7201"}, {"name": "Faith", "state": "NC", "lat": "35.5901", "lng": "-80.4581"}, {"name": "Stonewall", "state": "NC", "lat": "35.1371", "lng": "-76.7405"}, {"name": "Clinton", "state": "NC", "lat": "35.0005", "lng": "-78.3311"}, {"name": "Fallston", "state": "NC", "lat": "35.4289", "lng": "-81.5023"}, {"name": "Barker Heights", "state": "NC", "lat": "35.3104", "lng": "-82.4412"}, {"name": "Spring Lake", "state": "NC", "lat": "35.1841", "lng": "-78.9962"}, {"name": "Lake Santeetlah", "state": "NC", "lat": "35.3636", "lng": "-83.8664"}, {"name": "La Grange", "state": "NC", "lat": "35.3064", "lng": "-77.7890"}, {"name": "Taylorsville", "state": "NC", "lat": "35.9175", "lng": "-81.1754"}, {"name": "Conover", "state": "NC", "lat": "35.7156", "lng": "-81.2168"}, {"name": "Butters", "state": "NC", "lat": "34.5603", "lng": "-78.8489"}, {"name": "Murphy", "state": "NC", "lat": "35.0932", "lng": "-84.0279"}, {"name": "Engelhard", "state": "NC", "lat": "35.5092", "lng": "-76.0096"}, {"name": "Hobucken", "state": "NC", "lat": "35.2544", "lng": "-76.5712"}, {"name": "Mulberry", "state": "NC", "lat": "36.2257", "lng": "-81.1653"}, {"name": "Beaufort", "state": "NC", "lat": "34.7309", "lng": "-76.6487"}, {"name": "Marshallberg", "state": "NC", "lat": "34.7267", "lng": "-76.5150"}, {"name": "Kings Grant", "state": "NC", "lat": "34.2665", "lng": "-77.8659"}, {"name": "Rowland", "state": "NC", "lat": "34.5362", "lng": "-79.2928"}, {"name": "Mocksville", "state": "NC", "lat": "35.9002", "lng": "-80.5620"}, {"name": "Cleveland", "state": "NC", "lat": "35.7327", "lng": "-80.6815"}, {"name": "Parmele", "state": "NC", "lat": "35.8190", "lng": "-77.3146"}, {"name": "Boonville", "state": "NC", "lat": "36.2340", "lng": "-80.7093"}, {"name": "Fletcher", "state": "NC", "lat": "35.4316", "lng": "-82.5038"}, {"name": "Manteo", "state": "NC", "lat": "35.9013", "lng": "-75.6610"}, {"name": "Unionville", "state": "NC", "lat": "35.0720", "lng": "-80.5174"}, {"name": "White Oak", "state": "NC", "lat": "34.7396", "lng": "-78.7186"}, {"name": "Fayetteville", "state": "NC", "lat": "35.0846", "lng": "-78.9776"}, {"name": "Cerro Gordo", "state": "NC", "lat": "34.3225", "lng": "-78.9287"}, {"name": "Lumber Bridge", "state": "NC", "lat": "34.8898", "lng": "-79.0724"}, {"name": "Staley", "state": "NC", "lat": "35.7979", "lng": "-79.5517"}, {"name": "Mar-Mac", "state": "NC", "lat": "35.3345", "lng": "-78.0545"}, {"name": "Edenton", "state": "NC", "lat": "36.0580", "lng": "-76.6008"}, {"name": "Spindale", "state": "NC", "lat": "35.3599", "lng": "-81.9232"}, {"name": "Reidsville", "state": "NC", "lat": "36.3379", "lng": "-79.6727"}, {"name": "Autryville", "state": "NC", "lat": "34.9965", "lng": "-78.6412"}, {"name": "Gatesville", "state": "NC", "lat": "36.4072", "lng": "-76.7566"}, {"name": "Frisco", "state": "NC", "lat": "35.2331", "lng": "-75.6289"}, {"name": "Castalia", "state": "NC", "lat": "36.0823", "lng": "-78.0576"}, {"name": "Biscoe", "state": "NC", "lat": "35.3585", "lng": "-79.7816"}, {"name": "Bayshore", "state": "NC", "lat": "34.2893", "lng": "-77.8025"}, {"name": "Cordova", "state": "NC", "lat": "34.9103", "lng": "-79.8120"}, {"name": "Toast", "state": "NC", "lat": "36.4966", "lng": "-80.6346"}, {"name": "River Bend", "state": "NC", "lat": "35.0717", "lng": "-77.1504"}, {"name": "Trent Woods", "state": "NC", "lat": "35.0810", "lng": "-77.0945"}, {"name": "White Plains", "state": "NC", "lat": "36.4451", "lng": "-80.6351"}, {"name": "Maysville", "state": "NC", "lat": "34.9069", "lng": "-77.2323"}, {"name": "Bayboro", "state": "NC", "lat": "35.1474", "lng": "-76.7692"}, {"name": "Kingstown", "state": "NC", "lat": "35.3621", "lng": "-81.6200"}, {"name": "Hudson", "state": "NC", "lat": "35.8475", "lng": "-81.4864"}, {"name": "Crossnore", "state": "NC", "lat": "36.0222", "lng": "-81.9308"}, {"name": "Topsail Beach", "state": "NC", "lat": "34.3744", "lng": "-77.6321"}, {"name": "West Canton", "state": "NC", "lat": "35.5384", "lng": "-82.8671"}, {"name": "Surf City", "state": "NC", "lat": "34.4345", "lng": "-77.5643"}, {"name": "Moyock", "state": "NC", "lat": "36.5165", "lng": "-76.1728"}, {"name": "Mooresboro", "state": "NC", "lat": "35.2992", "lng": "-81.6986"}, {"name": "Chapel Hill", "state": "NC", "lat": "35.9270", "lng": "-79.0391"}, {"name": "Bonnetsville", "state": "NC", "lat": "34.9993", "lng": "-78.3962"}, {"name": "Erwin", "state": "NC", "lat": "35.3226", "lng": "-78.6734"}, {"name": "Lake Park", "state": "NC", "lat": "35.0848", "lng": "-80.6349"}, {"name": "Wrightsboro", "state": "NC", "lat": "34.2895", "lng": "-77.9217"}, {"name": "Red Cross", "state": "NC", "lat": "35.2659", "lng": "-80.3623"}, {"name": "Wingate", "state": "NC", "lat": "34.9855", "lng": "-80.4496"}, {"name": "Washington Park", "state": "NC", "lat": "35.5328", "lng": "-77.0316"}, {"name": "Bear Grass", "state": "NC", "lat": "35.7660", "lng": "-77.1291"}, {"name": "Brevard", "state": "NC", "lat": "35.2439", "lng": "-82.7265"}, {"name": "Stony Point", "state": "NC", "lat": "35.8669", "lng": "-81.0470"}, {"name": "Pinetown", "state": "NC", "lat": "35.6111", "lng": "-76.8558"}, {"name": "Highlands", "state": "NC", "lat": "35.0539", "lng": "-83.1976"}, {"name": "Siler City", "state": "NC", "lat": "35.7252", "lng": "-79.4558"}, {"name": "Waxhaw", "state": "NC", "lat": "34.9364", "lng": "-80.7437"}, {"name": "Rocky Point", "state": "NC", "lat": "34.4441", "lng": "-77.8909"}, {"name": "Holly Ridge", "state": "NC", "lat": "34.4952", "lng": "-77.5271"}, {"name": "East Rockingham", "state": "NC", "lat": "34.9116", "lng": "-79.7660"}, {"name": "Riegelwood", "state": "NC", "lat": "34.3444", "lng": "-78.2198"}, {"name": "Ansonville", "state": "NC", "lat": "35.1042", "lng": "-80.1098"}, {"name": "Askewville", "state": "NC", "lat": "36.1116", "lng": "-76.9412"}, {"name": "Sugar Mountain", "state": "NC", "lat": "36.1270", "lng": "-81.8649"}, {"name": "Harrisburg", "state": "NC", "lat": "35.3126", "lng": "-80.6490"}, {"name": "Chadbourn", "state": "NC", "lat": "34.3250", "lng": "-78.8250"}, {"name": "Hemby Bridge", "state": "NC", "lat": "35.1058", "lng": "-80.6258"}, {"name": "Wrightsville Beach", "state": "NC", "lat": "34.2130", "lng": "-77.7980"}, {"name": "Rex", "state": "NC", "lat": "34.8507", "lng": "-79.0469"}, {"name": "Oriental", "state": "NC", "lat": "35.0359", "lng": "-76.6816"}, {"name": "Jamestown", "state": "NC", "lat": "35.9984", "lng": "-79.9353"}, {"name": "Winston-Salem", "state": "NC", "lat": "36.1029", "lng": "-80.2610"}, {"name": "Seven Devils", "state": "NC", "lat": "36.1493", "lng": "-81.8114"}, {"name": "Boiling Spring Lakes", "state": "NC", "lat": "34.0322", "lng": "-78.0680"}, {"name": "Gibsonville", "state": "NC", "lat": "36.0991", "lng": "-79.5418"}, {"name": "Hollister", "state": "NC", "lat": "36.2593", "lng": "-77.9363"}, {"name": "Peachland", "state": "NC", "lat": "34.9931", "lng": "-80.2660"}, {"name": "Granite Quarry", "state": "NC", "lat": "35.6126", "lng": "-80.4484"}, {"name": "Rockwell", "state": "NC", "lat": "35.5538", "lng": "-80.4072"}, {"name": "Wendell", "state": "NC", "lat": "35.7823", "lng": "-78.3959"}, {"name": "Ocracoke", "state": "NC", "lat": "35.1264", "lng": "-75.9212"}, {"name": "Five Points", "state": "NC", "lat": "35.0154", "lng": "-79.3513"}, {"name": "Aquadale", "state": "NC", "lat": "35.2244", "lng": "-80.2236"}, {"name": "Keener", "state": "NC", "lat": "35.1131", "lng": "-78.3094"}, {"name": "Fair Bluff", "state": "NC", "lat": "34.3126", "lng": "-79.0333"}, {"name": "Moravian Falls", "state": "NC", "lat": "36.1069", "lng": "-81.1808"}, {"name": "Dallas", "state": "NC", "lat": "35.3167", "lng": "-81.1826"}, {"name": "Garysburg", "state": "NC", "lat": "36.4479", "lng": "-77.5603"}, {"name": "Cove City", "state": "NC", "lat": "35.1890", "lng": "-77.3206"}, {"name": "Kelly", "state": "NC", "lat": "34.4639", "lng": "-78.3109"}, {"name": "Claremont", "state": "NC", "lat": "35.7102", "lng": "-81.1533"}, {"name": "Pleasant Hill", "state": "NC", "lat": "36.2580", "lng": "-80.8904"}, {"name": "Ayden", "state": "NC", "lat": "35.4694", "lng": "-77.4167"}, {"name": "Pembroke", "state": "NC", "lat": "34.6766", "lng": "-79.1934"}, {"name": "Forest Oaks", "state": "NC", "lat": "35.9889", "lng": "-79.7079"}, {"name": "Locust", "state": "NC", "lat": "35.2687", "lng": "-80.4368"}, {"name": "Woodfin", "state": "NC", "lat": "35.6458", "lng": "-82.5914"}, {"name": "Mount Olive", "state": "NC", "lat": "35.1996", "lng": "-78.0664"}, {"name": "Hamlet", "state": "NC", "lat": "34.8890", "lng": "-79.7098"}, {"name": "Mint Hill", "state": "NC", "lat": "35.1781", "lng": "-80.6532"}, {"name": "Lake Junaluska", "state": "NC", "lat": "35.5305", "lng": "-82.9749"}, {"name": "Avery Creek", "state": "NC", "lat": "35.4651", "lng": "-82.5719"}, {"name": "Kernersville", "state": "NC", "lat": "36.1065", "lng": "-80.0847"}, {"name": "Elm City", "state": "NC", "lat": "35.8087", "lng": "-77.8622"}, {"name": "Haw River", "state": "NC", "lat": "36.0925", "lng": "-79.3615"}, {"name": "Archer Lodge", "state": "NC", "lat": "35.6907", "lng": "-78.3749"}, {"name": "Littleton", "state": "NC", "lat": "36.4343", "lng": "-77.9110"}, {"name": "Avon", "state": "NC", "lat": "35.3467", "lng": "-75.5069"}, {"name": "McLeansville", "state": "NC", "lat": "36.1045", "lng": "-79.6554"}, {"name": "Northchase", "state": "NC", "lat": "34.3049", "lng": "-77.8754"}, {"name": "Cherryville", "state": "NC", "lat": "35.3844", "lng": "-81.3781"}, {"name": "Gibson", "state": "NC", "lat": "34.7595", "lng": "-79.6069"}, {"name": "East Arcadia", "state": "NC", "lat": "34.3816", "lng": "-78.3231"}, {"name": "Atlantic", "state": "NC", "lat": "34.8823", "lng": "-76.3440"}, {"name": "Lattimore", "state": "NC", "lat": "35.3154", "lng": "-81.6602"}, {"name": "Severn", "state": "NC", "lat": "36.5142", "lng": "-77.1893"}, {"name": "Royal Pines", "state": "NC", "lat": "35.4783", "lng": "-82.5038"}, {"name": "Murraysville", "state": "NC", "lat": "34.2919", "lng": "-77.8429"}, {"name": "Tyro", "state": "NC", "lat": "35.7997", "lng": "-80.3765"}, {"name": "Speed", "state": "NC", "lat": "35.9684", "lng": "-77.4444"}, {"name": "Seaboard", "state": "NC", "lat": "36.4907", "lng": "-77.4419"}, {"name": "Walstonburg", "state": "NC", "lat": "35.5961", "lng": "-77.6980"}, {"name": "Archdale", "state": "NC", "lat": "35.9034", "lng": "-79.9592"}, {"name": "Wallace", "state": "NC", "lat": "34.7378", "lng": "-77.9909"}, {"name": "China Grove", "state": "NC", "lat": "35.5718", "lng": "-80.5790"}, {"name": "Lasker", "state": "NC", "lat": "36.3502", "lng": "-77.3058"}, {"name": "Altamahaw", "state": "NC", "lat": "36.1868", "lng": "-79.5051"}, {"name": "Elkin", "state": "NC", "lat": "36.2621", "lng": "-80.8443"}, {"name": "Powellsville", "state": "NC", "lat": "36.2253", "lng": "-76.9316"}, {"name": "Harrellsville", "state": "NC", "lat": "36.3016", "lng": "-76.7918"}, {"name": "Cashiers", "state": "NC", "lat": "35.1116", "lng": "-83.0976"}, {"name": "Midland", "state": "NC", "lat": "35.2450", "lng": "-80.5210"}, {"name": "New Bern", "state": "NC", "lat": "35.0955", "lng": "-77.0723"}, {"name": "Chimney Rock Village", "state": "NC", "lat": "35.4503", "lng": "-82.2550"}, {"name": "Trinity", "state": "NC", "lat": "35.8756", "lng": "-80.0093"}, {"name": "Richfield", "state": "NC", "lat": "35.4703", "lng": "-80.2575"}, {"name": "Brookford", "state": "NC", "lat": "35.7031", "lng": "-81.3453"}, {"name": "Orrum", "state": "NC", "lat": "34.4667", "lng": "-79.0089"}, {"name": "Seven Lakes", "state": "NC", "lat": "35.2647", "lng": "-79.5865"}, {"name": "Bayview", "state": "NC", "lat": "35.4414", "lng": "-76.7928"}, {"name": "Camden", "state": "NC", "lat": "36.3250", "lng": "-76.1700"}, {"name": "Roseboro", "state": "NC", "lat": "34.9536", "lng": "-78.5121"}, {"name": "Seven Springs", "state": "NC", "lat": "35.2248", "lng": "-77.8453"}, {"name": "Mayodan", "state": "NC", "lat": "36.4210", "lng": "-79.9675"}, {"name": "Northwest", "state": "NC", "lat": "34.3149", "lng": "-78.1454"}, {"name": "Columbia", "state": "NC", "lat": "35.9201", "lng": "-76.2420"}, {"name": "Sunbury", "state": "NC", "lat": "36.4469", "lng": "-76.6127"}, {"name": "Bogue", "state": "NC", "lat": "34.6980", "lng": "-77.0311"}, {"name": "Kenly", "state": "NC", "lat": "35.5886", "lng": "-78.1368"}, {"name": "North Topsail Beach", "state": "NC", "lat": "34.4931", "lng": "-77.4338"}, {"name": "Lumberton", "state": "NC", "lat": "34.6312", "lng": "-79.0186"}, {"name": "Clyde", "state": "NC", "lat": "35.5330", "lng": "-82.9107"}, {"name": "Buxton", "state": "NC", "lat": "35.2608", "lng": "-75.5392"}, {"name": "Enfield", "state": "NC", "lat": "36.1802", "lng": "-77.6678"}, {"name": "Enochville", "state": "NC", "lat": "35.5205", "lng": "-80.6646"}, {"name": "Scotch Meadows", "state": "NC", "lat": "34.6890", "lng": "-79.5179"}, {"name": "Kill Devil Hills", "state": "NC", "lat": "36.0167", "lng": "-75.6699"}, {"name": "Lilesville", "state": "NC", "lat": "34.9675", "lng": "-79.9845"}, {"name": "Gastonia", "state": "NC", "lat": "35.2494", "lng": "-81.1853"}, {"name": "Rennert", "state": "NC", "lat": "34.8141", "lng": "-79.0791"}, {"name": "James City", "state": "NC", "lat": "35.0592", "lng": "-77.0200"}, {"name": "Banner Elk", "state": "NC", "lat": "36.1587", "lng": "-81.8679"}, {"name": "Porters Neck", "state": "NC", "lat": "34.2942", "lng": "-77.7695"}, {"name": "Halifax", "state": "NC", "lat": "36.3255", "lng": "-77.5901"}, {"name": "Kenansville", "state": "NC", "lat": "34.9596", "lng": "-77.9661"}, {"name": "Randleman", "state": "NC", "lat": "35.8165", "lng": "-79.8066"}, {"name": "Black Creek", "state": "NC", "lat": "35.6366", "lng": "-77.9331"}, {"name": "Hiddenite", "state": "NC", "lat": "35.9053", "lng": "-81.0860"}, {"name": "Everetts", "state": "NC", "lat": "35.8347", "lng": "-77.1723"}, {"name": "Rocky Mount", "state": "NC", "lat": "35.9676", "lng": "-77.8047"}, {"name": "Swepsonville", "state": "NC", "lat": "36.0285", "lng": "-79.3550"}, {"name": "Hampstead", "state": "NC", "lat": "34.3627", "lng": "-77.7318"}, {"name": "Ossipee", "state": "NC", "lat": "36.1678", "lng": "-79.5135"}, {"name": "Greensboro", "state": "NC", "lat": "36.0956", "lng": "-79.8268"}, {"name": "Deercroft", "state": "NC", "lat": "34.9592", "lng": "-79.4351"}, {"name": "Alliance", "state": "NC", "lat": "35.1435", "lng": "-76.8084"}, {"name": "Conway", "state": "NC", "lat": "36.4371", "lng": "-77.2288"}, {"name": "Washington", "state": "NC", "lat": "35.5587", "lng": "-77.0546"}, {"name": "Weddington", "state": "NC", "lat": "35.0228", "lng": "-80.7383"}, {"name": "Waco", "state": "NC", "lat": "35.3617", "lng": "-81.4287"}, {"name": "Atkinson", "state": "NC", "lat": "34.5275", "lng": "-78.1697"}, {"name": "Pleasant Garden", "state": "NC", "lat": "35.9595", "lng": "-79.7598"}, {"name": "Stoneville", "state": "NC", "lat": "36.4653", "lng": "-79.9064"}, {"name": "Cricket", "state": "NC", "lat": "36.1687", "lng": "-81.1932"}, {"name": "Laurinburg", "state": "NC", "lat": "34.7596", "lng": "-79.4781"}, {"name": "Holly Springs", "state": "NC", "lat": "35.6540", "lng": "-78.8403"}, {"name": "Sharpsburg", "state": "NC", "lat": "35.8663", "lng": "-77.8306"}, {"name": "Carthage", "state": "NC", "lat": "35.3223", "lng": "-79.4116"}, {"name": "Delway", "state": "NC", "lat": "34.8102", "lng": "-78.2169"}, {"name": "Maury", "state": "NC", "lat": "35.4792", "lng": "-77.5902"}, {"name": "Sneads Ferry", "state": "NC", "lat": "34.5564", "lng": "-77.3824"}, {"name": "Scotland Neck", "state": "NC", "lat": "36.1309", "lng": "-77.4214"}, {"name": "Shannon", "state": "NC", "lat": "34.8477", "lng": "-79.1395"}, {"name": "Whitsett", "state": "NC", "lat": "36.0784", "lng": "-79.5721"}, {"name": "Star", "state": "NC", "lat": "35.3992", "lng": "-79.7832"}, {"name": "Raeford", "state": "NC", "lat": "34.9809", "lng": "-79.2291"}, {"name": "Bermuda Run", "state": "NC", "lat": "36.0032", "lng": "-80.4310"}, {"name": "Jackson", "state": "NC", "lat": "36.3901", "lng": "-77.4193"}, {"name": "Calabash", "state": "NC", "lat": "33.8945", "lng": "-78.5571"}, {"name": "Edneyville", "state": "NC", "lat": "35.4025", "lng": "-82.3371"}, {"name": "Mooresville", "state": "NC", "lat": "35.5849", "lng": "-80.8266"}, {"name": "Summerfield", "state": "NC", "lat": "36.1973", "lng": "-79.8999"}, {"name": "Simpson", "state": "NC", "lat": "35.5752", "lng": "-77.2789"}]