[{"name": "Langdon", "state": "ND", "lat": "48.7624", "lng": "-98.3747"}, {"name": "Devils Lake", "state": "ND", "lat": "48.1131", "lng": "-98.8753"}, {"name": "Wolford", "state": "ND", "lat": "48.4975", "lng": "-99.7038"}, {"name": "Churchs Ferry", "state": "ND", "lat": "48.2686", "lng": "-99.1944"}, {"name": "Leith", "state": "ND", "lat": "46.3626", "lng": "-101.6385"}, {"name": "Richardton", "state": "ND", "lat": "46.8841", "lng": "-102.3332"}, {"name": "Mercer", "state": "ND", "lat": "47.4905", "lng": "-100.7104"}, {"name": "Jessie", "state": "ND", "lat": "47.5402", "lng": "-98.2291"}, {"name": "Bismarck", "state": "ND", "lat": "46.8140", "lng": "-100.7695"}, {"name": "Heimdal", "state": "ND", "lat": "47.7926", "lng": "-99.6528"}, {"name": "East Fairview", "state": "ND", "lat": "47.8554", "lng": "-104.0375"}, {"name": "Burlington", "state": "ND", "lat": "48.2573", "lng": "-101.4146"}, {"name": "Petersburg", "state": "ND", "lat": "48.0132", "lng": "-98.0004"}, {"name": "Dickinson", "state": "ND", "lat": "46.8918", "lng": "-102.7924"}, {"name": "Regan", "state": "ND", "lat": "47.1568", "lng": "-100.5273"}, {"name": "Calio", "state": "ND", "lat": "48.6238", "lng": "-98.9380"}, {"name": "Amenia", "state": "ND", "lat": "47.0065", "lng": "-97.2241"}, {"name": "Hannah", "state": "ND", "lat": "48.9729", "lng": "-98.6903"}, {"name": "De Lamere", "state": "ND", "lat": "46.2668", "lng": "-97.3332"}, {"name": "Golva", "state": "ND", "lat": "46.7347", "lng": "-103.9829"}, {"name": "Lignite", "state": "ND", "lat": "48.8772", "lng": "-102.5645"}, {"name": "Willow City", "state": "ND", "lat": "48.6046", "lng": "-100.2934"}, {"name": "Rolette", "state": "ND", "lat": "48.6609", "lng": "-99.8417"}, {"name": "Casselton", "state": "ND", "lat": "46.8970", "lng": "-97.2129"}, {"name": "Osnabrock", "state": "ND", "lat": "48.6699", "lng": "-98.1489"}, {"name": "Emerado", "state": "ND", "lat": "47.9241", "lng": "-97.3655"}, {"name": "Marion", "state": "ND", "lat": "46.6091", "lng": "-98.3375"}, {"name": "Shell Valley", "state": "ND", "lat": "48.8108", "lng": "-99.8273"}, {"name": "Inkster", "state": "ND", "lat": "48.1513", "lng": "-97.6442"}, {"name": "Sanborn", "state": "ND", "lat": "46.9428", "lng": "-98.2238"}, {"name": "Springbrook", "state": "ND", "lat": "48.2521", "lng": "-103.4618"}, {"name": "East Dunseith", "state": "ND", "lat": "48.8546", "lng": "-100.0285"}, {"name": "Hannaford", "state": "ND", "lat": "47.3143", "lng": "-98.1889"}, {"name": "Wishek", "state": "ND", "lat": "46.2554", "lng": "-99.5546"}, {"name": "Alsen", "state": "ND", "lat": "48.6303", "lng": "-98.7048"}, {"name": "Egeland", "state": "ND", "lat": "48.6281", "lng": "-99.0980"}, {"name": "Hankinson", "state": "ND", "lat": "46.0734", "lng": "-96.8916"}, {"name": "Almont", "state": "ND", "lat": "46.7283", "lng": "-101.5026"}, {"name": "Minto", "state": "ND", "lat": "48.2924", "lng": "-97.3730"}, {"name": "Hettinger", "state": "ND", "lat": "46.0034", "lng": "-102.6350"}, {"name": "Fessenden", "state": "ND", "lat": "47.6496", "lng": "-99.6268"}, {"name": "Briarwood", "state": "ND", "lat": "46.7870", "lng": "-96.7949"}, {"name": "Hazelton", "state": "ND", "lat": "46.4858", "lng": "-100.2811"}, {"name": "Bantry", "state": "ND", "lat": "48.4977", "lng": "-100.6098"}, {"name": "Kindred", "state": "ND", "lat": "46.6495", "lng": "-97.0170"}, {"name": "Leeds", "state": "ND", "lat": "48.2875", "lng": "-99.4344"}, {"name": "Loma", "state": "ND", "lat": "48.6417", "lng": "-98.5248"}, {"name": "Manvel", "state": "ND", "lat": "48.0727", "lng": "-97.1778"}, {"name": "Fort Totten", "state": "ND", "lat": "47.9716", "lng": "-98.9971"}, {"name": "Glenfield", "state": "ND", "lat": "47.4551", "lng": "-98.5664"}, {"name": "Bathgate", "state": "ND", "lat": "48.8803", "lng": "-97.4741"}, {"name": "Calvin", "state": "ND", "lat": "48.8519", "lng": "-98.9380"}, {"name": "Mylo", "state": "ND", "lat": "48.6358", "lng": "-99.6179"}, {"name": "Ellendale", "state": "ND", "lat": "46.0043", "lng": "-98.5254"}, {"name": "White Earth", "state": "ND", "lat": "48.3799", "lng": "-102.7718"}, {"name": "Fairmount", "state": "ND", "lat": "46.0547", "lng": "-96.6029"}, {"name": "Reile's Acres", "state": "ND", "lat": "46.9270", "lng": "-96.8666"}, {"name": "Fort Ransom", "state": "ND", "lat": "46.5244", "lng": "-97.9311"}, {"name": "Crosby", "state": "ND", "lat": "48.9163", "lng": "-103.2967"}, {"name": "Ludden", "state": "ND", "lat": "46.0082", "lng": "-98.1254"}, {"name": "Clifford", "state": "ND", "lat": "47.3482", "lng": "-97.4101"}, {"name": "Carrington", "state": "ND", "lat": "47.4510", "lng": "-99.1301"}, {"name": "Minot", "state": "ND", "lat": "48.2374", "lng": "-101.2780"}, {"name": "McClusky", "state": "ND", "lat": "47.4840", "lng": "-100.4426"}, {"name": "Sarles", "state": "ND", "lat": "48.9450", "lng": "-98.9969"}, {"name": "Ayr", "state": "ND", "lat": "47.0411", "lng": "-97.4909"}, {"name": "Tolna", "state": "ND", "lat": "47.8257", "lng": "-98.4382"}, {"name": "Leonard", "state": "ND", "lat": "46.6523", "lng": "-97.2499"}, {"name": "Northwood", "state": "ND", "lat": "47.7384", "lng": "-97.5707"}, {"name": "Kensal", "state": "ND", "lat": "47.3000", "lng": "-98.7321"}, {"name": "Berlin", "state": "ND", "lat": "46.3784", "lng": "-98.4885"}, {"name": "Cathay", "state": "ND", "lat": "47.5541", "lng": "-99.4107"}, {"name": "Wahpeton", "state": "ND", "lat": "46.2722", "lng": "-96.6118"}, {"name": "Dazey", "state": "ND", "lat": "47.1883", "lng": "-98.2007"}, {"name": "Foxholm", "state": "ND", "lat": "48.3654", "lng": "-101.5721"}, {"name": "Lincoln", "state": "ND", "lat": "46.7677", "lng": "-100.6997"}, {"name": "Des Lacs", "state": "ND", "lat": "48.2564", "lng": "-101.5636"}, {"name": "Gladstone", "state": "ND", "lat": "46.8595", "lng": "-102.5701"}, {"name": "Galesburg", "state": "ND", "lat": "47.2701", "lng": "-97.4087"}, {"name": "Bowbells", "state": "ND", "lat": "48.8037", "lng": "-102.2471"}, {"name": "Porcupine", "state": "ND", "lat": "46.2218", "lng": "-101.0999"}, {"name": "Epping", "state": "ND", "lat": "48.2817", "lng": "-103.3579"}, {"name": "Niagara", "state": "ND", "lat": "47.9983", "lng": "-97.8717"}, {"name": "Stanton", "state": "ND", "lat": "47.3187", "lng": "-101.3822"}, {"name": "Reynolds", "state": "ND", "lat": "47.6685", "lng": "-97.1060"}, {"name": "Binford", "state": "ND", "lat": "47.5604", "lng": "-98.3456"}, {"name": "Gilby", "state": "ND", "lat": "48.0834", "lng": "-97.4679"}, {"name": "Enderlin", "state": "ND", "lat": "46.6215", "lng": "-97.5956"}, {"name": "Solen", "state": "ND", "lat": "46.3873", "lng": "-100.7958"}, {"name": "Robinson", "state": "ND", "lat": "47.1421", "lng": "-99.7812"}, {"name": "St. John", "state": "ND", "lat": "48.9438", "lng": "-99.7132"}, {"name": "Granville", "state": "ND", "lat": "48.2663", "lng": "-100.8450"}, {"name": "Beach", "state": "ND", "lat": "46.9192", "lng": "-104.0080"}, {"name": "Hillsboro", "state": "ND", "lat": "47.4030", "lng": "-97.0635"}, {"name": "Larimore", "state": "ND", "lat": "47.9091", "lng": "-97.6269"}, {"name": "Gardner", "state": "ND", "lat": "47.1445", "lng": "-96.9686"}, {"name": "Courtenay", "state": "ND", "lat": "47.2241", "lng": "-98.5685"}, {"name": "Barney", "state": "ND", "lat": "46.2658", "lng": "-96.9988"}, {"name": "Grand Forks", "state": "ND", "lat": "47.9221", "lng": "-97.0887"}, {"name": "Harmon", "state": "ND", "lat": "46.9443", "lng": "-100.9526"}, {"name": "Hatton", "state": "ND", "lat": "47.6369", "lng": "-97.4584"}, {"name": "Canton City", "state": "ND", "lat": "48.6880", "lng": "-97.6661"}, {"name": "Lidgerwood", "state": "ND", "lat": "46.0738", "lng": "-97.1451"}, {"name": "Turtle Lake", "state": "ND", "lat": "47.5216", "lng": "-100.8906"}, {"name": "Fredonia", "state": "ND", "lat": "46.3291", "lng": "-99.0955"}, {"name": "Auburn", "state": "ND", "lat": "48.5066", "lng": "-97.4368"}, {"name": "Logan", "state": "ND", "lat": "48.1557", "lng": "-101.1664"}, {"name": "McVille", "state": "ND", "lat": "47.7653", "lng": "-98.1755"}, {"name": "Hansboro", "state": "ND", "lat": "48.9523", "lng": "-99.3802"}, {"name": "Dunn Center", "state": "ND", "lat": "47.3527", "lng": "-102.6233"}, {"name": "Wilton", "state": "ND", "lat": "47.1581", "lng": "-100.7842"}, {"name": "Brooktree Park", "state": "ND", "lat": "47.0038", "lng": "-96.8961"}, {"name": "Cooperstown", "state": "ND", "lat": "47.4450", "lng": "-98.1257"}, {"name": "White Shield", "state": "ND", "lat": "47.6602", "lng": "-101.8436"}, {"name": "Neche", "state": "ND", "lat": "48.9830", "lng": "-97.5517"}, {"name": "Hunter", "state": "ND", "lat": "47.1904", "lng": "-97.2131"}, {"name": "Hamilton", "state": "ND", "lat": "48.8080", "lng": "-97.4518"}, {"name": "Rolla", "state": "ND", "lat": "48.8528", "lng": "-99.6143"}, {"name": "Loraine", "state": "ND", "lat": "48.8683", "lng": "-101.5678"}, {"name": "Mapleton", "state": "ND", "lat": "46.8915", "lng": "-97.0533"}, {"name": "Barton", "state": "ND", "lat": "48.5093", "lng": "-100.1733"}, {"name": "Drake", "state": "ND", "lat": "47.9226", "lng": "-100.3745"}, {"name": "Belcourt", "state": "ND", "lat": "48.8417", "lng": "-99.7447"}, {"name": "Rutland", "state": "ND", "lat": "46.0543", "lng": "-97.5068"}, {"name": "Sykeston", "state": "ND", "lat": "47.4660", "lng": "-99.3993"}, {"name": "Glen Ullin", "state": "ND", "lat": "46.8120", "lng": "-101.8333"}, {"name": "Portland", "state": "ND", "lat": "47.4995", "lng": "-97.3693"}, {"name": "Makoti", "state": "ND", "lat": "47.9633", "lng": "-101.8029"}, {"name": "Douglas", "state": "ND", "lat": "47.8579", "lng": "-101.5018"}, {"name": "Westhope", "state": "ND", "lat": "48.9112", "lng": "-101.0176"}, {"name": "Hague", "state": "ND", "lat": "46.0289", "lng": "-99.9991"}, {"name": "Kief", "state": "ND", "lat": "47.8600", "lng": "-100.5133"}, {"name": "Max", "state": "ND", "lat": "47.8204", "lng": "-101.2911"}, {"name": "Fargo", "state": "ND", "lat": "46.8653", "lng": "-96.8292"}, {"name": "Jamestown", "state": "ND", "lat": "46.9063", "lng": "-98.6937"}, {"name": "Englevale", "state": "ND", "lat": "46.3912", "lng": "-97.9038"}, {"name": "North River", "state": "ND", "lat": "46.9503", "lng": "-96.8020"}, {"name": "Golden Valley", "state": "ND", "lat": "47.2901", "lng": "-102.0652"}, {"name": "Fairdale", "state": "ND", "lat": "48.4900", "lng": "-98.2312"}, {"name": "Lansford", "state": "ND", "lat": "48.6270", "lng": "-101.3759"}, {"name": "York", "state": "ND", "lat": "48.3132", "lng": "-99.5733"}, {"name": "Bowman", "state": "ND", "lat": "46.1840", "lng": "-103.3991"}, {"name": "Cogswell", "state": "ND", "lat": "46.1070", "lng": "-97.7842"}, {"name": "Horace", "state": "ND", "lat": "46.7559", "lng": "-96.9079"}, {"name": "Raleigh", "state": "ND", "lat": "46.3572", "lng": "-101.3054"}, {"name": "Mohall", "state": "ND", "lat": "48.7661", "lng": "-101.5170"}, {"name": "Oxbow", "state": "ND", "lat": "46.6687", "lng": "-96.8101"}, {"name": "Bowdon", "state": "ND", "lat": "47.4685", "lng": "-99.7089"}, {"name": "Pillsbury", "state": "ND", "lat": "47.2071", "lng": "-97.7957"}, {"name": "Hebron", "state": "ND", "lat": "46.9023", "lng": "-102.0444"}, {"name": "Zap", "state": "ND", "lat": "47.2847", "lng": "-101.9233"}, {"name": "Sharon", "state": "ND", "lat": "47.5974", "lng": "-97.8994"}, {"name": "Nome", "state": "ND", "lat": "46.6758", "lng": "-97.8162"}, {"name": "Benedict", "state": "ND", "lat": "47.8301", "lng": "-101.0843"}, {"name": "Pisek", "state": "ND", "lat": "48.3107", "lng": "-97.7105"}, {"name": "Dunseith", "state": "ND", "lat": "48.8130", "lng": "-100.0622"}, {"name": "Carson", "state": "ND", "lat": "46.4223", "lng": "-101.5706"}, {"name": "Tuttle", "state": "ND", "lat": "47.1445", "lng": "-99.9934"}, {"name": "Zeeland", "state": "ND", "lat": "45.9729", "lng": "-99.8324"}, {"name": "Edmore", "state": "ND", "lat": "48.4124", "lng": "-98.4536"}, {"name": "Milton", "state": "ND", "lat": "48.6260", "lng": "-98.0459"}, {"name": "Hampden", "state": "ND", "lat": "48.5396", "lng": "-98.6542"}, {"name": "Manning", "state": "ND", "lat": "47.2310", "lng": "-102.7702"}, {"name": "Maddock", "state": "ND", "lat": "47.9624", "lng": "-99.5293"}, {"name": "Drayton", "state": "ND", "lat": "48.5621", "lng": "-97.1794"}, {"name": "Velva", "state": "ND", "lat": "48.0582", "lng": "-100.9329"}, {"name": "Cavalier", "state": "ND", "lat": "48.7939", "lng": "-97.6226"}, {"name": "Flasher", "state": "ND", "lat": "46.4521", "lng": "-101.2324"}, {"name": "Garrison", "state": "ND", "lat": "47.6533", "lng": "-101.4222"}, {"name": "Frontier", "state": "ND", "lat": "46.8002", "lng": "-96.8333"}, {"name": "Grenora", "state": "ND", "lat": "48.6199", "lng": "-103.9367"}, {"name": "Halliday", "state": "ND", "lat": "47.3522", "lng": "-102.3388"}, {"name": "Berthold", "state": "ND", "lat": "48.3171", "lng": "-101.7481"}, {"name": "Oakes", "state": "ND", "lat": "46.1397", "lng": "-98.0871"}, {"name": "Souris", "state": "ND", "lat": "48.9100", "lng": "-100.6826"}, {"name": "Nash", "state": "ND", "lat": "48.4778", "lng": "-97.5245"}, {"name": "Washburn", "state": "ND", "lat": "47.2928", "lng": "-101.0290"}, {"name": "Ray", "state": "ND", "lat": "48.3416", "lng": "-103.1635"}, {"name": "Mountain", "state": "ND", "lat": "48.6843", "lng": "-97.8648"}, {"name": "Linton", "state": "ND", "lat": "46.2685", "lng": "-100.2337"}, {"name": "Sherwood", "state": "ND", "lat": "48.9619", "lng": "-101.6328"}, {"name": "Selz", "state": "ND", "lat": "47.8595", "lng": "-99.8936"}, {"name": "Powers Lake", "state": "ND", "lat": "48.5637", "lng": "-102.6452"}, {"name": "Mandaree", "state": "ND", "lat": "47.7358", "lng": "-102.6755"}, {"name": "St. Thomas", "state": "ND", "lat": "48.6192", "lng": "-97.4471"}, {"name": "Upham", "state": "ND", "lat": "48.5815", "lng": "-100.7285"}, {"name": "Verona", "state": "ND", "lat": "46.3626", "lng": "-98.0771"}, {"name": "Hazen", "state": "ND", "lat": "47.2990", "lng": "-101.6260"}, {"name": "Grandin", "state": "ND", "lat": "47.2367", "lng": "-97.0033"}, {"name": "New Leipzig", "state": "ND", "lat": "46.3758", "lng": "-101.9516"}, {"name": "Lankin", "state": "ND", "lat": "48.3146", "lng": "-97.9203"}, {"name": "Venturia", "state": "ND", "lat": "45.9971", "lng": "-99.5479"}, {"name": "Sutton", "state": "ND", "lat": "47.4038", "lng": "-98.4412"}, {"name": "New Rockford", "state": "ND", "lat": "47.6798", "lng": "-99.1377"}, {"name": "Wing", "state": "ND", "lat": "47.1423", "lng": "-100.2824"}, {"name": "Pekin", "state": "ND", "lat": "47.7919", "lng": "-98.3278"}, {"name": "Minot AFB", "state": "ND", "lat": "48.4209", "lng": "-101.3381"}, {"name": "Surrey", "state": "ND", "lat": "48.2435", "lng": "-101.1339"}, {"name": "Pick City", "state": "ND", "lat": "47.5114", "lng": "-101.4572"}, {"name": "Dickey", "state": "ND", "lat": "46.5368", "lng": "-98.4681"}, {"name": "Lehr", "state": "ND", "lat": "46.2824", "lng": "-99.3528"}, {"name": "Williston", "state": "ND", "lat": "48.1814", "lng": "-103.6364"}, {"name": "Milnor", "state": "ND", "lat": "46.2609", "lng": "-97.4574"}, {"name": "Watford City", "state": "ND", "lat": "47.8028", "lng": "-103.2678"}, {"name": "Larson", "state": "ND", "lat": "48.8916", "lng": "-102.8626"}, {"name": "Fullerton", "state": "ND", "lat": "46.1632", "lng": "-98.4272"}, {"name": "Streeter", "state": "ND", "lat": "46.6576", "lng": "-99.3568"}, {"name": "Thompson", "state": "ND", "lat": "47.7753", "lng": "-97.1058"}, {"name": "Kramer", "state": "ND", "lat": "48.6911", "lng": "-100.7078"}, {"name": "Hope", "state": "ND", "lat": "47.3244", "lng": "-97.7191"}, {"name": "Dodge", "state": "ND", "lat": "47.3057", "lng": "-102.2029"}, {"name": "Amidon", "state": "ND", "lat": "46.4823", "lng": "-103.3194"}, {"name": "Pingree", "state": "ND", "lat": "47.1638", "lng": "-98.9086"}, {"name": "McHenry", "state": "ND", "lat": "47.5764", "lng": "-98.5910"}, {"name": "Dahlen", "state": "ND", "lat": "48.1587", "lng": "-97.9319"}, {"name": "Luverne", "state": "ND", "lat": "47.2514", "lng": "-97.9349"}, {"name": "New Town", "state": "ND", "lat": "47.9848", "lng": "-102.4813"}, {"name": "Ruso", "state": "ND", "lat": "47.8373", "lng": "-100.9343"}, {"name": "Gwinner", "state": "ND", "lat": "46.2357", "lng": "-97.6695"}, {"name": "Wheatland", "state": "ND", "lat": "46.9049", "lng": "-97.3455"}, {"name": "Towner", "state": "ND", "lat": "48.3471", "lng": "-100.4070"}, {"name": "Bisbee", "state": "ND", "lat": "48.6272", "lng": "-99.3788"}, {"name": "Lisbon", "state": "ND", "lat": "46.4385", "lng": "-97.6841"}, {"name": "Stanley", "state": "ND", "lat": "48.3164", "lng": "-102.3873"}, {"name": "Valley City", "state": "ND", "lat": "46.9223", "lng": "-98.0055"}, {"name": "Sibley", "state": "ND", "lat": "47.2188", "lng": "-97.9654"}, {"name": "Parshall", "state": "ND", "lat": "47.9557", "lng": "-102.1342"}, {"name": "Harvey", "state": "ND", "lat": "47.7766", "lng": "-99.9301"}, {"name": "Brocket", "state": "ND", "lat": "48.2107", "lng": "-98.3556"}, {"name": "Blanchard", "state": "ND", "lat": "47.3432", "lng": "-97.2228"}, {"name": "Pembina", "state": "ND", "lat": "48.9669", "lng": "-97.2475"}, {"name": "Antler", "state": "ND", "lat": "48.9713", "lng": "-101.2832"}, {"name": "Coleharbor", "state": "ND", "lat": "47.5425", "lng": "-101.2214"}, {"name": "Starkweather", "state": "ND", "lat": "48.4521", "lng": "-98.8784"}, {"name": "Esmond", "state": "ND", "lat": "48.0331", "lng": "-99.7647"}, {"name": "Pettibone", "state": "ND", "lat": "47.1170", "lng": "-99.5209"}, {"name": "Hamberg", "state": "ND", "lat": "47.7634", "lng": "-99.5160"}, {"name": "Underwood", "state": "ND", "lat": "47.4551", "lng": "-101.1419"}, {"name": "Alexander", "state": "ND", "lat": "47.8393", "lng": "-103.6426"}, {"name": "Butte", "state": "ND", "lat": "47.8370", "lng": "-100.6658"}, {"name": "Caledonia", "state": "ND", "lat": "47.4577", "lng": "-96.8892"}, {"name": "Bucyrus", "state": "ND", "lat": "46.0648", "lng": "-102.7885"}, {"name": "Noonan", "state": "ND", "lat": "48.8899", "lng": "-103.0101"}, {"name": "Brinsmade", "state": "ND", "lat": "48.1840", "lng": "-99.3236"}, {"name": "Lawton", "state": "ND", "lat": "48.3036", "lng": "-98.3684"}, {"name": "Ruthville", "state": "ND", "lat": "48.3708", "lng": "-101.3003"}, {"name": "Monango", "state": "ND", "lat": "46.1734", "lng": "-98.5952"}, {"name": "Regent", "state": "ND", "lat": "46.4222", "lng": "-102.5581"}, {"name": "Goodrich", "state": "ND", "lat": "47.4759", "lng": "-100.1247"}, {"name": "Steele", "state": "ND", "lat": "46.8568", "lng": "-99.9181"}, {"name": "Haynes", "state": "ND", "lat": "45.9739", "lng": "-102.4710"}, {"name": "Carpio", "state": "ND", "lat": "48.4434", "lng": "-101.7163"}, {"name": "Newburg", "state": "ND", "lat": "48.7139", "lng": "-100.9127"}, {"name": "Lakota", "state": "ND", "lat": "48.0429", "lng": "-98.3468"}, {"name": "Warwick", "state": "ND", "lat": "47.8547", "lng": "-98.7056"}, {"name": "Harwood", "state": "ND", "lat": "46.9761", "lng": "-96.8801"}, {"name": "Reeder", "state": "ND", "lat": "46.1059", "lng": "-102.9422"}, {"name": "Tolley", "state": "ND", "lat": "48.7308", "lng": "-101.8271"}, {"name": "Kenmare", "state": "ND", "lat": "48.6728", "lng": "-102.0720"}, {"name": "Rugby", "state": "ND", "lat": "48.3656", "lng": "-99.9906"}, {"name": "Wales", "state": "ND", "lat": "48.8952", "lng": "-98.6008"}, {"name": "Napoleon", "state": "ND", "lat": "46.5039", "lng": "-99.7683"}, {"name": "Oberon", "state": "ND", "lat": "47.9242", "lng": "-99.2059"}, {"name": "Argusville", "state": "ND", "lat": "47.0501", "lng": "-96.9431"}, {"name": "Four Bears Village", "state": "ND", "lat": "47.9871", "lng": "-102.5939"}, {"name": "Davenport", "state": "ND", "lat": "46.7148", "lng": "-97.0654"}, {"name": "Wyndmere", "state": "ND", "lat": "46.2641", "lng": "-97.1312"}, {"name": "Elgin", "state": "ND", "lat": "46.4026", "lng": "-101.8430"}, {"name": "Sheyenne", "state": "ND", "lat": "47.8273", "lng": "-99.1169"}, {"name": "Maxbass", "state": "ND", "lat": "48.7225", "lng": "-101.1426"}, {"name": "Mayville", "state": "ND", "lat": "47.4982", "lng": "-97.3264"}, {"name": "Mott", "state": "ND", "lat": "46.3744", "lng": "-102.3189"}, {"name": "Michigan City", "state": "ND", "lat": "48.0248", "lng": "-98.1197"}, {"name": "Dawson", "state": "ND", "lat": "46.8679", "lng": "-99.7536"}, {"name": "Sentinel Butte", "state": "ND", "lat": "46.9195", "lng": "-103.8400"}, {"name": "Fingal", "state": "ND", "lat": "46.7625", "lng": "-97.7932"}, {"name": "Killdeer", "state": "ND", "lat": "47.3673", "lng": "-102.7535"}, {"name": "Tappen", "state": "ND", "lat": "46.8716", "lng": "-99.6273"}, {"name": "Elliott", "state": "ND", "lat": "46.4023", "lng": "-97.8149"}, {"name": "Grano", "state": "ND", "lat": "48.6153", "lng": "-101.5893"}, {"name": "Wimbledon", "state": "ND", "lat": "47.1691", "lng": "-98.4587"}, {"name": "Grafton", "state": "ND", "lat": "48.4142", "lng": "-97.4055"}, {"name": "Driscoll", "state": "ND", "lat": "46.8427", "lng": "-100.1439"}, {"name": "Portal", "state": "ND", "lat": "48.9947", "lng": "-102.5479"}, {"name": "Deering", "state": "ND", "lat": "48.3956", "lng": "-101.0501"}, {"name": "Ashley", "state": "ND", "lat": "46.0347", "lng": "-99.3736"}, {"name": "Center", "state": "ND", "lat": "47.1149", "lng": "-101.2977"}, {"name": "Edinburg", "state": "ND", "lat": "48.4955", "lng": "-97.8630"}, {"name": "Orrin", "state": "ND", "lat": "48.0910", "lng": "-100.1671"}, {"name": "Riverdale", "state": "ND", "lat": "47.4975", "lng": "-101.3661"}, {"name": "West Fargo", "state": "ND", "lat": "46.8573", "lng": "-96.9057"}, {"name": "Great Bend", "state": "ND", "lat": "46.1546", "lng": "-96.8010"}, {"name": "Gascoyne", "state": "ND", "lat": "46.1190", "lng": "-103.0788"}, {"name": "Buchanan", "state": "ND", "lat": "47.0626", "lng": "-98.8290"}, {"name": "Fordville", "state": "ND", "lat": "48.2166", "lng": "-97.7954"}, {"name": "Strasburg", "state": "ND", "lat": "46.1337", "lng": "-100.1612"}, {"name": "Edgeley", "state": "ND", "lat": "46.3625", "lng": "-98.7126"}, {"name": "Rocklake", "state": "ND", "lat": "48.7902", "lng": "-99.2456"}, {"name": "Sheldon", "state": "ND", "lat": "46.5885", "lng": "-97.4944"}, {"name": "Glenburn", "state": "ND", "lat": "48.5136", "lng": "-101.2210"}, {"name": "Erie", "state": "ND", "lat": "47.1154", "lng": "-97.3879"}, {"name": "Forbes", "state": "ND", "lat": "45.9425", "lng": "-98.7820"}, {"name": "Perth", "state": "ND", "lat": "48.7148", "lng": "-99.4582"}, {"name": "Buxton", "state": "ND", "lat": "47.6024", "lng": "-97.0999"}, {"name": "Ardoch", "state": "ND", "lat": "48.2054", "lng": "-97.3380"}, {"name": "Mandan", "state": "ND", "lat": "46.8290", "lng": "-100.8870"}, {"name": "Ross", "state": "ND", "lat": "48.3128", "lng": "-102.5435"}, {"name": "Tioga", "state": "ND", "lat": "48.3951", "lng": "-102.9402"}, {"name": "Cayuga", "state": "ND", "lat": "46.0761", "lng": "-97.3845"}, {"name": "Braddock", "state": "ND", "lat": "46.5640", "lng": "-100.0896"}, {"name": "Munich", "state": "ND", "lat": "48.6729", "lng": "-98.8385"}, {"name": "Knox", "state": "ND", "lat": "48.3439", "lng": "-99.6912"}, {"name": "Forman", "state": "ND", "lat": "46.1040", "lng": "-97.6369"}, {"name": "Fortuna", "state": "ND", "lat": "48.9099", "lng": "-103.7783"}, {"name": "Palermo", "state": "ND", "lat": "48.3380", "lng": "-102.2298"}, {"name": "Ambrose", "state": "ND", "lat": "48.9559", "lng": "-103.4813"}, {"name": "Fort Yates", "state": "ND", "lat": "46.0865", "lng": "-100.6302"}, {"name": "Adams", "state": "ND", "lat": "48.4202", "lng": "-98.0737"}, {"name": "Christine", "state": "ND", "lat": "46.5752", "lng": "-96.8067"}, {"name": "Alice", "state": "ND", "lat": "46.7600", "lng": "-97.5562"}, {"name": "Alamo", "state": "ND", "lat": "48.5825", "lng": "-103.4676"}, {"name": "Arthur", "state": "ND", "lat": "47.1043", "lng": "-97.2184"}, {"name": "Cannon Ball", "state": "ND", "lat": "46.3173", "lng": "-100.6358"}, {"name": "Martin", "state": "ND", "lat": "47.8268", "lng": "-100.1151"}, {"name": "Cando", "state": "ND", "lat": "48.4872", "lng": "-99.2026"}, {"name": "Woodworth", "state": "ND", "lat": "47.1421", "lng": "-99.3045"}, {"name": "Page", "state": "ND", "lat": "47.1592", "lng": "-97.5681"}, {"name": "Anamoose", "state": "ND", "lat": "47.8828", "lng": "-100.2420"}, {"name": "Spiritwood", "state": "ND", "lat": "46.9343", "lng": "-98.4933"}, {"name": "Walhalla", "state": "ND", "lat": "48.9211", "lng": "-97.9176"}, {"name": "Cleveland", "state": "ND", "lat": "46.8909", "lng": "-99.1195"}, {"name": "Prairie Rose", "state": "ND", "lat": "46.8171", "lng": "-96.8353"}, {"name": "Colfax", "state": "ND", "lat": "46.4710", "lng": "-96.8725"}, {"name": "McLeod", "state": "ND", "lat": "46.3887", "lng": "-97.2987"}, {"name": "Overly", "state": "ND", "lat": "48.6811", "lng": "-100.1510"}, {"name": "Leal", "state": "ND", "lat": "47.1050", "lng": "-98.3155"}, {"name": "Aneta", "state": "ND", "lat": "47.6795", "lng": "-97.9897"}, {"name": "Mantador", "state": "ND", "lat": "46.1656", "lng": "-96.9782"}, {"name": "Medora", "state": "ND", "lat": "46.9128", "lng": "-103.5251"}, {"name": "Abercrombie", "state": "ND", "lat": "46.4471", "lng": "-96.7294"}, {"name": "Columbus", "state": "ND", "lat": "48.9050", "lng": "-102.7812"}, {"name": "Flaxton", "state": "ND", "lat": "48.8974", "lng": "-102.3933"}, {"name": "Spiritwood Lake", "state": "ND", "lat": "47.0743", "lng": "-98.5866"}, {"name": "New England", "state": "ND", "lat": "46.5408", "lng": "-102.8669"}, {"name": "Plaza", "state": "ND", "lat": "48.0260", "lng": "-101.9594"}, {"name": "Green Acres", "state": "ND", "lat": "48.8381", "lng": "-99.6901"}, {"name": "Belfield", "state": "ND", "lat": "46.8859", "lng": "-103.1989"}, {"name": "Dwight", "state": "ND", "lat": "46.3039", "lng": "-96.7400"}, {"name": "Conway", "state": "ND", "lat": "48.2343", "lng": "-97.6751"}, {"name": "Nekoma", "state": "ND", "lat": "48.5763", "lng": "-98.3755"}, {"name": "Montpelier", "state": "ND", "lat": "46.6989", "lng": "-98.5884"}, {"name": "Landa", "state": "ND", "lat": "48.8958", "lng": "-100.9120"}, {"name": "Donnybrook", "state": "ND", "lat": "48.5077", "lng": "-101.8873"}, {"name": "Bergen", "state": "ND", "lat": "48.0037", "lng": "-100.7199"}, {"name": "Bottineau", "state": "ND", "lat": "48.8251", "lng": "-100.4446"}, {"name": "Embden", "state": "ND", "lat": "46.8050", "lng": "-97.4395"}, {"name": "Ypsilanti", "state": "ND", "lat": "46.7834", "lng": "-98.5610"}, {"name": "Grace City", "state": "ND", "lat": "47.5513", "lng": "-98.8039"}, {"name": "LaMoure", "state": "ND", "lat": "46.3574", "lng": "-98.2966"}, {"name": "New Salem", "state": "ND", "lat": "46.8432", "lng": "-101.4178"}, {"name": "Tower City", "state": "ND", "lat": "46.9263", "lng": "-97.6760"}, {"name": "Balta", "state": "ND", "lat": "48.1666", "lng": "-100.0369"}, {"name": "Arnegard", "state": "ND", "lat": "47.8084", "lng": "-103.4388"}, {"name": "Jud", "state": "ND", "lat": "46.5258", "lng": "-98.8976"}, {"name": "Walcott", "state": "ND", "lat": "46.5505", "lng": "-96.9375"}, {"name": "Denhoff", "state": "ND", "lat": "47.4786", "lng": "-100.2592"}, {"name": "Rogers", "state": "ND", "lat": "47.0740", "lng": "-98.2031"}, {"name": "Marmarth", "state": "ND", "lat": "46.2960", "lng": "-103.9331"}, {"name": "Heil", "state": "ND", "lat": "46.3892", "lng": "-101.7011"}, {"name": "Crystal", "state": "ND", "lat": "48.5981", "lng": "-97.6685"}, {"name": "Oriska", "state": "ND", "lat": "46.9313", "lng": "-97.7906"}, {"name": "Taylor", "state": "ND", "lat": "46.9018", "lng": "-102.4222"}, {"name": "Gackle", "state": "ND", "lat": "46.6264", "lng": "-99.1412"}, {"name": "Kathryn", "state": "ND", "lat": "46.6812", "lng": "-97.9704"}, {"name": "Grand Forks AFB", "state": "ND", "lat": "47.9557", "lng": "-97.3913"}, {"name": "Menoken", "state": "ND", "lat": "46.8149", "lng": "-100.5338"}, {"name": "Crary", "state": "ND", "lat": "48.0716", "lng": "-98.6384"}, {"name": "Sawyer", "state": "ND", "lat": "48.0894", "lng": "-101.0533"}, {"name": "Selfridge", "state": "ND", "lat": "46.0417", "lng": "-100.9244"}, {"name": "Wildrose", "state": "ND", "lat": "48.6299", "lng": "-103.1837"}, {"name": "Kulm", "state": "ND", "lat": "46.3020", "lng": "-98.9467"}, {"name": "Voltaire", "state": "ND", "lat": "48.0187", "lng": "-100.8440"}, {"name": "Hoople", "state": "ND", "lat": "48.5358", "lng": "-97.6390"}, {"name": "Balfour", "state": "ND", "lat": "47.9509", "lng": "-100.5343"}, {"name": "Park River", "state": "ND", "lat": "48.3936", "lng": "-97.7441"}, {"name": "Finley", "state": "ND", "lat": "47.5125", "lng": "-97.8373"}, {"name": "Karlsruhe", "state": "ND", "lat": "48.0910", "lng": "-100.6159"}, {"name": "Mooreton", "state": "ND", "lat": "46.2689", "lng": "-96.8757"}, {"name": "Forest River", "state": "ND", "lat": "48.2166", "lng": "-97.4703"}, {"name": "Hurdsfield", "state": "ND", "lat": "47.4468", "lng": "-99.9310"}, {"name": "Medina", "state": "ND", "lat": "46.8938", "lng": "-99.2999"}, {"name": "Rhame", "state": "ND", "lat": "46.2347", "lng": "-103.6550"}, {"name": "Beulah", "state": "ND", "lat": "47.2665", "lng": "-101.7733"}, {"name": "Minnewaukan", "state": "ND", "lat": "48.0761", "lng": "-99.2607"}, {"name": "Litchville", "state": "ND", "lat": "46.6566", "lng": "-98.1917"}, {"name": "Havana", "state": "ND", "lat": "45.9516", "lng": "-97.6183"}, {"name": "Scranton", "state": "ND", "lat": "46.1495", "lng": "-103.1430"}, {"name": "Ryder", "state": "ND", "lat": "47.9211", "lng": "-101.6694"}, {"name": "Gardena", "state": "ND", "lat": "48.7012", "lng": "-100.4981"}, {"name": "Buffalo", "state": "ND", "lat": "46.9193", "lng": "-97.5507"}, {"name": "South Heart", "state": "ND", "lat": "46.8679", "lng": "-102.9895"}]