[{"name": "Ansley", "state": "NE", "lat": "41.2863", "lng": "-99.3824"}, {"name": "Albion", "state": "NE", "lat": "41.6873", "lng": "-97.9987"}, {"name": "Hampton", "state": "NE", "lat": "40.8812", "lng": "-97.8875"}, {"name": "La Platte", "state": "NE", "lat": "41.0718", "lng": "-95.9255"}, {"name": "Nebraska City", "state": "NE", "lat": "40.6762", "lng": "-95.8613"}, {"name": "Rising City", "state": "NE", "lat": "41.1983", "lng": "-97.2974"}, {"name": "Bennet", "state": "NE", "lat": "40.6818", "lng": "-96.5039"}, {"name": "Dalton", "state": "NE", "lat": "41.4082", "lng": "-102.9708"}, {"name": "Halsey", "state": "NE", "lat": "41.9033", "lng": "-100.2699"}, {"name": "Abie", "state": "NE", "lat": "41.3340", "lng": "-96.9493"}, {"name": "Bassett", "state": "NE", "lat": "42.5828", "lng": "-99.5366"}, {"name": "Santee", "state": "NE", "lat": "42.8386", "lng": "-97.8495"}, {"name": "Sprague", "state": "NE", "lat": "40.6266", "lng": "-96.7445"}, {"name": "Chadron", "state": "NE", "lat": "42.8260", "lng": "-103.0025"}, {"name": "Nora", "state": "NE", "lat": "40.1642", "lng": "-97.9738"}, {"name": "Foster", "state": "NE", "lat": "42.2747", "lng": "-97.6651"}, {"name": "Petersburg", "state": "NE", "lat": "41.8536", "lng": "-98.0811"}, {"name": "Henderson", "state": "NE", "lat": "40.7795", "lng": "-97.8114"}, {"name": "Deweese", "state": "NE", "lat": "40.3548", "lng": "-98.1392"}, {"name": "Stanton", "state": "NE", "lat": "41.9471", "lng": "-97.2172"}, {"name": "Aurora", "state": "NE", "lat": "40.8642", "lng": "-98.0070"}, {"name": "Malmo", "state": "NE", "lat": "41.2665", "lng": "-96.7209"}, {"name": "Lynch", "state": "NE", "lat": "42.8313", "lng": "-98.4668"}, {"name": "Cook", "state": "NE", "lat": "40.5104", "lng": "-96.1617"}, {"name": "Rosalie", "state": "NE", "lat": "42.0574", "lng": "-96.5128"}, {"name": "Strang", "state": "NE", "lat": "40.4149", "lng": "-97.5871"}, {"name": "Gurley", "state": "NE", "lat": "41.3215", "lng": "-102.9743"}, {"name": "Mason City", "state": "NE", "lat": "41.2222", "lng": "-99.2987"}, {"name": "Burwell", "state": "NE", "lat": "41.7800", "lng": "-99.1341"}, {"name": "Norfolk", "state": "NE", "lat": "42.0328", "lng": "-97.4209"}, {"name": "Alma", "state": "NE", "lat": "40.1036", "lng": "-99.3655"}, {"name": "Bridgeport", "state": "NE", "lat": "41.6639", "lng": "-103.0962"}, {"name": "Morrill", "state": "NE", "lat": "41.9641", "lng": "-103.9247"}, {"name": "Wakefield", "state": "NE", "lat": "42.2665", "lng": "-96.8632"}, {"name": "Smithfield", "state": "NE", "lat": "40.5733", "lng": "-99.7409"}, {"name": "Magnet", "state": "NE", "lat": "42.4555", "lng": "-97.4698"}, {"name": "Dix", "state": "NE", "lat": "41.2342", "lng": "-103.4867"}, {"name": "Roscoe", "state": "NE", "lat": "41.1316", "lng": "-101.5853"}, {"name": "Wilber", "state": "NE", "lat": "40.4809", "lng": "-96.9646"}, {"name": "Greeley Center", "state": "NE", "lat": "41.5484", "lng": "-98.5305"}, {"name": "Daykin", "state": "NE", "lat": "40.3217", "lng": "-97.2983"}, {"name": "Mullen", "state": "NE", "lat": "42.0432", "lng": "-101.0444"}, {"name": "Miller", "state": "NE", "lat": "40.9276", "lng": "-99.3901"}, {"name": "Farnam", "state": "NE", "lat": "40.7065", "lng": "-100.2155"}, {"name": "Crete", "state": "NE", "lat": "40.6255", "lng": "-96.9575"}, {"name": "Red Cloud", "state": "NE", "lat": "40.0864", "lng": "-98.5222"}, {"name": "Stamford", "state": "NE", "lat": "40.1313", "lng": "-99.5945"}, {"name": "Maskell", "state": "NE", "lat": "42.6901", "lng": "-96.9807"}, {"name": "Edison", "state": "NE", "lat": "40.2776", "lng": "-99.7763"}, {"name": "Filley", "state": "NE", "lat": "40.2849", "lng": "-96.5340"}, {"name": "Beaver Crossing", "state": "NE", "lat": "40.7782", "lng": "-97.2825"}, {"name": "Inglewood", "state": "NE", "lat": "41.4160", "lng": "-96.5021"}, {"name": "Panama", "state": "NE", "lat": "40.5998", "lng": "-96.5112"}, {"name": "Otoe", "state": "NE", "lat": "40.7243", "lng": "-96.1207"}, {"name": "Liberty", "state": "NE", "lat": "40.0854", "lng": "-96.4829"}, {"name": "Archer", "state": "NE", "lat": "41.1667", "lng": "-98.1389"}, {"name": "Cordova", "state": "NE", "lat": "40.7164", "lng": "-97.3516"}, {"name": "Stockham", "state": "NE", "lat": "40.7164", "lng": "-97.9433"}, {"name": "Oshkosh", "state": "NE", "lat": "41.4081", "lng": "-102.3453"}, {"name": "Ogallala", "state": "NE", "lat": "41.1292", "lng": "-101.7209"}, {"name": "Palmer", "state": "NE", "lat": "41.2224", "lng": "-98.2599"}, {"name": "Steele City", "state": "NE", "lat": "40.0368", "lng": "-97.0229"}, {"name": "Holmesville", "state": "NE", "lat": "40.2010", "lng": "-96.6584"}, {"name": "Kennard", "state": "NE", "lat": "41.4747", "lng": "-96.2037"}, {"name": "Gandy", "state": "NE", "lat": "41.4697", "lng": "-100.4583"}, {"name": "Venice", "state": "NE", "lat": "41.2390", "lng": "-96.3526"}, {"name": "Weeping Water", "state": "NE", "lat": "40.8691", "lng": "-96.1400"}, {"name": "Walthill", "state": "NE", "lat": "42.1489", "lng": "-96.4929"}, {"name": "Taylor", "state": "NE", "lat": "41.7696", "lng": "-99.3814"}, {"name": "Arcadia", "state": "NE", "lat": "41.4248", "lng": "-99.1259"}, {"name": "Silver Creek", "state": "NE", "lat": "41.3152", "lng": "-97.6650"}, {"name": "Litchfield", "state": "NE", "lat": "41.1562", "lng": "-99.1532"}, {"name": "Mitchell", "state": "NE", "lat": "41.9427", "lng": "-103.8097"}, {"name": "Ohiowa", "state": "NE", "lat": "40.4137", "lng": "-97.4523"}, {"name": "Stella", "state": "NE", "lat": "40.2322", "lng": "-95.7735"}, {"name": "Franklin", "state": "NE", "lat": "40.0966", "lng": "-98.9514"}, {"name": "Ashland", "state": "NE", "lat": "41.0404", "lng": "-96.3707"}, {"name": "Ruskin", "state": "NE", "lat": "40.1440", "lng": "-97.8670"}, {"name": "Seward", "state": "NE", "lat": "40.9094", "lng": "-97.0962"}, {"name": "Exeter", "state": "NE", "lat": "40.6445", "lng": "-97.4492"}, {"name": "Stromsburg", "state": "NE", "lat": "41.1160", "lng": "-97.5911"}, {"name": "Alexandria", "state": "NE", "lat": "40.2475", "lng": "-97.3877"}, {"name": "Winnetoon", "state": "NE", "lat": "42.5135", "lng": "-97.9601"}, {"name": "Hardy", "state": "NE", "lat": "40.0114", "lng": "-97.9238"}, {"name": "Cedar Rapids", "state": "NE", "lat": "41.5589", "lng": "-98.1493"}, {"name": "Amherst", "state": "NE", "lat": "40.8383", "lng": "-99.2697"}, {"name": "Thedford", "state": "NE", "lat": "41.9789", "lng": "-100.5748"}, {"name": "David City", "state": "NE", "lat": "41.2549", "lng": "-97.1269"}, {"name": "Hartington", "state": "NE", "lat": "42.6205", "lng": "-97.2672"}, {"name": "Max", "state": "NE", "lat": "40.1143", "lng": "-101.4045"}, {"name": "Fairfield", "state": "NE", "lat": "40.4323", "lng": "-98.1033"}, {"name": "Hubbell", "state": "NE", "lat": "40.0087", "lng": "-97.4966"}, {"name": "Peru", "state": "NE", "lat": "40.4787", "lng": "-95.7313"}, {"name": "Firth", "state": "NE", "lat": "40.5348", "lng": "-96.6051"}, {"name": "Brunswick", "state": "NE", "lat": "42.3377", "lng": "-97.9718"}, {"name": "Ayr", "state": "NE", "lat": "40.4377", "lng": "-98.4409"}, {"name": "Merriman", "state": "NE", "lat": "42.9230", "lng": "-101.6997"}, {"name": "Milford", "state": "NE", "lat": "40.7724", "lng": "-97.0537"}, {"name": "Scotia", "state": "NE", "lat": "41.4679", "lng": "-98.7025"}, {"name": "Lewiston", "state": "NE", "lat": "40.2428", "lng": "-96.4074"}, {"name": "Odell", "state": "NE", "lat": "40.0503", "lng": "-96.8016"}, {"name": "Naper", "state": "NE", "lat": "42.9642", "lng": "-99.0970"}, {"name": "McCook", "state": "NE", "lat": "40.2046", "lng": "-100.6213"}, {"name": "Avoca", "state": "NE", "lat": "40.7965", "lng": "-96.1192"}, {"name": "Farwell", "state": "NE", "lat": "41.2156", "lng": "-98.6280"}, {"name": "Uehling", "state": "NE", "lat": "41.7346", "lng": "-96.5056"}, {"name": "Dannebrog", "state": "NE", "lat": "41.1186", "lng": "-98.5457"}, {"name": "Barneston", "state": "NE", "lat": "40.0488", "lng": "-96.5735"}, {"name": "Big Springs", "state": "NE", "lat": "41.0610", "lng": "-102.0745"}, {"name": "Emerson", "state": "NE", "lat": "42.2782", "lng": "-96.7264"}, {"name": "Shelton", "state": "NE", "lat": "40.7789", "lng": "-98.7306"}, {"name": "Henry", "state": "NE", "lat": "41.9979", "lng": "-104.0461"}, {"name": "St. Paul", "state": "NE", "lat": "41.2140", "lng": "-98.4600"}, {"name": "Neligh", "state": "NE", "lat": "42.1291", "lng": "-98.0300"}, {"name": "Spalding", "state": "NE", "lat": "41.6893", "lng": "-98.3626"}, {"name": "Waverly", "state": "NE", "lat": "40.9110", "lng": "-96.5340"}, {"name": "Harbine", "state": "NE", "lat": "40.1918", "lng": "-96.9733"}, {"name": "Carroll", "state": "NE", "lat": "42.2758", "lng": "-97.1909"}, {"name": "Haigler", "state": "NE", "lat": "40.0122", "lng": "-101.9384"}, {"name": "Wellfleet", "state": "NE", "lat": "40.7539", "lng": "-100.7319"}, {"name": "Dunning", "state": "NE", "lat": "41.8272", "lng": "-100.1046"}, {"name": "Giltner", "state": "NE", "lat": "40.7749", "lng": "-98.1538"}, {"name": "Hickman", "state": "NE", "lat": "40.6245", "lng": "-96.6313"}, {"name": "Cushing", "state": "NE", "lat": "41.2949", "lng": "-98.3693"}, {"name": "Richland", "state": "NE", "lat": "41.4367", "lng": "-97.2152"}, {"name": "Sidney", "state": "NE", "lat": "41.1340", "lng": "-102.9681"}, {"name": "Bushnell", "state": "NE", "lat": "41.2328", "lng": "-103.8910"}, {"name": "Syracuse", "state": "NE", "lat": "40.6635", "lng": "-96.1827"}, {"name": "North Platte", "state": "NE", "lat": "41.1266", "lng": "-100.7640"}, {"name": "Inman", "state": "NE", "lat": "42.3819", "lng": "-98.5298"}, {"name": "Ralston", "state": "NE", "lat": "41.2005", "lng": "-96.0354"}, {"name": "Louisville", "state": "NE", "lat": "40.9975", "lng": "-96.1612"}, {"name": "Enders", "state": "NE", "lat": "40.4550", "lng": "-101.5355"}, {"name": "Ragan", "state": "NE", "lat": "40.3108", "lng": "-99.2896"}, {"name": "Verdon", "state": "NE", "lat": "40.1491", "lng": "-95.7112"}, {"name": "Winslow", "state": "NE", "lat": "41.6101", "lng": "-96.5047"}, {"name": "Clarks", "state": "NE", "lat": "41.2162", "lng": "-97.8395"}, {"name": "Rulo", "state": "NE", "lat": "40.0516", "lng": "-95.4306"}, {"name": "Springfield", "state": "NE", "lat": "41.0854", "lng": "-96.1332"}, {"name": "Sunol", "state": "NE", "lat": "41.1539", "lng": "-102.7630"}, {"name": "Winnebago", "state": "NE", "lat": "42.2360", "lng": "-96.4720"}, {"name": "Oconto", "state": "NE", "lat": "41.1417", "lng": "-99.7619"}, {"name": "Hazard", "state": "NE", "lat": "41.0914", "lng": "-99.0772"}, {"name": "Chalco", "state": "NE", "lat": "41.1817", "lng": "-96.1353"}, {"name": "Hemingford", "state": "NE", "lat": "42.3213", "lng": "-103.0753"}, {"name": "Fordyce", "state": "NE", "lat": "42.6983", "lng": "-97.3628"}, {"name": "Clarkson", "state": "NE", "lat": "41.7234", "lng": "-97.1215"}, {"name": "Orchard", "state": "NE", "lat": "42.3368", "lng": "-98.2411"}, {"name": "Grant", "state": "NE", "lat": "40.8444", "lng": "-101.7256"}, {"name": "Chapman", "state": "NE", "lat": "41.0232", "lng": "-98.1594"}, {"name": "Monowi", "state": "NE", "lat": "42.8307", "lng": "-98.3296"}, {"name": "Octavia", "state": "NE", "lat": "41.3475", "lng": "-97.0591"}, {"name": "Wood Lake", "state": "NE", "lat": "42.6386", "lng": "-100.2376"}, {"name": "Crawford", "state": "NE", "lat": "42.6845", "lng": "-103.4160"}, {"name": "Cotesfield", "state": "NE", "lat": "41.3575", "lng": "-98.6335"}, {"name": "Sumner", "state": "NE", "lat": "40.9490", "lng": "-99.5081"}, {"name": "Goehner", "state": "NE", "lat": "40.8327", "lng": "-97.2196"}, {"name": "Anoka", "state": "NE", "lat": "42.9460", "lng": "-98.8285"}, {"name": "Davey", "state": "NE", "lat": "40.9838", "lng": "-96.6692"}, {"name": "Lindsay", "state": "NE", "lat": "41.7004", "lng": "-97.6938"}, {"name": "Bruning", "state": "NE", "lat": "40.3358", "lng": "-97.5648"}, {"name": "Leigh", "state": "NE", "lat": "41.7023", "lng": "-97.2398"}, {"name": "Thurston", "state": "NE", "lat": "42.1769", "lng": "-96.7000"}, {"name": "Crookston", "state": "NE", "lat": "42.9264", "lng": "-100.7534"}, {"name": "Raeville", "state": "NE", "lat": "41.8954", "lng": "-98.0537"}, {"name": "Murray", "state": "NE", "lat": "40.9163", "lng": "-95.9267"}, {"name": "Auburn", "state": "NE", "lat": "40.3894", "lng": "-95.8436"}, {"name": "Alliance", "state": "NE", "lat": "42.1025", "lng": "-102.8766"}, {"name": "Superior", "state": "NE", "lat": "40.0230", "lng": "-98.0663"}, {"name": "Wallace", "state": "NE", "lat": "40.8375", "lng": "-101.1645"}, {"name": "Willow Island", "state": "NE", "lat": "40.8900", "lng": "-100.0707"}, {"name": "Berwyn", "state": "NE", "lat": "41.3508", "lng": "-99.5006"}, {"name": "Scribner", "state": "NE", "lat": "41.6651", "lng": "-96.6653"}, {"name": "Minden", "state": "NE", "lat": "40.4981", "lng": "-98.9671"}, {"name": "Diller", "state": "NE", "lat": "40.1089", "lng": "-96.9374"}, {"name": "Curtis", "state": "NE", "lat": "40.6335", "lng": "-100.5112"}, {"name": "St. Libory", "state": "NE", "lat": "41.0822", "lng": "-98.3590"}, {"name": "Washington", "state": "NE", "lat": "41.3976", "lng": "-96.2074"}, {"name": "Meadow Grove", "state": "NE", "lat": "42.0290", "lng": "-97.7360"}, {"name": "King Lake", "state": "NE", "lat": "41.3135", "lng": "-96.3017"}, {"name": "Richfield", "state": "NE", "lat": "41.1108", "lng": "-96.0763"}, {"name": "Terrytown", "state": "NE", "lat": "41.8465", "lng": "-103.6708"}, {"name": "Guide Rock", "state": "NE", "lat": "40.0738", "lng": "-98.3288"}, {"name": "Callaway", "state": "NE", "lat": "41.2915", "lng": "-99.9203"}, {"name": "Oxford", "state": "NE", "lat": "40.2530", "lng": "-99.6322"}, {"name": "Hildreth", "state": "NE", "lat": "40.3378", "lng": "-99.0458"}, {"name": "Wilsonville", "state": "NE", "lat": "40.1119", "lng": "-100.1067"}, {"name": "Central City", "state": "NE", "lat": "41.1132", "lng": "-98.0002"}, {"name": "Poole", "state": "NE", "lat": "40.9871", "lng": "-98.9655"}, {"name": "Newport", "state": "NE", "lat": "42.6003", "lng": "-99.3283"}, {"name": "Mead", "state": "NE", "lat": "41.2136", "lng": "-96.4824"}, {"name": "Ceresco", "state": "NE", "lat": "41.0580", "lng": "-96.6459"}, {"name": "Roca", "state": "NE", "lat": "40.6584", "lng": "-96.6615"}, {"name": "Belgrade", "state": "NE", "lat": "41.4709", "lng": "-98.0677"}, {"name": "Concord", "state": "NE", "lat": "42.3838", "lng": "-96.9891"}, {"name": "Cairo", "state": "NE", "lat": "41.0046", "lng": "-98.6007"}, {"name": "Fairmont", "state": "NE", "lat": "40.6331", "lng": "-97.5878"}, {"name": "Elwood", "state": "NE", "lat": "40.5897", "lng": "-99.8616"}, {"name": "Newman Grove", "state": "NE", "lat": "41.7469", "lng": "-97.7767"}, {"name": "Manley", "state": "NE", "lat": "40.9198", "lng": "-96.1665"}, {"name": "Elmwood", "state": "NE", "lat": "40.8426", "lng": "-96.2948"}, {"name": "West Point", "state": "NE", "lat": "41.8378", "lng": "-96.7062"}, {"name": "Jackson", "state": "NE", "lat": "42.4507", "lng": "-96.5790"}, {"name": "Gibbon", "state": "NE", "lat": "40.7461", "lng": "-98.8458"}, {"name": "Cozad", "state": "NE", "lat": "40.8612", "lng": "-99.9863"}, {"name": "Douglas", "state": "NE", "lat": "40.5932", "lng": "-96.3882"}, {"name": "Obert", "state": "NE", "lat": "42.6895", "lng": "-97.0272"}, {"name": "Waterloo", "state": "NE", "lat": "41.2856", "lng": "-96.2850"}, {"name": "Surprise", "state": "NE", "lat": "41.1047", "lng": "-97.3086"}, {"name": "Elyria", "state": "NE", "lat": "41.6802", "lng": "-99.0053"}, {"name": "Eagle", "state": "NE", "lat": "40.8161", "lng": "-96.4329"}, {"name": "Lawrence", "state": "NE", "lat": "40.2902", "lng": "-98.2596"}, {"name": "Hyannis", "state": "NE", "lat": "42.0005", "lng": "-101.7622"}, {"name": "Scottsbluff", "state": "NE", "lat": "41.8684", "lng": "-103.6619"}, {"name": "Wymore", "state": "NE", "lat": "40.1221", "lng": "-96.6643"}, {"name": "Ord", "state": "NE", "lat": "41.5995", "lng": "-98.9169"}, {"name": "Anselmo", "state": "NE", "lat": "41.6186", "lng": "-99.8645"}, {"name": "Doniphan", "state": "NE", "lat": "40.7742", "lng": "-98.3708"}, {"name": "Creston", "state": "NE", "lat": "41.7081", "lng": "-97.3625"}, {"name": "Loretto", "state": "NE", "lat": "41.7635", "lng": "-98.0817"}, {"name": "Gordon", "state": "NE", "lat": "42.8064", "lng": "-102.2040"}, {"name": "Nickerson", "state": "NE", "lat": "41.5349", "lng": "-96.4709"}, {"name": "Tamora", "state": "NE", "lat": "40.8945", "lng": "-97.2252"}, {"name": "Humphrey", "state": "NE", "lat": "41.6884", "lng": "-97.4852"}, {"name": "Leshara", "state": "NE", "lat": "41.3298", "lng": "-96.4292"}, {"name": "Belmar", "state": "NE", "lat": "41.3055", "lng": "-101.9346"}, {"name": "Lyons", "state": "NE", "lat": "41.9360", "lng": "-96.4717"}, {"name": "Humboldt", "state": "NE", "lat": "40.1659", "lng": "-95.9443"}, {"name": "Holbrook", "state": "NE", "lat": "40.3047", "lng": "-100.0099"}, {"name": "Potter", "state": "NE", "lat": "41.2244", "lng": "-103.1900"}, {"name": "Ong", "state": "NE", "lat": "40.3983", "lng": "-97.8392"}, {"name": "Valentine", "state": "NE", "lat": "42.8739", "lng": "-100.5498"}, {"name": "Hebron", "state": "NE", "lat": "40.1681", "lng": "-97.5872"}, {"name": "Bradshaw", "state": "NE", "lat": "40.8835", "lng": "-97.7470"}, {"name": "Sutherland", "state": "NE", "lat": "41.1602", "lng": "-101.1228"}, {"name": "Woodland Hills", "state": "NE", "lat": "40.7511", "lng": "-96.4210"}, {"name": "Brock", "state": "NE", "lat": "40.4804", "lng": "-95.9601"}, {"name": "Elba", "state": "NE", "lat": "41.2853", "lng": "-98.5693"}, {"name": "Clatonia", "state": "NE", "lat": "40.4653", "lng": "-96.8516"}, {"name": "Benedict", "state": "NE", "lat": "41.0063", "lng": "-97.6073"}, {"name": "Arlington", "state": "NE", "lat": "41.4548", "lng": "-96.3565"}, {"name": "Lewellen", "state": "NE", "lat": "41.3306", "lng": "-102.1437"}, {"name": "Bennington", "state": "NE", "lat": "41.3682", "lng": "-96.1617"}, {"name": "Sargent", "state": "NE", "lat": "41.6400", "lng": "-99.3688"}, {"name": "Milligan", "state": "NE", "lat": "40.5004", "lng": "-97.3885"}, {"name": "Nelson", "state": "NE", "lat": "40.2012", "lng": "-98.0687"}, {"name": "Friend", "state": "NE", "lat": "40.6505", "lng": "-97.2837"}, {"name": "Geneva", "state": "NE", "lat": "40.5308", "lng": "-97.5974"}, {"name": "Western", "state": "NE", "lat": "40.3931", "lng": "-97.1984"}, {"name": "Loup City", "state": "NE", "lat": "41.2766", "lng": "-98.9678"}, {"name": "McCool Junction", "state": "NE", "lat": "40.7440", "lng": "-97.6007"}, {"name": "Greenwood", "state": "NE", "lat": "40.9614", "lng": "-96.4433"}, {"name": "Inland", "state": "NE", "lat": "40.5953", "lng": "-98.2232"}, {"name": "Brady", "state": "NE", "lat": "41.0223", "lng": "-100.3674"}, {"name": "Bee", "state": "NE", "lat": "41.0064", "lng": "-97.0583"}, {"name": "Garrison", "state": "NE", "lat": "41.1754", "lng": "-97.1633"}, {"name": "Venango", "state": "NE", "lat": "40.7637", "lng": "-102.0441"}, {"name": "Bazile Mills", "state": "NE", "lat": "42.5124", "lng": "-97.9083"}, {"name": "Bartley", "state": "NE", "lat": "40.2511", "lng": "-100.3104"}, {"name": "North Bend", "state": "NE", "lat": "41.4648", "lng": "-96.7831"}, {"name": "Julian", "state": "NE", "lat": "40.5198", "lng": "-95.8674"}, {"name": "Preston", "state": "NE", "lat": "40.0346", "lng": "-95.5182"}, {"name": "Hershey", "state": "NE", "lat": "41.1602", "lng": "-100.9984"}, {"name": "Nehawka", "state": "NE", "lat": "40.8295", "lng": "-95.9901"}, {"name": "Hallam", "state": "NE", "lat": "40.5376", "lng": "-96.7866"}, {"name": "Thayer", "state": "NE", "lat": "40.9703", "lng": "-97.4967"}, {"name": "Allen", "state": "NE", "lat": "42.4144", "lng": "-96.8431"}, {"name": "Fairbury", "state": "NE", "lat": "40.1449", "lng": "-97.1764"}, {"name": "Niobrara", "state": "NE", "lat": "42.7499", "lng": "-98.0313"}, {"name": "Elm Creek", "state": "NE", "lat": "40.7201", "lng": "-99.3756"}, {"name": "Table Rock", "state": "NE", "lat": "40.1783", "lng": "-96.0888"}, {"name": "Lindy", "state": "NE", "lat": "42.7351", "lng": "-97.7499"}, {"name": "Bladen", "state": "NE", "lat": "40.3232", "lng": "-98.5961"}, {"name": "Primrose", "state": "NE", "lat": "41.6238", "lng": "-98.2377"}, {"name": "Shelby", "state": "NE", "lat": "41.1941", "lng": "-97.4265"}, {"name": "Lushton", "state": "NE", "lat": "40.7240", "lng": "-97.7237"}, {"name": "Martinsburg", "state": "NE", "lat": "42.5082", "lng": "-96.8314"}, {"name": "Parks", "state": "NE", "lat": "40.0437", "lng": "-101.7251"}, {"name": "Phillips", "state": "NE", "lat": "40.8976", "lng": "-98.2145"}, {"name": "Clearwater", "state": "NE", "lat": "42.1707", "lng": "-98.1897"}, {"name": "Ericson", "state": "NE", "lat": "41.7803", "lng": "-98.6785"}, {"name": "Belvidere", "state": "NE", "lat": "40.2545", "lng": "-97.5578"}, {"name": "Juniata", "state": "NE", "lat": "40.5903", "lng": "-98.5069"}, {"name": "Grand Island", "state": "NE", "lat": "40.9214", "lng": "-98.3584"}, {"name": "Norman", "state": "NE", "lat": "40.4791", "lng": "-98.7922"}, {"name": "Brownlee", "state": "NE", "lat": "42.2893", "lng": "-100.6241"}, {"name": "Tekamah", "state": "NE", "lat": "41.7779", "lng": "-96.2248"}, {"name": "Wauneta", "state": "NE", "lat": "40.4165", "lng": "-101.3766"}, {"name": "Wahoo", "state": "NE", "lat": "41.2166", "lng": "-96.6171"}, {"name": "Trumbull", "state": "NE", "lat": "40.6801", "lng": "-98.2734"}, {"name": "Herman", "state": "NE", "lat": "41.6739", "lng": "-96.2167"}, {"name": "Staplehurst", "state": "NE", "lat": "40.9747", "lng": "-97.1731"}, {"name": "Tilden", "state": "NE", "lat": "42.0439", "lng": "-97.8320"}, {"name": "Sutton", "state": "NE", "lat": "40.6072", "lng": "-97.8588"}, {"name": "Riverdale", "state": "NE", "lat": "40.7839", "lng": "-99.1605"}, {"name": "Wilcox", "state": "NE", "lat": "40.3641", "lng": "-99.1694"}, {"name": "Nemaha", "state": "NE", "lat": "40.3388", "lng": "-95.6760"}, {"name": "Rogers", "state": "NE", "lat": "41.4643", "lng": "-96.9159"}, {"name": "Huntley", "state": "NE", "lat": "40.2105", "lng": "-99.2905"}, {"name": "Cedar Bluffs", "state": "NE", "lat": "41.3971", "lng": "-96.6098"}, {"name": "Chester", "state": "NE", "lat": "40.0101", "lng": "-97.6181"}, {"name": "Holstein", "state": "NE", "lat": "40.4652", "lng": "-98.6510"}, {"name": "Madison", "state": "NE", "lat": "41.8286", "lng": "-97.4568"}, {"name": "Westerville", "state": "NE", "lat": "41.3962", "lng": "-99.3817"}, {"name": "Hamlet", "state": "NE", "lat": "40.3845", "lng": "-101.2346"}, {"name": "Pleasanton", "state": "NE", "lat": "40.9699", "lng": "-99.0875"}, {"name": "White Clay", "state": "NE", "lat": "42.9968", "lng": "-102.5551"}, {"name": "Orleans", "state": "NE", "lat": "40.1317", "lng": "-99.4551"}, {"name": "Duncan", "state": "NE", "lat": "41.3901", "lng": "-97.4934"}, {"name": "Fullerton", "state": "NE", "lat": "41.3648", "lng": "-97.9725"}, {"name": "Fontanelle", "state": "NE", "lat": "41.5383", "lng": "-96.4272"}, {"name": "Wayne", "state": "NE", "lat": "42.2379", "lng": "-97.0101"}, {"name": "Lorenzo", "state": "NE", "lat": "41.0576", "lng": "-103.0821"}, {"name": "Yutan", "state": "NE", "lat": "41.2431", "lng": "-96.3959"}, {"name": "Alda", "state": "NE", "lat": "40.8666", "lng": "-98.4679"}, {"name": "Bruno", "state": "NE", "lat": "41.2832", "lng": "-96.9610"}, {"name": "Dodge", "state": "NE", "lat": "41.7218", "lng": "-96.8804"}, {"name": "North Loup", "state": "NE", "lat": "41.4955", "lng": "-98.7726"}, {"name": "Hay Springs", "state": "NE", "lat": "42.6834", "lng": "-102.6896"}, {"name": "St. Helena", "state": "NE", "lat": "42.8106", "lng": "-97.2488"}, {"name": "Culbertson", "state": "NE", "lat": "40.2284", "lng": "-100.8351"}, {"name": "Hooper", "state": "NE", "lat": "41.6117", "lng": "-96.5485"}, {"name": "Crab Orchard", "state": "NE", "lat": "40.3346", "lng": "-96.4225"}, {"name": "Emmet", "state": "NE", "lat": "42.4757", "lng": "-98.8093"}, {"name": "Cedar Creek", "state": "NE", "lat": "41.0451", "lng": "-96.1016"}, {"name": "Stapleton", "state": "NE", "lat": "41.4802", "lng": "-100.5126"}, {"name": "Dakota City", "state": "NE", "lat": "42.4184", "lng": "-96.4202"}, {"name": "Lexington", "state": "NE", "lat": "40.7780", "lng": "-99.7462"}, {"name": "Osceola", "state": "NE", "lat": "41.1782", "lng": "-97.5498"}, {"name": "Prosser", "state": "NE", "lat": "40.6877", "lng": "-98.5777"}, {"name": "Brownville", "state": "NE", "lat": "40.3977", "lng": "-95.6611"}, {"name": "Inavale", "state": "NE", "lat": "40.0923", "lng": "-98.6484"}, {"name": "Prague", "state": "NE", "lat": "41.3095", "lng": "-96.8081"}, {"name": "Byron", "state": "NE", "lat": "40.0048", "lng": "-97.7686"}, {"name": "Coleridge", "state": "NE", "lat": "42.5065", "lng": "-97.2029"}, {"name": "Chambers", "state": "NE", "lat": "42.2047", "lng": "-98.7486"}, {"name": "Springview", "state": "NE", "lat": "42.8249", "lng": "-99.7475"}, {"name": "Battle Creek", "state": "NE", "lat": "41.9981", "lng": "-97.5994"}, {"name": "Brewster", "state": "NE", "lat": "41.9383", "lng": "-99.8652"}, {"name": "Plymouth", "state": "NE", "lat": "40.3024", "lng": "-96.9886"}, {"name": "Unadilla", "state": "NE", "lat": "40.6826", "lng": "-96.2699"}, {"name": "Bayard", "state": "NE", "lat": "41.7572", "lng": "-103.3230"}, {"name": "Aten", "state": "NE", "lat": "42.8368", "lng": "-97.4409"}, {"name": "Lamar", "state": "NE", "lat": "40.5725", "lng": "-101.9793"}, {"name": "Brainard", "state": "NE", "lat": "41.1818", "lng": "-97.0022"}, {"name": "Boys Town", "state": "NE", "lat": "41.2560", "lng": "-96.1336"}, {"name": "O'Neill", "state": "NE", "lat": "42.4610", "lng": "-98.6465"}, {"name": "Tobias", "state": "NE", "lat": "40.4185", "lng": "-97.3367"}, {"name": "York", "state": "NE", "lat": "40.8698", "lng": "-97.5943"}, {"name": "Harvard", "state": "NE", "lat": "40.6201", "lng": "-98.0961"}, {"name": "Butte", "state": "NE", "lat": "42.9125", "lng": "-98.8479"}, {"name": "Ames", "state": "NE", "lat": "41.4491", "lng": "-96.6262"}, {"name": "Swanton", "state": "NE", "lat": "40.3794", "lng": "-97.0798"}, {"name": "Winside", "state": "NE", "lat": "42.1774", "lng": "-97.1752"}, {"name": "Bristow", "state": "NE", "lat": "42.8409", "lng": "-98.5835"}, {"name": "Edgar", "state": "NE", "lat": "40.3683", "lng": "-97.9710"}, {"name": "Cowles", "state": "NE", "lat": "40.1714", "lng": "-98.4491"}, {"name": "Stratton", "state": "NE", "lat": "40.1503", "lng": "-101.2280"}, {"name": "Offutt AFB", "state": "NE", "lat": "41.1207", "lng": "-95.9210"}, {"name": "Endicott", "state": "NE", "lat": "40.0814", "lng": "-97.0954"}, {"name": "Seneca", "state": "NE", "lat": "42.0440", "lng": "-100.8320"}, {"name": "Stockville", "state": "NE", "lat": "40.5335", "lng": "-100.3845"}, {"name": "Malcolm", "state": "NE", "lat": "40.9090", "lng": "-96.8657"}, {"name": "Paxton", "state": "NE", "lat": "41.1235", "lng": "-101.3521"}, {"name": "Eddyville", "state": "NE", "lat": "41.0121", "lng": "-99.6241"}, {"name": "Colon", "state": "NE", "lat": "41.2981", "lng": "-96.6070"}, {"name": "Marquette", "state": "NE", "lat": "41.0064", "lng": "-98.0098"}, {"name": "Reynolds", "state": "NE", "lat": "40.0598", "lng": "-97.3359"}, {"name": "Oakland", "state": "NE", "lat": "41.8355", "lng": "-96.4668"}, {"name": "Bellwood", "state": "NE", "lat": "41.3419", "lng": "-97.2398"}, {"name": "Falls City", "state": "NE", "lat": "40.0623", "lng": "-95.5990"}, {"name": "Lyman", "state": "NE", "lat": "41.9177", "lng": "-104.0375"}, {"name": "Bertrand", "state": "NE", "lat": "40.5263", "lng": "-99.6324"}, {"name": "Pleasant Dale", "state": "NE", "lat": "40.7913", "lng": "-96.9330"}, {"name": "Craig", "state": "NE", "lat": "41.7852", "lng": "-96.3624"}, {"name": "St. Edward", "state": "NE", "lat": "41.5716", "lng": "-97.8611"}, {"name": "Morse Bluff", "state": "NE", "lat": "41.4310", "lng": "-96.7664"}, {"name": "Moorefield", "state": "NE", "lat": "40.6899", "lng": "-100.4004"}, {"name": "Cornlea", "state": "NE", "lat": "41.6801", "lng": "-97.5669"}, {"name": "Dorchester", "state": "NE", "lat": "40.6473", "lng": "-97.1150"}, {"name": "Waterbury", "state": "NE", "lat": "42.4571", "lng": "-96.7353"}, {"name": "Whitney", "state": "NE", "lat": "42.7838", "lng": "-103.2568"}, {"name": "Atlanta", "state": "NE", "lat": "40.3684", "lng": "-99.4731"}, {"name": "Funk", "state": "NE", "lat": "40.4630", "lng": "-99.2508"}, {"name": "Homer", "state": "NE", "lat": "42.3226", "lng": "-96.4912"}, {"name": "Pierce", "state": "NE", "lat": "42.1991", "lng": "-97.5284"}, {"name": "Broken Bow", "state": "NE", "lat": "41.4052", "lng": "-99.6401"}, {"name": "Pilger", "state": "NE", "lat": "42.0077", "lng": "-97.0546"}, {"name": "Arnold", "state": "NE", "lat": "41.4232", "lng": "-100.1936"}, {"name": "Alvo", "state": "NE", "lat": "40.8723", "lng": "-96.3867"}, {"name": "Omaha", "state": "NE", "lat": "41.2628", "lng": "-96.0498"}, {"name": "Davenport", "state": "NE", "lat": "40.3123", "lng": "-97.8115"}, {"name": "Carleton", "state": "NE", "lat": "40.3033", "lng": "-97.6816"}, {"name": "Kimball", "state": "NE", "lat": "41.2336", "lng": "-103.6512"}, {"name": "Elgin", "state": "NE", "lat": "41.9831", "lng": "-98.0828"}, {"name": "Ulysses", "state": "NE", "lat": "41.0722", "lng": "-97.2029"}, {"name": "Elk Creek", "state": "NE", "lat": "40.2883", "lng": "-96.1268"}, {"name": "Hendley", "state": "NE", "lat": "40.1312", "lng": "-99.9713"}, {"name": "Plattsmouth", "state": "NE", "lat": "41.0053", "lng": "-95.8940"}, {"name": "Lakeview", "state": "NE", "lat": "41.4998", "lng": "-97.3775"}, {"name": "Monroe", "state": "NE", "lat": "41.4740", "lng": "-97.5999"}, {"name": "Howard City", "state": "NE", "lat": "41.0752", "lng": "-98.7155"}, {"name": "Loomis", "state": "NE", "lat": "40.4782", "lng": "-99.5077"}, {"name": "Hubbard", "state": "NE", "lat": "42.3859", "lng": "-96.5915"}, {"name": "Tecumseh", "state": "NE", "lat": "40.3718", "lng": "-96.1890"}, {"name": "Broadwater", "state": "NE", "lat": "41.5979", "lng": "-102.8524"}, {"name": "Utica", "state": "NE", "lat": "40.8953", "lng": "-97.3455"}, {"name": "Sterling", "state": "NE", "lat": "40.4612", "lng": "-96.3776"}, {"name": "Raymond", "state": "NE", "lat": "40.9567", "lng": "-96.7816"}, {"name": "Linwood", "state": "NE", "lat": "41.4122", "lng": "-96.9323"}, {"name": "Grafton", "state": "NE", "lat": "40.6298", "lng": "-97.7147"}, {"name": "Blair", "state": "NE", "lat": "41.5417", "lng": "-96.1361"}, {"name": "Talmage", "state": "NE", "lat": "40.5316", "lng": "-96.0240"}, {"name": "Ainsworth", "state": "NE", "lat": "42.5485", "lng": "-99.8574"}, {"name": "Merna", "state": "NE", "lat": "41.4851", "lng": "-99.7610"}, {"name": "Beaver City", "state": "NE", "lat": "40.1383", "lng": "-99.8276"}, {"name": "Bartlett", "state": "NE", "lat": "41.8839", "lng": "-98.5527"}, {"name": "Center", "state": "NE", "lat": "42.6090", "lng": "-97.8761"}, {"name": "Harrisburg", "state": "NE", "lat": "41.5505", "lng": "-103.7267"}, {"name": "South Bend", "state": "NE", "lat": "41.0021", "lng": "-96.2474"}, {"name": "Bow Valley", "state": "NE", "lat": "42.7154", "lng": "-97.2522"}, {"name": "Fort Calhoun", "state": "NE", "lat": "41.4563", "lng": "-96.0263"}, {"name": "Platte Center", "state": "NE", "lat": "41.5374", "lng": "-97.4886"}, {"name": "Papillion", "state": "NE", "lat": "41.1516", "lng": "-96.0679"}, {"name": "Pawnee City", "state": "NE", "lat": "40.1106", "lng": "-96.1530"}, {"name": "Chappell", "state": "NE", "lat": "41.0913", "lng": "-102.4699"}, {"name": "Spencer", "state": "NE", "lat": "42.8749", "lng": "-98.7002"}, {"name": "Hordville", "state": "NE", "lat": "41.0794", "lng": "-97.8904"}, {"name": "Hastings", "state": "NE", "lat": "40.5963", "lng": "-98.3914"}, {"name": "McLean", "state": "NE", "lat": "42.3861", "lng": "-97.4681"}, {"name": "Rushville", "state": "NE", "lat": "42.7134", "lng": "-102.4666"}, {"name": "Crofton", "state": "NE", "lat": "42.7315", "lng": "-97.4986"}, {"name": "Comstock", "state": "NE", "lat": "41.5572", "lng": "-99.2430"}, {"name": "South Sioux City", "state": "NE", "lat": "42.4627", "lng": "-96.4126"}, {"name": "Bloomfield", "state": "NE", "lat": "42.5983", "lng": "-97.6477"}, {"name": "Bancroft", "state": "NE", "lat": "42.0104", "lng": "-96.5733"}, {"name": "Shubert", "state": "NE", "lat": "40.2360", "lng": "-95.6836"}, {"name": "Harrison", "state": "NE", "lat": "42.6879", "lng": "-103.8826"}, {"name": "Campbell", "state": "NE", "lat": "40.2963", "lng": "-98.7316"}, {"name": "Laurel", "state": "NE", "lat": "42.4301", "lng": "-97.0986"}, {"name": "Ithaca", "state": "NE", "lat": "41.1593", "lng": "-96.5394"}, {"name": "Brule", "state": "NE", "lat": "41.0946", "lng": "-101.8885"}, {"name": "Gretna", "state": "NE", "lat": "41.1319", "lng": "-96.2447"}, {"name": "Denton", "state": "NE", "lat": "40.7393", "lng": "-96.8460"}, {"name": "Deshler", "state": "NE", "lat": "40.1396", "lng": "-97.7234"}, {"name": "Lodgepole", "state": "NE", "lat": "41.1490", "lng": "-102.6389"}, {"name": "Royal", "state": "NE", "lat": "42.3329", "lng": "-98.1251"}, {"name": "Sholes", "state": "NE", "lat": "42.3348", "lng": "-97.2946"}, {"name": "Clay Center", "state": "NE", "lat": "40.5256", "lng": "-98.0550"}, {"name": "Wynot", "state": "NE", "lat": "42.7398", "lng": "-97.1699"}, {"name": "Dixon", "state": "NE", "lat": "42.4153", "lng": "-96.9948"}, {"name": "Cortland", "state": "NE", "lat": "40.5059", "lng": "-96.7063"}, {"name": "Minatare", "state": "NE", "lat": "41.8112", "lng": "-103.5020"}, {"name": "Oakdale", "state": "NE", "lat": "42.0701", "lng": "-97.9671"}, {"name": "Gering", "state": "NE", "lat": "41.8275", "lng": "-103.6649"}, {"name": "Fremont", "state": "NE", "lat": "41.4396", "lng": "-96.4879"}, {"name": "Virginia", "state": "NE", "lat": "40.2459", "lng": "-96.4988"}, {"name": "Roseland", "state": "NE", "lat": "40.4697", "lng": "-98.5586"}, {"name": "Newcastle", "state": "NE", "lat": "42.6524", "lng": "-96.8740"}, {"name": "Arapahoe", "state": "NE", "lat": "40.3049", "lng": "-99.8980"}, {"name": "Lincoln", "state": "NE", "lat": "40.8088", "lng": "-96.6796"}, {"name": "Adams", "state": "NE", "lat": "40.4571", "lng": "-96.5127"}, {"name": "Howells", "state": "NE", "lat": "41.7241", "lng": "-97.0043"}, {"name": "Rockville", "state": "NE", "lat": "41.1183", "lng": "-98.8312"}, {"name": "Arthur", "state": "NE", "lat": "41.5718", "lng": "-101.6923"}, {"name": "Pender", "state": "NE", "lat": "42.1106", "lng": "-96.7114"}, {"name": "Plainview", "state": "NE", "lat": "42.3534", "lng": "-97.7871"}, {"name": "Martin", "state": "NE", "lat": "41.2581", "lng": "-101.7091"}, {"name": "Wann", "state": "NE", "lat": "41.1393", "lng": "-96.3632"}, {"name": "Kearney", "state": "NE", "lat": "40.7008", "lng": "-99.0847"}, {"name": "Page", "state": "NE", "lat": "42.4000", "lng": "-98.4177"}, {"name": "Creighton", "state": "NE", "lat": "42.4649", "lng": "-97.9072"}, {"name": "Madrid", "state": "NE", "lat": "40.8525", "lng": "-101.5278"}, {"name": "Lebanon", "state": "NE", "lat": "40.0487", "lng": "-100.2761"}, {"name": "Tarnov", "state": "NE", "lat": "41.6148", "lng": "-97.5025"}, {"name": "Blue Hill", "state": "NE", "lat": "40.3330", "lng": "-98.4483"}, {"name": "Indianola", "state": "NE", "lat": "40.2346", "lng": "-100.4198"}, {"name": "Gross", "state": "NE", "lat": "42.9461", "lng": "-98.5698"}, {"name": "Dunbar", "state": "NE", "lat": "40.6687", "lng": "-96.0309"}, {"name": "Polk", "state": "NE", "lat": "41.0755", "lng": "-97.7834"}, {"name": "Wausa", "state": "NE", "lat": "42.4979", "lng": "-97.5393"}, {"name": "Cody", "state": "NE", "lat": "42.9377", "lng": "-101.2489"}, {"name": "Saronville", "state": "NE", "lat": "40.6030", "lng": "-97.9387"}, {"name": "Keystone", "state": "NE", "lat": "41.2187", "lng": "-101.5841"}, {"name": "Sarben", "state": "NE", "lat": "41.1662", "lng": "-101.3043"}, {"name": "Murdock", "state": "NE", "lat": "40.9259", "lng": "-96.2811"}, {"name": "Republican City", "state": "NE", "lat": "40.0987", "lng": "-99.2223"}, {"name": "Steinauer", "state": "NE", "lat": "40.2073", "lng": "-96.2329"}, {"name": "Columbus", "state": "NE", "lat": "41.4361", "lng": "-97.3561"}, {"name": "Champion", "state": "NE", "lat": "40.4706", "lng": "-101.7469"}, {"name": "Woodland Park", "state": "NE", "lat": "42.0542", "lng": "-97.3452"}, {"name": "Trenton", "state": "NE", "lat": "40.1746", "lng": "-101.0136"}, {"name": "Overland", "state": "NE", "lat": "41.0808", "lng": "-97.9784"}, {"name": "Odessa", "state": "NE", "lat": "40.6990", "lng": "-99.2544"}, {"name": "Macy", "state": "NE", "lat": "42.1160", "lng": "-96.3667"}, {"name": "Burr", "state": "NE", "lat": "40.5360", "lng": "-96.2997"}, {"name": "Pickrell", "state": "NE", "lat": "40.3781", "lng": "-96.7295"}, {"name": "Wood River", "state": "NE", "lat": "40.8208", "lng": "-98.6003"}, {"name": "Decatur", "state": "NE", "lat": "42.0056", "lng": "-96.2497"}, {"name": "Glenvil", "state": "NE", "lat": "40.5027", "lng": "-98.2546"}, {"name": "Johnstown", "state": "NE", "lat": "42.5721", "lng": "-100.0563"}, {"name": "Genoa", "state": "NE", "lat": "41.4462", "lng": "-97.7322"}, {"name": "Palisade", "state": "NE", "lat": "40.3483", "lng": "-101.1075"}, {"name": "Barada", "state": "NE", "lat": "40.2183", "lng": "-95.5778"}, {"name": "Holdrege", "state": "NE", "lat": "40.4394", "lng": "-99.3774"}, {"name": "Union", "state": "NE", "lat": "40.8144", "lng": "-95.9215"}, {"name": "Melbeta", "state": "NE", "lat": "41.7819", "lng": "-103.5171"}, {"name": "Stuart", "state": "NE", "lat": "42.6011", "lng": "-99.1406"}, {"name": "Kilgore", "state": "NE", "lat": "42.9392", "lng": "-100.9571"}, {"name": "Dwight", "state": "NE", "lat": "41.0827", "lng": "-97.0191"}, {"name": "Cambridge", "state": "NE", "lat": "40.2843", "lng": "-100.1654"}, {"name": "Clinton", "state": "NE", "lat": "42.7598", "lng": "-102.3477"}, {"name": "La Vista", "state": "NE", "lat": "41.1816", "lng": "-96.0665"}, {"name": "Maxwell", "state": "NE", "lat": "41.0784", "lng": "-100.5258"}, {"name": "Gresham", "state": "NE", "lat": "41.0284", "lng": "-97.4011"}, {"name": "Schuyler", "state": "NE", "lat": "41.4497", "lng": "-97.0619"}, {"name": "Osmond", "state": "NE", "lat": "42.3583", "lng": "-97.5990"}, {"name": "Eustis", "state": "NE", "lat": "40.6644", "lng": "-100.0296"}, {"name": "Burton", "state": "NE", "lat": "42.9119", "lng": "-99.5918"}, {"name": "Upland", "state": "NE", "lat": "40.3195", "lng": "-98.9024"}, {"name": "Blue Springs", "state": "NE", "lat": "40.1376", "lng": "-96.6631"}, {"name": "Lemoyne", "state": "NE", "lat": "41.2766", "lng": "-101.8133"}, {"name": "Shickley", "state": "NE", "lat": "40.4165", "lng": "-97.7242"}, {"name": "Waco", "state": "NE", "lat": "40.8970", "lng": "-97.4615"}, {"name": "Ponca", "state": "NE", "lat": "42.5648", "lng": "-96.7097"}, {"name": "Snyder", "state": "NE", "lat": "41.7046", "lng": "-96.7868"}, {"name": "Long Pine", "state": "NE", "lat": "42.5353", "lng": "-99.7027"}, {"name": "Imperial", "state": "NE", "lat": "40.5145", "lng": "-101.6374"}, {"name": "Atkinson", "state": "NE", "lat": "42.5308", "lng": "-98.9746"}, {"name": "Tryon", "state": "NE", "lat": "41.5584", "lng": "-100.9536"}, {"name": "Bloomington", "state": "NE", "lat": "40.0938", "lng": "-99.0384"}, {"name": "Valley", "state": "NE", "lat": "41.3147", "lng": "-96.3565"}, {"name": "Ewing", "state": "NE", "lat": "42.2594", "lng": "-98.3438"}, {"name": "Danbury", "state": "NE", "lat": "40.0376", "lng": "-100.4051"}, {"name": "Wolbach", "state": "NE", "lat": "41.4013", "lng": "-98.3940"}, {"name": "Heartwell", "state": "NE", "lat": "40.5699", "lng": "-98.7891"}, {"name": "Lisco", "state": "NE", "lat": "41.4987", "lng": "-102.6237"}, {"name": "Wisner", "state": "NE", "lat": "41.9878", "lng": "-96.9135"}, {"name": "Hayes Center", "state": "NE", "lat": "40.5110", "lng": "-101.0203"}, {"name": "Maywood", "state": "NE", "lat": "40.6587", "lng": "-100.6222"}, {"name": "Memphis", "state": "NE", "lat": "41.0946", "lng": "-96.4331"}, {"name": "Lorton", "state": "NE", "lat": "40.5972", "lng": "-96.0242"}, {"name": "Naponee", "state": "NE", "lat": "40.0747", "lng": "-99.1386"}, {"name": "McGrew", "state": "NE", "lat": "41.7477", "lng": "-103.4175"}, {"name": "Riverton", "state": "NE", "lat": "40.0897", "lng": "-98.7597"}, {"name": "Beemer", "state": "NE", "lat": "41.9299", "lng": "-96.8093"}, {"name": "Glenwood", "state": "NE", "lat": "40.7555", "lng": "-99.0810"}, {"name": "Gothenburg", "state": "NE", "lat": "40.9241", "lng": "-100.1540"}, {"name": "Nenzel", "state": "NE", "lat": "42.9274", "lng": "-101.1018"}, {"name": "Beatrice", "state": "NE", "lat": "40.2738", "lng": "-96.7455"}, {"name": "Weston", "state": "NE", "lat": "41.1931", "lng": "-96.7420"}, {"name": "Berea", "state": "NE", "lat": "42.2123", "lng": "-102.9830"}, {"name": "Salem", "state": "NE", "lat": "40.0769", "lng": "-95.7285"}, {"name": "Benkelman", "state": "NE", "lat": "40.0517", "lng": "-101.5354"}, {"name": "Dawson", "state": "NE", "lat": "40.1305", "lng": "-95.8296"}, {"name": "Palmyra", "state": "NE", "lat": "40.7057", "lng": "-96.3922"}, {"name": "Du Bois", "state": "NE", "lat": "40.0346", "lng": "-96.0466"}, {"name": "Ravenna", "state": "NE", "lat": "41.0275", "lng": "-98.8946"}, {"name": "Randolph", "state": "NE", "lat": "42.3775", "lng": "-97.3577"}, {"name": "Oak", "state": "NE", "lat": "40.2382", "lng": "-97.9036"}, {"name": "Kenesaw", "state": "NE", "lat": "40.6189", "lng": "-98.6576"}, {"name": "Gilead", "state": "NE", "lat": "40.1461", "lng": "-97.4151"}, {"name": "Verdigre", "state": "NE", "lat": "42.5973", "lng": "-98.0357"}, {"name": "Valparaiso", "state": "NE", "lat": "41.0798", "lng": "-96.8330"}, {"name": "Axtell", "state": "NE", "lat": "40.4798", "lng": "-99.1292"}, {"name": "Burchard", "state": "NE", "lat": "40.1494", "lng": "-96.3488"}, {"name": "Johnson", "state": "NE", "lat": "40.4105", "lng": "-95.9997"}, {"name": "Bellevue", "state": "NE", "lat": "41.1536", "lng": "-95.9357"}, {"name": "Overton", "state": "NE", "lat": "40.7406", "lng": "-99.5374"}, {"name": "Garland", "state": "NE", "lat": "40.9447", "lng": "-96.9854"}, {"name": "Walton", "state": "NE", "lat": "40.7960", "lng": "-96.5657"}, {"name": "Ashton", "state": "NE", "lat": "41.2478", "lng": "-98.7951"}, {"name": "Hoskins", "state": "NE", "lat": "42.1126", "lng": "-97.3045"}, {"name": "Belden", "state": "NE", "lat": "42.4117", "lng": "-97.2075"}, {"name": "Verdel", "state": "NE", "lat": "42.8114", "lng": "-98.1933"}, {"name": "Hadar", "state": "NE", "lat": "42.1072", "lng": "-97.4510"}, {"name": "Elsie", "state": "NE", "lat": "40.8472", "lng": "-101.3892"}, {"name": "Yankee Hill", "state": "NE", "lat": "40.7674", "lng": "-96.7364"}, {"name": "Jansen", "state": "NE", "lat": "40.1863", "lng": "-97.0832"}, {"name": "De Witt", "state": "NE", "lat": "40.3953", "lng": "-96.9222"}]