[{"name": "Somersworth", "state": "NH", "lat": "43.2534", "lng": "-70.8856"}, {"name": "Keene", "state": "NH", "lat": "42.9494", "lng": "-72.2997"}, {"name": "Tilton Northfield", "state": "NH", "lat": "43.4430", "lng": "-71.5937"}, {"name": "Contoocook", "state": "NH", "lat": "43.2232", "lng": "-71.7129"}, {"name": "North Walpole", "state": "NH", "lat": "43.1469", "lng": "-72.4459"}, {"name": "Franklin", "state": "NH", "lat": "43.4499", "lng": "-71.6691"}, {"name": "Berlin", "state": "NH", "lat": "44.4869", "lng": "-71.2599"}, {"name": "West Swanzey", "state": "NH", "lat": "42.8707", "lng": "-72.3225"}, {"name": "North Conway", "state": "NH", "lat": "44.0524", "lng": "-71.1247"}, {"name": "Seabrook Beach", "state": "NH", "lat": "42.8850", "lng": "-70.8234"}, {"name": "Suissevale", "state": "NH", "lat": "43.7233", "lng": "-71.3623"}, {"name": "Suncook", "state": "NH", "lat": "43.1382", "lng": "-71.4529"}, {"name": "Center Ossipee", "state": "NH", "lat": "43.7543", "lng": "-71.1514"}, {"name": "Laconia", "state": "NH", "lat": "43.5724", "lng": "-71.4775"}, {"name": "Concord", "state": "NH", "lat": "43.2305", "lng": "-71.5595"}, {"name": "North Woodstock", "state": "NH", "lat": "44.0364", "lng": "-71.6895"}, {"name": "Hampton Beach", "state": "NH", "lat": "42.9142", "lng": "-70.8128"}, {"name": "Melvin Village", "state": "NH", "lat": "43.6894", "lng": "-71.3033"}, {"name": "Center Sandwich", "state": "NH", "lat": "43.8085", "lng": "-71.4395"}, {"name": "Portsmouth", "state": "NH", "lat": "43.0580", "lng": "-70.7826"}, {"name": "Rochester", "state": "NH", "lat": "43.2990", "lng": "-70.9787"}, {"name": "Claremont", "state": "NH", "lat": "43.3790", "lng": "-72.3368"}, {"name": "Pinardville", "state": "NH", "lat": "43.0010", "lng": "-71.5171"}, {"name": "Dover", "state": "NH", "lat": "43.1887", "lng": "-70.8845"}, {"name": "Manchester", "state": "NH", "lat": "42.9848", "lng": "-71.4447"}, {"name": "East Merrimack", "state": "NH", "lat": "42.8671", "lng": "-71.4839"}, {"name": "West Stewartstown", "state": "NH", "lat": "44.9906", "lng": "-71.5309"}, {"name": "Union", "state": "NH", "lat": "43.4912", "lng": "-71.0231"}, {"name": "Milton Mills", "state": "NH", "lat": "43.5037", "lng": "-70.9654"}, {"name": "South Hooksett", "state": "NH", "lat": "43.0337", "lng": "-71.4256"}, {"name": "Lebanon", "state": "NH", "lat": "43.6353", "lng": "-72.2531"}, {"name": "Blodgett Landing", "state": "NH", "lat": "43.3757", "lng": "-72.0392"}, {"name": "North Haverhill", "state": "NH", "lat": "44.0938", "lng": "-72.0272"}, {"name": "Nashua", "state": "NH", "lat": "42.7491", "lng": "-71.4910"}, {"name": "Woodsville", "state": "NH", "lat": "44.1452", "lng": "-72.0288"}, {"name": "Groveton", "state": "NH", "lat": "44.6048", "lng": "-71.5201"}, {"name": "Sanbornville", "state": "NH", "lat": "43.5524", "lng": "-71.0300"}, {"name": "Mountain Lakes", "state": "NH", "lat": "44.1205", "lng": "-71.9580"}]