[{"name": "Carlstadt", "state": "NJ", "lat": "40.8247", "lng": "-74.0613"}, {"name": "Upper Pohatcong", "state": "NJ", "lat": "40.6774", "lng": "-75.1558"}, {"name": "Zarephath", "state": "NJ", "lat": "40.5361", "lng": "-74.5745"}, {"name": "Trenton", "state": "NJ", "lat": "40.2236", "lng": "-74.7641"}, {"name": "North Cape May", "state": "NJ", "lat": "38.9765", "lng": "-74.9516"}, {"name": "Montvale", "state": "NJ", "lat": "41.0529", "lng": "-74.0499"}, {"name": "Laurence Harbor", "state": "NJ", "lat": "40.4489", "lng": "-74.2495"}, {"name": "White House Station", "state": "NJ", "lat": "40.6159", "lng": "-74.7720"}, {"name": "Beattystown", "state": "NJ", "lat": "40.8222", "lng": "-74.8502"}, {"name": "Plainsboro Center", "state": "NJ", "lat": "40.3311", "lng": "-74.5937"}, {"name": "Audubon Park", "state": "NJ", "lat": "39.8969", "lng": "-75.0890"}, {"name": "Green Knoll", "state": "NJ", "lat": "40.6048", "lng": "-74.6150"}, {"name": "West Freehold", "state": "NJ", "lat": "40.2324", "lng": "-74.2943"}, {"name": "Port Reading", "state": "NJ", "lat": "40.5669", "lng": "-74.2475"}, {"name": "Alpine", "state": "NJ", "lat": "40.9615", "lng": "-73.9199"}, {"name": "Leisure Village East", "state": "NJ", "lat": "40.0384", "lng": "-74.1678"}, {"name": "White Horse", "state": "NJ", "lat": "40.1920", "lng": "-74.7022"}, {"name": "Bergenfield", "state": "NJ", "lat": "40.9236", "lng": "-73.9982"}, {"name": "Spotswood", "state": "NJ", "lat": "40.3949", "lng": "-74.3919"}, {"name": "Lodi", "state": "NJ", "lat": "40.8784", "lng": "-74.0814"}, {"name": "North Haledon", "state": "NJ", "lat": "40.9628", "lng": "-74.1844"}, {"name": "Ellisburg", "state": "NJ", "lat": "39.9199", "lng": "-75.0093"}, {"name": "Matawan", "state": "NJ", "lat": "40.4127", "lng": "-74.2365"}, {"name": "Tuckerton", "state": "NJ", "lat": "39.5974", "lng": "-74.3306"}, {"name": "Upper Montclair", "state": "NJ", "lat": "40.8428", "lng": "-74.2014"}, {"name": "Seaside Heights", "state": "NJ", "lat": "39.9452", "lng": "-74.0787"}, {"name": "Woodstown", "state": "NJ", "lat": "39.6503", "lng": "-75.3251"}, {"name": "Fords", "state": "NJ", "lat": "40.5415", "lng": "-74.3124"}, {"name": "Oradell", "state": "NJ", "lat": "40.9562", "lng": "-74.0314"}, {"name": "Essex Fells", "state": "NJ", "lat": "40.8271", "lng": "-74.2798"}, {"name": "Ho-Ho-Kus", "state": "NJ", "lat": "41.0001", "lng": "-74.0972"}, {"name": "Berlin", "state": "NJ", "lat": "39.7915", "lng": "-74.9375"}, {"name": "Vernon Center", "state": "NJ", "lat": "41.1874", "lng": "-74.5015"}, {"name": "Norwood", "state": "NJ", "lat": "40.9933", "lng": "-73.9510"}, {"name": "Swedesboro", "state": "NJ", "lat": "39.7458", "lng": "-75.3117"}, {"name": "Barnegat Light", "state": "NJ", "lat": "39.7530", "lng": "-74.1081"}, {"name": "Egg Harbor City", "state": "NJ", "lat": "39.5640", "lng": "-74.5961"}, {"name": "Laurel Lake", "state": "NJ", "lat": "39.3265", "lng": "-75.0306"}, {"name": "Colonia", "state": "NJ", "lat": "40.5929", "lng": "-74.3151"}, {"name": "New Village", "state": "NJ", "lat": "40.7184", "lng": "-75.0774"}, {"name": "Elizabeth", "state": "NJ", "lat": "40.6657", "lng": "-74.1912"}, {"name": "Audubon", "state": "NJ", "lat": "39.8906", "lng": "-75.0722"}, {"name": "Margate City", "state": "NJ", "lat": "39.3307", "lng": "-74.5071"}, {"name": "Northfield", "state": "NJ", "lat": "39.3718", "lng": "-74.5543"}, {"name": "Waretown", "state": "NJ", "lat": "39.7897", "lng": "-74.1925"}, {"name": "South Bound Brook", "state": "NJ", "lat": "40.5535", "lng": "-74.5277"}, {"name": "Burleigh", "state": "NJ", "lat": "39.0489", "lng": "-74.8464"}, {"name": "Vernon Valley", "state": "NJ", "lat": "41.2396", "lng": "-74.4833"}, {"name": "Bloomsbury", "state": "NJ", "lat": "40.6537", "lng": "-75.0840"}, {"name": "Skillman", "state": "NJ", "lat": "40.4247", "lng": "-74.7139"}, {"name": "Haddon Heights", "state": "NJ", "lat": "39.8791", "lng": "-75.0645"}, {"name": "Penns Grove", "state": "NJ", "lat": "39.7275", "lng": "-75.4691"}, {"name": "Elwood", "state": "NJ", "lat": "39.5731", "lng": "-74.7148"}, {"name": "East Rocky Hill", "state": "NJ", "lat": "40.4079", "lng": "-74.6128"}, {"name": "Loch Arbour", "state": "NJ", "lat": "40.2323", "lng": "-74.0014"}, {"name": "Diamond Beach", "state": "NJ", "lat": "38.9587", "lng": "-74.8520"}, {"name": "Ocean Gate", "state": "NJ", "lat": "39.9268", "lng": "-74.1350"}, {"name": "Neptune City", "state": "NJ", "lat": "40.2005", "lng": "-74.0334"}, {"name": "Avon-by-the-Sea", "state": "NJ", "lat": "40.1913", "lng": "-74.0162"}, {"name": "Guttenberg", "state": "NJ", "lat": "40.7927", "lng": "-74.0048"}, {"name": "Marksboro", "state": "NJ", "lat": "40.9881", "lng": "-74.9061"}, {"name": "Cresskill", "state": "NJ", "lat": "40.9405", "lng": "-73.9596"}, {"name": "Wanamassa", "state": "NJ", "lat": "40.2366", "lng": "-74.0294"}, {"name": "Fort Lee", "state": "NJ", "lat": "40.8509", "lng": "-73.9712"}, {"name": "Princeton", "state": "NJ", "lat": "40.3563", "lng": "-74.6693"}, {"name": "Hainesburg", "state": "NJ", "lat": "40.9545", "lng": "-75.0627"}, {"name": "Dunellen", "state": "NJ", "lat": "40.5903", "lng": "-74.4656"}, {"name": "Somerdale", "state": "NJ", "lat": "39.8454", "lng": "-75.0218"}, {"name": "Marlton", "state": "NJ", "lat": "39.9016", "lng": "-74.9297"}, {"name": "Beckett", "state": "NJ", "lat": "39.7565", "lng": "-75.3564"}, {"name": "Northvale", "state": "NJ", "lat": "41.0099", "lng": "-73.9505"}, {"name": "Morristown", "state": "NJ", "lat": "40.7966", "lng": "-74.4772"}, {"name": "Belvidere", "state": "NJ", "lat": "40.8294", "lng": "-75.0728"}, {"name": "High Bridge", "state": "NJ", "lat": "40.6684", "lng": "-74.8940"}, {"name": "Brookdale", "state": "NJ", "lat": "40.8348", "lng": "-74.1798"}, {"name": "Dover", "state": "NJ", "lat": "40.8859", "lng": "-74.5597"}, {"name": "Shrewsbury", "state": "NJ", "lat": "40.3249", "lng": "-74.0600"}, {"name": "Belford", "state": "NJ", "lat": "40.4261", "lng": "-74.0802"}, {"name": "Bloomingdale", "state": "NJ", "lat": "41.0300", "lng": "-74.3319"}, {"name": "Newton", "state": "NJ", "lat": "41.0534", "lng": "-74.7527"}, {"name": "East Orange", "state": "NJ", "lat": "40.7651", "lng": "-74.2117"}, {"name": "Silver Lake", "state": "NJ", "lat": "40.7804", "lng": "-74.1829"}, {"name": "Franklin Park", "state": "NJ", "lat": "40.4439", "lng": "-74.5432"}, {"name": "Lincoln Park", "state": "NJ", "lat": "40.9239", "lng": "-74.3035"}, {"name": "Ship Bottom", "state": "NJ", "lat": "39.6458", "lng": "-74.1832"}, {"name": "Glen Rock", "state": "NJ", "lat": "40.9601", "lng": "-74.1250"}, {"name": "Monmouth Junction", "state": "NJ", "lat": "40.3810", "lng": "-74.5435"}, {"name": "North Wildwood", "state": "NJ", "lat": "39.0047", "lng": "-74.7990"}, {"name": "Society Hill", "state": "NJ", "lat": "40.5344", "lng": "-74.4577"}, {"name": "Lawrenceville", "state": "NJ", "lat": "40.3018", "lng": "-74.7378"}, {"name": "Hillsdale", "state": "NJ", "lat": "41.0074", "lng": "-74.0440"}, {"name": "Crandon Lakes", "state": "NJ", "lat": "41.1234", "lng": "-74.8403"}, {"name": "Chesilhurst", "state": "NJ", "lat": "39.7307", "lng": "-74.8786"}, {"name": "Little Ferry", "state": "NJ", "lat": "40.8463", "lng": "-74.0388"}, {"name": "Midland Park", "state": "NJ", "lat": "40.9952", "lng": "-74.1411"}, {"name": "Ridgewood", "state": "NJ", "lat": "40.9821", "lng": "-74.1128"}, {"name": "Freehold", "state": "NJ", "lat": "40.2596", "lng": "-74.2755"}, {"name": "Fair Haven", "state": "NJ", "lat": "40.3619", "lng": "-74.0392"}, {"name": "Pemberton", "state": "NJ", "lat": "39.9715", "lng": "-74.6855"}, {"name": "Leisure Village West", "state": "NJ", "lat": "40.0104", "lng": "-74.2806"}, {"name": "North Plainfield", "state": "NJ", "lat": "40.6209", "lng": "-74.4386"}, {"name": "Edgewater", "state": "NJ", "lat": "40.8238", "lng": "-73.9739"}, {"name": "Great Meadows", "state": "NJ", "lat": "40.8770", "lng": "-74.9034"}, {"name": "West Cape May", "state": "NJ", "lat": "38.9423", "lng": "-74.9377"}, {"name": "Long Branch", "state": "NJ", "lat": "40.2965", "lng": "-73.9915"}, {"name": "Hammonton", "state": "NJ", "lat": "39.6572", "lng": "-74.7678"}, {"name": "Cliffwood Beach", "state": "NJ", "lat": "40.4426", "lng": "-74.2178"}, {"name": "Blawenburg", "state": "NJ", "lat": "40.4057", "lng": "-74.6972"}, {"name": "Seabrook Farms", "state": "NJ", "lat": "39.5015", "lng": "-75.2190"}, {"name": "Riverdale", "state": "NJ", "lat": "40.9921", "lng": "-74.3125"}, {"name": "Roebling", "state": "NJ", "lat": "40.1167", "lng": "-74.7776"}, {"name": "Morris Plains", "state": "NJ", "lat": "40.8357", "lng": "-74.4786"}, {"name": "Fieldsboro", "state": "NJ", "lat": "40.1364", "lng": "-74.7315"}, {"name": "Somerville", "state": "NJ", "lat": "40.5697", "lng": "-74.6092"}, {"name": "Pine Hill", "state": "NJ", "lat": "39.7879", "lng": "-74.9857"}, {"name": "Hopatcong", "state": "NJ", "lat": "40.9541", "lng": "-74.6593"}, {"name": "Sayreville", "state": "NJ", "lat": "40.4656", "lng": "-74.3237"}, {"name": "Sussex", "state": "NJ", "lat": "41.2095", "lng": "-74.6079"}, {"name": "Country Lake Estates", "state": "NJ", "lat": "39.9488", "lng": "-74.5411"}, {"name": "White Meadow Lake", "state": "NJ", "lat": "40.9240", "lng": "-74.5121"}, {"name": "Corbin City", "state": "NJ", "lat": "39.3047", "lng": "-74.7199"}, {"name": "Point Pleasant Beach", "state": "NJ", "lat": "40.0928", "lng": "-74.0457"}, {"name": "Deal", "state": "NJ", "lat": "40.2497", "lng": "-73.9976"}, {"name": "Brass Castle", "state": "NJ", "lat": "40.7621", "lng": "-75.0141"}, {"name": "Jersey City", "state": "NJ", "lat": "40.7161", "lng": "-74.0683"}, {"name": "Woodland Park", "state": "NJ", "lat": "40.8905", "lng": "-74.1945"}, {"name": "Rahway", "state": "NJ", "lat": "40.6077", "lng": "-74.2807"}, {"name": "Allenhurst", "state": "NJ", "lat": "40.2362", "lng": "-74.0017"}, {"name": "Hutchinson", "state": "NJ", "lat": "40.7818", "lng": "-75.1252"}, {"name": "Rockaway", "state": "NJ", "lat": "40.8969", "lng": "-74.5155"}, {"name": "Anderson", "state": "NJ", "lat": "40.7617", "lng": "-74.9301"}, {"name": "Strathmere", "state": "NJ", "lat": "39.1944", "lng": "-74.6618"}, {"name": "Maywood", "state": "NJ", "lat": "40.9025", "lng": "-74.0634"}, {"name": "Stone Harbor", "state": "NJ", "lat": "39.0437", "lng": "-74.7687"}, {"name": "West Belmar", "state": "NJ", "lat": "40.1707", "lng": "-74.0376"}, {"name": "Highland Park", "state": "NJ", "lat": "40.5006", "lng": "-74.4283"}, {"name": "Bernardsville", "state": "NJ", "lat": "40.7268", "lng": "-74.5918"}, {"name": "Absecon", "state": "NJ", "lat": "39.4228", "lng": "-74.4944"}, {"name": "North Beach Haven", "state": "NJ", "lat": "39.6009", "lng": "-74.2119"}, {"name": "Dover Beaches South", "state": "NJ", "lat": "39.9538", "lng": "-74.0798"}, {"name": "Perth Amboy", "state": "NJ", "lat": "40.5203", "lng": "-74.2724"}, {"name": "Cliffside Park", "state": "NJ", "lat": "40.8221", "lng": "-73.9880"}, {"name": "Gibbsboro", "state": "NJ", "lat": "39.8332", "lng": "-74.9657"}, {"name": "Newark", "state": "NJ", "lat": "40.7245", "lng": "-74.1725"}, {"name": "Caldwell", "state": "NJ", "lat": "40.8390", "lng": "-74.2776"}, {"name": "Gloucester City", "state": "NJ", "lat": "39.8924", "lng": "-75.1172"}, {"name": "Burlington", "state": "NJ", "lat": "40.0783", "lng": "-74.8524"}, {"name": "Spring Lake Heights", "state": "NJ", "lat": "40.1522", "lng": "-74.0430"}, {"name": "Finesville", "state": "NJ", "lat": "40.6112", "lng": "-75.1706"}, {"name": "Wharton", "state": "NJ", "lat": "40.8999", "lng": "-74.5808"}, {"name": "Ocean Grove", "state": "NJ", "lat": "40.2119", "lng": "-74.0078"}, {"name": "Netcong", "state": "NJ", "lat": "40.8985", "lng": "-74.7019"}, {"name": "Passaic", "state": "NJ", "lat": "40.8574", "lng": "-74.1282"}, {"name": "Bellmawr", "state": "NJ", "lat": "39.8665", "lng": "-75.0941"}, {"name": "Longport", "state": "NJ", "lat": "39.3136", "lng": "-74.5261"}, {"name": "Franklin", "state": "NJ", "lat": "41.1101", "lng": "-74.5886"}, {"name": "Stockton", "state": "NJ", "lat": "40.4062", "lng": "-74.9759"}, {"name": "Elmwood Park", "state": "NJ", "lat": "40.9050", "lng": "-74.1201"}, {"name": "Cape May", "state": "NJ", "lat": "38.9409", "lng": "-74.9042"}, {"name": "Milford", "state": "NJ", "lat": "40.5694", "lng": "-75.0916"}, {"name": "Beach Haven West", "state": "NJ", "lat": "39.6702", "lng": "-74.2337"}, {"name": "Hackensack", "state": "NJ", "lat": "40.8890", "lng": "-74.0461"}, {"name": "Haledon", "state": "NJ", "lat": "40.9363", "lng": "-74.1887"}, {"name": "Presidential Lakes Estates", "state": "NJ", "lat": "39.9150", "lng": "-74.5648"}, {"name": "Millville", "state": "NJ", "lat": "39.3903", "lng": "-75.0561"}, {"name": "Boonton", "state": "NJ", "lat": "40.9047", "lng": "-74.4048"}, {"name": "Pemberton Heights", "state": "NJ", "lat": "39.9565", "lng": "-74.6767"}, {"name": "Cedar Glen Lakes", "state": "NJ", "lat": "39.9527", "lng": "-74.3995"}, {"name": "Rockleigh", "state": "NJ", "lat": "41.0025", "lng": "-73.9327"}, {"name": "Laurel Springs", "state": "NJ", "lat": "39.8213", "lng": "-75.0053"}, {"name": "Victory Gardens", "state": "NJ", "lat": "40.8762", "lng": "-74.5435"}, {"name": "Succasunna", "state": "NJ", "lat": "40.8507", "lng": "-74.6596"}, {"name": "Fairton", "state": "NJ", "lat": "39.3758", "lng": "-75.2130"}, {"name": "Hasbrouck Heights", "state": "NJ", "lat": "40.8618", "lng": "-74.0741"}, {"name": "Clinton", "state": "NJ", "lat": "40.6360", "lng": "-74.9124"}, {"name": "Kinnelon", "state": "NJ", "lat": "40.9847", "lng": "-74.3862"}, {"name": "Tinton Falls", "state": "NJ", "lat": "40.2708", "lng": "-74.0948"}, {"name": "Lake Como", "state": "NJ", "lat": "40.1706", "lng": "-74.0262"}, {"name": "South Plainfield", "state": "NJ", "lat": "40.5748", "lng": "-74.4153"}, {"name": "Kenilworth", "state": "NJ", "lat": "40.6781", "lng": "-74.2890"}, {"name": "Franklin Center", "state": "NJ", "lat": "40.5321", "lng": "-74.5415"}, {"name": "Island Heights", "state": "NJ", "lat": "39.9423", "lng": "-74.1454"}, {"name": "Vista Center", "state": "NJ", "lat": "40.1584", "lng": "-74.3227"}, {"name": "Budd Lake", "state": "NJ", "lat": "40.8733", "lng": "-74.7374"}, {"name": "Mountainside", "state": "NJ", "lat": "40.6811", "lng": "-74.3600"}, {"name": "Upper Stewartsville", "state": "NJ", "lat": "40.7028", "lng": "-75.1194"}, {"name": "Flemington", "state": "NJ", "lat": "40.5087", "lng": "-74.8599"}, {"name": "Madison Park", "state": "NJ", "lat": "40.4461", "lng": "-74.2959"}, {"name": "Barrington", "state": "NJ", "lat": "39.8689", "lng": "-75.0514"}, {"name": "Keansburg", "state": "NJ", "lat": "40.4469", "lng": "-74.1316"}, {"name": "Atlantic City", "state": "NJ", "lat": "39.3797", "lng": "-74.4527"}, {"name": "Panther Valley", "state": "NJ", "lat": "40.9078", "lng": "-74.8413"}, {"name": "Vienna", "state": "NJ", "lat": "40.8698", "lng": "-74.8810"}, {"name": "Kendall Park", "state": "NJ", "lat": "40.4138", "lng": "-74.5626"}, {"name": "Demarest", "state": "NJ", "lat": "40.9550", "lng": "-73.9567"}, {"name": "Mount Ephraim", "state": "NJ", "lat": "39.8806", "lng": "-75.0918"}, {"name": "Yorketown", "state": "NJ", "lat": "40.3064", "lng": "-74.3385"}, {"name": "Manville", "state": "NJ", "lat": "40.5421", "lng": "-74.5892"}, {"name": "Pedricktown", "state": "NJ", "lat": "39.7611", "lng": "-75.4076"}, {"name": "Yardville", "state": "NJ", "lat": "40.1849", "lng": "-74.6603"}, {"name": "Woodcliff Lake", "state": "NJ", "lat": "41.0253", "lng": "-74.0604"}, {"name": "Hoboken", "state": "NJ", "lat": "40.7451", "lng": "-74.0279"}, {"name": "Madison", "state": "NJ", "lat": "40.7586", "lng": "-74.4170"}, {"name": "Phillipsburg", "state": "NJ", "lat": "40.6895", "lng": "-75.1821"}, {"name": "Port Monmouth", "state": "NJ", "lat": "40.4338", "lng": "-74.1009"}, {"name": "Medford Lakes", "state": "NJ", "lat": "39.8582", "lng": "-74.8054"}, {"name": "Silver Ridge", "state": "NJ", "lat": "39.9621", "lng": "-74.2359"}, {"name": "Woodbury", "state": "NJ", "lat": "39.8379", "lng": "-75.1524"}, {"name": "Manahawkin", "state": "NJ", "lat": "39.6931", "lng": "-74.2493"}, {"name": "Fairview", "state": "NJ", "lat": "40.8182", "lng": "-74.0022"}, {"name": "Harrington Park", "state": "NJ", "lat": "40.9899", "lng": "-73.9803"}, {"name": "Wenonah", "state": "NJ", "lat": "39.7913", "lng": "-75.1486"}, {"name": "Crestwood Village", "state": "NJ", "lat": "39.9568", "lng": "-74.3524"}, {"name": "Hi-Nella", "state": "NJ", "lat": "39.8367", "lng": "-75.0220"}, {"name": "Singac", "state": "NJ", "lat": "40.8849", "lng": "-74.2430"}, {"name": "Leisure Knoll", "state": "NJ", "lat": "40.0186", "lng": "-74.2908"}, {"name": "Clayton", "state": "NJ", "lat": "39.6627", "lng": "-75.0782"}, {"name": "Lake Telemark", "state": "NJ", "lat": "40.9604", "lng": "-74.4968"}, {"name": "Palisades Park", "state": "NJ", "lat": "40.8472", "lng": "-73.9967"}, {"name": "Asbury", "state": "NJ", "lat": "40.7003", "lng": "-75.0121"}, {"name": "Glen Gardner", "state": "NJ", "lat": "40.7004", "lng": "-74.9395"}, {"name": "Clearbrook Park", "state": "NJ", "lat": "40.3096", "lng": "-74.4644"}, {"name": "Olivet", "state": "NJ", "lat": "39.5401", "lng": "-75.1727"}, {"name": "North Arlington", "state": "NJ", "lat": "40.7875", "lng": "-74.1273"}, {"name": "Lincroft", "state": "NJ", "lat": "40.3391", "lng": "-74.1283"}, {"name": "Waldwick", "state": "NJ", "lat": "41.0133", "lng": "-74.1258"}, {"name": "Ringwood", "state": "NJ", "lat": "41.1064", "lng": "-74.2749"}, {"name": "Barclay", "state": "NJ", "lat": "39.9013", "lng": "-75.0009"}, {"name": "Smithville", "state": "NJ", "lat": "39.4934", "lng": "-74.4782"}, {"name": "Moonachie", "state": "NJ", "lat": "40.8409", "lng": "-74.0590"}, {"name": "Rocky Hill", "state": "NJ", "lat": "40.4002", "lng": "-74.6405"}, {"name": "Leonia", "state": "NJ", "lat": "40.8638", "lng": "-73.9899"}, {"name": "Englewood Cliffs", "state": "NJ", "lat": "40.8822", "lng": "-73.9466"}, {"name": "Woodbine", "state": "NJ", "lat": "39.2283", "lng": "-74.8096"}, {"name": "Vineland", "state": "NJ", "lat": "39.4653", "lng": "-74.9981"}, {"name": "Harrison", "state": "NJ", "lat": "40.7431", "lng": "-74.1531"}, {"name": "Mystic Island", "state": "NJ", "lat": "39.5659", "lng": "-74.3831"}, {"name": "Avenel", "state": "NJ", "lat": "40.5839", "lng": "-74.2720"}, {"name": "Pitman", "state": "NJ", "lat": "39.7335", "lng": "-75.1306"}, {"name": "Prospect Park", "state": "NJ", "lat": "40.9380", "lng": "-74.1736"}, {"name": "Merchantville", "state": "NJ", "lat": "39.9502", "lng": "-75.0504"}, {"name": "Woodlynne", "state": "NJ", "lat": "39.9167", "lng": "-75.0957"}, {"name": "Jamesburg", "state": "NJ", "lat": "40.3494", "lng": "-74.4400"}, {"name": "Englewood", "state": "NJ", "lat": "40.8917", "lng": "-73.9736"}, {"name": "South Toms River", "state": "NJ", "lat": "39.9418", "lng": "-74.2087"}, {"name": "Farmingdale", "state": "NJ", "lat": "40.1983", "lng": "-74.1700"}, {"name": "Beverly", "state": "NJ", "lat": "40.0652", "lng": "-74.9221"}, {"name": "Lebanon", "state": "NJ", "lat": "40.6433", "lng": "-74.8351"}, {"name": "Mountain Lakes", "state": "NJ", "lat": "40.8907", "lng": "-74.4407"}, {"name": "Dumont", "state": "NJ", "lat": "40.9452", "lng": "-73.9923"}, {"name": "Bradley Gardens", "state": "NJ", "lat": "40.5711", "lng": "-74.6678"}, {"name": "Wrightstown", "state": "NJ", "lat": "40.0257", "lng": "-74.6318"}, {"name": "Glen Ridge", "state": "NJ", "lat": "40.8041", "lng": "-74.2043"}, {"name": "Somerset", "state": "NJ", "lat": "40.5083", "lng": "-74.5010"}, {"name": "East Rutherford", "state": "NJ", "lat": "40.8179", "lng": "-74.0854"}, {"name": "Salem", "state": "NJ", "lat": "39.5681", "lng": "-75.4724"}, {"name": "Port Colden", "state": "NJ", "lat": "40.7684", "lng": "-74.9540"}, {"name": "Middlesex", "state": "NJ", "lat": "40.5744", "lng": "-74.5011"}, {"name": "Allentown", "state": "NJ", "lat": "40.1777", "lng": "-74.5873"}, {"name": "Lakehurst", "state": "NJ", "lat": "40.0132", "lng": "-74.3201"}, {"name": "Hawthorne", "state": "NJ", "lat": "40.9579", "lng": "-74.1581"}, {"name": "Sewaren", "state": "NJ", "lat": "40.5508", "lng": "-74.2602"}, {"name": "Lake Mohawk", "state": "NJ", "lat": "41.0150", "lng": "-74.6639"}, {"name": "Buttzville", "state": "NJ", "lat": "40.8311", "lng": "-75.0052"}, {"name": "Bradley Beach", "state": "NJ", "lat": "40.2018", "lng": "-74.0121"}, {"name": "Collingswood", "state": "NJ", "lat": "39.9161", "lng": "-75.0759"}, {"name": "Ten Mile Run", "state": "NJ", "lat": "40.4218", "lng": "-74.5890"}, {"name": "Shark River Hills", "state": "NJ", "lat": "40.1922", "lng": "-74.0464"}, {"name": "Williamstown", "state": "NJ", "lat": "39.6874", "lng": "-74.9786"}, {"name": "National Park", "state": "NJ", "lat": "39.8676", "lng": "-75.1853"}, {"name": "Pompton Lakes", "state": "NJ", "lat": "41.0024", "lng": "-74.2859"}, {"name": "Groveville", "state": "NJ", "lat": "40.1678", "lng": "-74.6514"}, {"name": "West New York", "state": "NJ", "lat": "40.7856", "lng": "-74.0093"}, {"name": "Whitesboro", "state": "NJ", "lat": "39.0417", "lng": "-74.8673"}, {"name": "Wood-Ridge", "state": "NJ", "lat": "40.8507", "lng": "-74.0878"}, {"name": "Dover Beaches North", "state": "NJ", "lat": "39.9921", "lng": "-74.0713"}, {"name": "Hackettstown", "state": "NJ", "lat": "40.8540", "lng": "-74.8257"}, {"name": "Newfield", "state": "NJ", "lat": "39.5484", "lng": "-75.0167"}, {"name": "Wildwood Crest", "state": "NJ", "lat": "38.9718", "lng": "-74.8376"}, {"name": "Magnolia", "state": "NJ", "lat": "39.8562", "lng": "-75.0365"}, {"name": "Milltown", "state": "NJ", "lat": "40.4504", "lng": "-74.4350"}, {"name": "Fanwood", "state": "NJ", "lat": "40.6417", "lng": "-74.3857"}, {"name": "Beachwood", "state": "NJ", "lat": "39.9287", "lng": "-74.2023"}, {"name": "Port Murray", "state": "NJ", "lat": "40.7912", "lng": "-74.9138"}, {"name": "East Franklin", "state": "NJ", "lat": "40.4933", "lng": "-74.4711"}, {"name": "Mount Arlington", "state": "NJ", "lat": "40.9190", "lng": "-74.6390"}, {"name": "South Amboy", "state": "NJ", "lat": "40.4852", "lng": "-74.2831"}, {"name": "Ridgefield Park", "state": "NJ", "lat": "40.8543", "lng": "-74.0201"}, {"name": "Whittingham", "state": "NJ", "lat": "40.3297", "lng": "-74.4451"}, {"name": "Raritan", "state": "NJ", "lat": "40.5732", "lng": "-74.6431"}, {"name": "Brielle", "state": "NJ", "lat": "40.1048", "lng": "-74.0636"}, {"name": "Wildwood", "state": "NJ", "lat": "38.9877", "lng": "-74.8188"}, {"name": "Paterson", "state": "NJ", "lat": "40.9147", "lng": "-74.1624"}, {"name": "Linden", "state": "NJ", "lat": "40.6251", "lng": "-74.2381"}, {"name": "Metuchen", "state": "NJ", "lat": "40.5424", "lng": "-74.3628"}, {"name": "Pine Valley", "state": "NJ", "lat": "39.7870", "lng": "-74.9742"}, {"name": "Roosevelt", "state": "NJ", "lat": "40.2212", "lng": "-74.4729"}, {"name": "Strathmore", "state": "NJ", "lat": "40.4018", "lng": "-74.2194"}, {"name": "Stanhope", "state": "NJ", "lat": "40.9142", "lng": "-74.7027"}, {"name": "Fort Dix", "state": "NJ", "lat": "40.0059", "lng": "-74.6089"}, {"name": "Cape May Court House", "state": "NJ", "lat": "39.0790", "lng": "-74.8209"}, {"name": "Roselle Park", "state": "NJ", "lat": "40.6653", "lng": "-74.2666"}, {"name": "Navesink", "state": "NJ", "lat": "40.4021", "lng": "-74.0387"}, {"name": "Teterboro", "state": "NJ", "lat": "40.8579", "lng": "-74.0594"}, {"name": "Totowa", "state": "NJ", "lat": "40.9039", "lng": "-74.2214"}, {"name": "Broadway", "state": "NJ", "lat": "40.7356", "lng": "-75.0495"}, {"name": "Monmouth Beach", "state": "NJ", "lat": "40.3364", "lng": "-73.9863"}, {"name": "Ocean City", "state": "NJ", "lat": "39.2682", "lng": "-74.6019"}, {"name": "Lopatcong Overlook", "state": "NJ", "lat": "40.6972", "lng": "-75.1452"}, {"name": "Victory Lakes", "state": "NJ", "lat": "39.6304", "lng": "-74.9661"}, {"name": "Pleasant Plains", "state": "NJ", "lat": "40.4523", "lng": "-74.5696"}, {"name": "Middlebush", "state": "NJ", "lat": "40.5015", "lng": "-74.5349"}, {"name": "Haddonfield", "state": "NJ", "lat": "39.8955", "lng": "-75.0346"}, {"name": "Glendora", "state": "NJ", "lat": "39.8405", "lng": "-75.0678"}, {"name": "Mendham", "state": "NJ", "lat": "40.7687", "lng": "-74.6003"}, {"name": "Ramtown", "state": "NJ", "lat": "40.1144", "lng": "-74.1492"}, {"name": "Leonardo", "state": "NJ", "lat": "40.4191", "lng": "-74.0600"}, {"name": "Fair Lawn", "state": "NJ", "lat": "40.9359", "lng": "-74.1177"}, {"name": "Belmar", "state": "NJ", "lat": "40.1798", "lng": "-74.0255"}, {"name": "Allenwood", "state": "NJ", "lat": "40.1384", "lng": "-74.1032"}, {"name": "New Brunswick", "state": "NJ", "lat": "40.4870", "lng": "-74.4450"}, {"name": "Mount Hermon", "state": "NJ", "lat": "40.9269", "lng": "-74.9930"}, {"name": "Watchung", "state": "NJ", "lat": "40.6432", "lng": "-74.4391"}, {"name": "Garfield", "state": "NJ", "lat": "40.8791", "lng": "-74.1085"}, {"name": "Roseland", "state": "NJ", "lat": "40.8208", "lng": "-74.3085"}, {"name": "Harlingen", "state": "NJ", "lat": "40.4494", "lng": "-74.6585"}, {"name": "Dayton", "state": "NJ", "lat": "40.3815", "lng": "-74.5137"}, {"name": "Alpha", "state": "NJ", "lat": "40.6598", "lng": "-75.1571"}, {"name": "Long Valley", "state": "NJ", "lat": "40.7825", "lng": "-74.7777"}, {"name": "Cherry Hill Mall", "state": "NJ", "lat": "39.9384", "lng": "-75.0117"}, {"name": "New Egypt", "state": "NJ", "lat": "40.0644", "lng": "-74.5284"}, {"name": "Chester", "state": "NJ", "lat": "40.7874", "lng": "-74.6921"}, {"name": "Carteret", "state": "NJ", "lat": "40.5848", "lng": "-74.2284"}, {"name": "Greentree", "state": "NJ", "lat": "39.8989", "lng": "-74.9614"}, {"name": "Frenchtown", "state": "NJ", "lat": "40.5273", "lng": "-75.0571"}, {"name": "Lambertville", "state": "NJ", "lat": "40.3687", "lng": "-74.9430"}, {"name": "Roselle", "state": "NJ", "lat": "40.6527", "lng": "-74.2599"}, {"name": "Closter", "state": "NJ", "lat": "40.9733", "lng": "-73.9604"}, {"name": "Brooklawn", "state": "NJ", "lat": "39.8788", "lng": "-75.1207"}, {"name": "Brownville", "state": "NJ", "lat": "40.4009", "lng": "-74.2959"}, {"name": "Golden Triangle", "state": "NJ", "lat": "39.9288", "lng": "-75.0398"}, {"name": "Annandale", "state": "NJ", "lat": "40.6468", "lng": "-74.8881"}, {"name": "Westville", "state": "NJ", "lat": "39.8704", "lng": "-75.1301"}, {"name": "Millstone", "state": "NJ", "lat": "40.5002", "lng": "-74.5920"}, {"name": "Helmetta", "state": "NJ", "lat": "40.3777", "lng": "-74.4239"}, {"name": "Turnersville", "state": "NJ", "lat": "39.7666", "lng": "-75.0614"}, {"name": "Collings Lakes", "state": "NJ", "lat": "39.5939", "lng": "-74.8821"}, {"name": "Bridgeton", "state": "NJ", "lat": "39.4286", "lng": "-75.2281"}, {"name": "Union Beach", "state": "NJ", "lat": "40.4454", "lng": "-74.1699"}, {"name": "Pine Ridge at Crestwood", "state": "NJ", "lat": "39.9585", "lng": "-74.3169"}, {"name": "North Caldwell", "state": "NJ", "lat": "40.8629", "lng": "-74.2576"}, {"name": "Rosenhayn", "state": "NJ", "lat": "39.4787", "lng": "-75.1380"}, {"name": "Clementon", "state": "NJ", "lat": "39.8046", "lng": "-74.9851"}, {"name": "Echelon", "state": "NJ", "lat": "39.8482", "lng": "-74.9957"}, {"name": "East Newark", "state": "NJ", "lat": "40.7510", "lng": "-74.1623"}, {"name": "Blackwood", "state": "NJ", "lat": "39.7982", "lng": "-75.0629"}, {"name": "Kenvil", "state": "NJ", "lat": "40.8747", "lng": "-74.6274"}, {"name": "Harvey Cedars", "state": "NJ", "lat": "39.6996", "lng": "-74.1421"}, {"name": "Hamilton Square", "state": "NJ", "lat": "40.2248", "lng": "-74.6525"}, {"name": "Estell Manor", "state": "NJ", "lat": "39.3587", "lng": "-74.7752"}, {"name": "Plainfield", "state": "NJ", "lat": "40.6154", "lng": "-74.4157"}, {"name": "Bayonne", "state": "NJ", "lat": "40.6661", "lng": "-74.1142"}, {"name": "Erma", "state": "NJ", "lat": "38.9971", "lng": "-74.8932"}, {"name": "Ocean Acres", "state": "NJ", "lat": "39.7430", "lng": "-74.2804"}, {"name": "Bound Brook", "state": "NJ", "lat": "40.5676", "lng": "-74.5383"}, {"name": "Hancocks Bridge", "state": "NJ", "lat": "39.5046", "lng": "-75.4611"}, {"name": "Brookfield", "state": "NJ", "lat": "40.8184", "lng": "-75.0613"}, {"name": "Morganville", "state": "NJ", "lat": "40.3756", "lng": "-74.2444"}, {"name": "Tavistock", "state": "NJ", "lat": "39.8758", "lng": "-75.0272"}, {"name": "Kearny", "state": "NJ", "lat": "40.7528", "lng": "-74.1202"}, {"name": "Allendale", "state": "NJ", "lat": "41.0333", "lng": "-74.1333"}, {"name": "Paramus", "state": "NJ", "lat": "40.9455", "lng": "-74.0712"}, {"name": "Far Hills", "state": "NJ", "lat": "40.6907", "lng": "-74.6258"}, {"name": "Folsom", "state": "NJ", "lat": "39.5928", "lng": "-74.8424"}, {"name": "Sea Bright", "state": "NJ", "lat": "40.3653", "lng": "-73.9769"}, {"name": "Blackwells Mills", "state": "NJ", "lat": "40.4814", "lng": "-74.5714"}, {"name": "Spring Lake", "state": "NJ", "lat": "40.1538", "lng": "-74.0271"}, {"name": "Haworth", "state": "NJ", "lat": "40.9622", "lng": "-73.9976"}, {"name": "Ross Corner", "state": "NJ", "lat": "41.1275", "lng": "-74.7135"}, {"name": "East Millstone", "state": "NJ", "lat": "40.5011", "lng": "-74.5661"}, {"name": "Riverton", "state": "NJ", "lat": "40.0115", "lng": "-75.0148"}, {"name": "River Edge", "state": "NJ", "lat": "40.9268", "lng": "-74.0387"}, {"name": "North Middletown", "state": "NJ", "lat": "40.4390", "lng": "-74.1184"}, {"name": "Gibbstown", "state": "NJ", "lat": "39.8233", "lng": "-75.2782"}, {"name": "Cedarville", "state": "NJ", "lat": "39.3382", "lng": "-75.2069"}, {"name": "Leisure Village", "state": "NJ", "lat": "40.0445", "lng": "-74.1852"}, {"name": "South River", "state": "NJ", "lat": "40.4455", "lng": "-74.3783"}, {"name": "Little Silver", "state": "NJ", "lat": "40.3357", "lng": "-74.0346"}, {"name": "Rumson", "state": "NJ", "lat": "40.3626", "lng": "-74.0046"}, {"name": "Saddle River", "state": "NJ", "lat": "41.0273", "lng": "-74.0956"}, {"name": "Oaklyn", "state": "NJ", "lat": "39.9023", "lng": "-75.0813"}, {"name": "Summit", "state": "NJ", "lat": "40.7154", "lng": "-74.3647"}, {"name": "Hampton", "state": "NJ", "lat": "40.7069", "lng": "-74.9642"}, {"name": "Westwood", "state": "NJ", "lat": "40.9878", "lng": "-74.0308"}, {"name": "Brainards", "state": "NJ", "lat": "40.7718", "lng": "-75.1699"}, {"name": "Six Mile Run", "state": "NJ", "lat": "40.4730", "lng": "-74.5334"}, {"name": "Avalon", "state": "NJ", "lat": "39.0906", "lng": "-74.7357"}, {"name": "Delaware Park", "state": "NJ", "lat": "40.7051", "lng": "-75.1883"}, {"name": "Ridgefield", "state": "NJ", "lat": "40.8313", "lng": "-74.0147"}, {"name": "Lawnside", "state": "NJ", "lat": "39.8673", "lng": "-75.0289"}, {"name": "Peapack and Gladstone", "state": "NJ", "lat": "40.7168", "lng": "-74.6562"}, {"name": "Rutherford", "state": "NJ", "lat": "40.8203", "lng": "-74.1057"}, {"name": "Bordentown", "state": "NJ", "lat": "40.1494", "lng": "-74.7084"}, {"name": "Bogota", "state": "NJ", "lat": "40.8751", "lng": "-74.0293"}, {"name": "Belleplain", "state": "NJ", "lat": "39.2662", "lng": "-74.8672"}, {"name": "Ogdensburg", "state": "NJ", "lat": "41.0769", "lng": "-74.5973"}, {"name": "Concordia", "state": "NJ", "lat": "40.3117", "lng": "-74.4477"}, {"name": "Highland Lakes", "state": "NJ", "lat": "41.1716", "lng": "-74.4643"}, {"name": "Robertsville", "state": "NJ", "lat": "40.3395", "lng": "-74.2939"}, {"name": "Port Republic", "state": "NJ", "lat": "39.5328", "lng": "-74.4852"}, {"name": "Ramsey", "state": "NJ", "lat": "41.0595", "lng": "-74.1454"}, {"name": "Holiday Heights", "state": "NJ", "lat": "39.9396", "lng": "-74.2572"}, {"name": "Martinsville", "state": "NJ", "lat": "40.6030", "lng": "-74.5751"}, {"name": "Ashland", "state": "NJ", "lat": "39.8782", "lng": "-75.0085"}, {"name": "Sea Girt", "state": "NJ", "lat": "40.1307", "lng": "-74.0354"}, {"name": "Mercerville", "state": "NJ", "lat": "40.2360", "lng": "-74.6916"}, {"name": "Mountain Lake", "state": "NJ", "lat": "40.8614", "lng": "-74.9858"}, {"name": "Glassboro", "state": "NJ", "lat": "39.7014", "lng": "-75.1113"}, {"name": "Springdale", "state": "NJ", "lat": "39.8769", "lng": "-74.9723"}, {"name": "Butler", "state": "NJ", "lat": "40.9989", "lng": "-74.3472"}, {"name": "Iselin", "state": "NJ", "lat": "40.5702", "lng": "-74.3170"}, {"name": "Surf City", "state": "NJ", "lat": "39.6645", "lng": "-74.1709"}, {"name": "Bridgeville", "state": "NJ", "lat": "40.8371", "lng": "-75.0244"}, {"name": "Oak Valley", "state": "NJ", "lat": "39.8055", "lng": "-75.1589"}, {"name": "Florham Park", "state": "NJ", "lat": "40.7773", "lng": "-74.3953"}, {"name": "Califon", "state": "NJ", "lat": "40.7193", "lng": "-74.8372"}, {"name": "Emerson", "state": "NJ", "lat": "40.9748", "lng": "-74.0239"}, {"name": "Mays Landing", "state": "NJ", "lat": "39.4524", "lng": "-74.7241"}, {"name": "New Providence", "state": "NJ", "lat": "40.6996", "lng": "-74.4034"}, {"name": "Pennington", "state": "NJ", "lat": "40.3264", "lng": "-74.7906"}, {"name": "Griggstown", "state": "NJ", "lat": "40.4399", "lng": "-74.5990"}, {"name": "Highlands", "state": "NJ", "lat": "40.4036", "lng": "-73.9898"}, {"name": "Lavallette", "state": "NJ", "lat": "39.9697", "lng": "-74.0718"}, {"name": "McGuire AFB", "state": "NJ", "lat": "40.0285", "lng": "-74.5883"}, {"name": "Villas", "state": "NJ", "lat": "39.0157", "lng": "-74.9350"}, {"name": "Mullica Hill", "state": "NJ", "lat": "39.7266", "lng": "-75.2191"}, {"name": "Point Pleasant", "state": "NJ", "lat": "40.0772", "lng": "-74.0702"}, {"name": "Stewartsville", "state": "NJ", "lat": "40.6939", "lng": "-75.1115"}, {"name": "Union City", "state": "NJ", "lat": "40.7674", "lng": "-74.0323"}, {"name": "Somers Point", "state": "NJ", "lat": "39.3167", "lng": "-74.6066"}, {"name": "Washington", "state": "NJ", "lat": "40.7587", "lng": "-74.9825"}, {"name": "Kingston Estates", "state": "NJ", "lat": "39.9188", "lng": "-74.9898"}, {"name": "Pomona", "state": "NJ", "lat": "39.4687", "lng": "-74.5501"}, {"name": "Camden", "state": "NJ", "lat": "39.9362", "lng": "-75.1073"}, {"name": "Buena", "state": "NJ", "lat": "39.5282", "lng": "-74.9448"}, {"name": "Ventnor City", "state": "NJ", "lat": "39.3457", "lng": "-74.4860"}, {"name": "Johnsonburg", "state": "NJ", "lat": "40.9650", "lng": "-74.8782"}, {"name": "Sea Isle City", "state": "NJ", "lat": "39.1523", "lng": "-74.6976"}, {"name": "Asbury Park", "state": "NJ", "lat": "40.2226", "lng": "-74.0117"}, {"name": "Leisuretowne", "state": "NJ", "lat": "39.8987", "lng": "-74.7052"}, {"name": "Chatham", "state": "NJ", "lat": "40.7405", "lng": "-74.3838"}, {"name": "Mantoloking", "state": "NJ", "lat": "40.0434", "lng": "-74.0512"}, {"name": "Princeton Junction", "state": "NJ", "lat": "40.3207", "lng": "-74.6236"}, {"name": "East Freehold", "state": "NJ", "lat": "40.2718", "lng": "-74.2425"}, {"name": "Cedar Glen West", "state": "NJ", "lat": "40.0418", "lng": "-74.2852"}, {"name": "West Wildwood", "state": "NJ", "lat": "39.0005", "lng": "-74.8234"}, {"name": "Hightstown", "state": "NJ", "lat": "40.2686", "lng": "-74.5253"}, {"name": "Secaucus", "state": "NJ", "lat": "40.7810", "lng": "-74.0659"}, {"name": "Red Bank", "state": "NJ", "lat": "40.3481", "lng": "-74.0672"}, {"name": "Rio Grande", "state": "NJ", "lat": "39.0196", "lng": "-74.8762"}, {"name": "Eatontown", "state": "NJ", "lat": "40.2913", "lng": "-74.0558"}, {"name": "Belle Mead", "state": "NJ", "lat": "40.4645", "lng": "-74.6725"}, {"name": "Woodbury Heights", "state": "NJ", "lat": "39.8160", "lng": "-75.1512"}, {"name": "Port Norris", "state": "NJ", "lat": "39.2521", "lng": "-75.0412"}, {"name": "Pine Lake Park", "state": "NJ", "lat": "40.0017", "lng": "-74.2595"}, {"name": "Interlaken", "state": "NJ", "lat": "40.2350", "lng": "-74.0166"}, {"name": "Seaside Park", "state": "NJ", "lat": "39.9259", "lng": "-74.0782"}, {"name": "Browns Mills", "state": "NJ", "lat": "39.9737", "lng": "-74.5690"}, {"name": "Andover", "state": "NJ", "lat": "40.9859", "lng": "-74.7429"}, {"name": "Twin Rivers", "state": "NJ", "lat": "40.2630", "lng": "-74.4917"}, {"name": "Richwood", "state": "NJ", "lat": "39.7140", "lng": "-75.1734"}, {"name": "Hopewell", "state": "NJ", "lat": "40.3893", "lng": "-74.7639"}, {"name": "Short Hills", "state": "NJ", "lat": "40.7389", "lng": "-74.3278"}, {"name": "Bay Head", "state": "NJ", "lat": "40.0700", "lng": "-74.0479"}, {"name": "Ramblewood", "state": "NJ", "lat": "39.9322", "lng": "-74.9527"}, {"name": "Oakland", "state": "NJ", "lat": "41.0314", "lng": "-74.2408"}, {"name": "Elmer", "state": "NJ", "lat": "39.5919", "lng": "-75.1740"}, {"name": "Juliustown", "state": "NJ", "lat": "40.0121", "lng": "-74.6715"}, {"name": "Hamburg", "state": "NJ", "lat": "41.1485", "lng": "-74.5736"}, {"name": "Englishtown", "state": "NJ", "lat": "40.2971", "lng": "-74.3607"}, {"name": "Cape May Point", "state": "NJ", "lat": "38.9372", "lng": "-74.9651"}, {"name": "Holiday City-Berkeley", "state": "NJ", "lat": "39.9639", "lng": "-74.2787"}, {"name": "Columbia", "state": "NJ", "lat": "40.9260", "lng": "-75.0945"}, {"name": "Forked River", "state": "NJ", "lat": "39.8202", "lng": "-74.1456"}, {"name": "Linwood", "state": "NJ", "lat": "39.3435", "lng": "-74.5708"}, {"name": "Upper Saddle River", "state": "NJ", "lat": "41.0633", "lng": "-74.0986"}, {"name": "Byram Center", "state": "NJ", "lat": "40.9399", "lng": "-74.7171"}, {"name": "Branchville", "state": "NJ", "lat": "41.1471", "lng": "-74.7495"}, {"name": "Pleasantville", "state": "NJ", "lat": "39.3900", "lng": "-74.5169"}, {"name": "Shiloh", "state": "NJ", "lat": "39.4595", "lng": "-75.2970"}, {"name": "Oakhurst", "state": "NJ", "lat": "40.2607", "lng": "-74.0263"}, {"name": "Old Tappan", "state": "NJ", "lat": "41.0163", "lng": "-73.9856"}, {"name": "Clyde", "state": "NJ", "lat": "40.4874", "lng": "-74.5132"}, {"name": "Princeton Meadows", "state": "NJ", "lat": "40.3333", "lng": "-74.5628"}, {"name": "Wallington", "state": "NJ", "lat": "40.8535", "lng": "-74.1069"}, {"name": "New Milford", "state": "NJ", "lat": "40.9337", "lng": "-74.0196"}, {"name": "Runnemede", "state": "NJ", "lat": "39.8521", "lng": "-75.0739"}, {"name": "Rossmoor", "state": "NJ", "lat": "40.3361", "lng": "-74.4726"}, {"name": "Beach Haven", "state": "NJ", "lat": "39.5658", "lng": "-74.2489"}, {"name": "Moorestown-Lenola", "state": "NJ", "lat": "39.9659", "lng": "-74.9643"}, {"name": "Paulsboro", "state": "NJ", "lat": "39.8400", "lng": "-75.2397"}, {"name": "Atlantic Highlands", "state": "NJ", "lat": "40.4112", "lng": "-74.0296"}, {"name": "Holiday City South", "state": "NJ", "lat": "39.9533", "lng": "-74.2365"}, {"name": "Clifton", "state": "NJ", "lat": "40.8631", "lng": "-74.1575"}, {"name": "Stratford", "state": "NJ", "lat": "39.8290", "lng": "-75.0156"}, {"name": "Franklin Lakes", "state": "NJ", "lat": "41.0086", "lng": "-74.2083"}, {"name": "Garwood", "state": "NJ", "lat": "40.6513", "lng": "-74.3231"}, {"name": "Oceanport", "state": "NJ", "lat": "40.3160", "lng": "-74.0205"}, {"name": "Manasquan", "state": "NJ", "lat": "40.1183", "lng": "-74.0446"}, {"name": "Lindenwold", "state": "NJ", "lat": "39.8172", "lng": "-74.9898"}, {"name": "Tenafly", "state": "NJ", "lat": "40.9175", "lng": "-73.9531"}, {"name": "Kingston", "state": "NJ", "lat": "40.3816", "lng": "-74.6114"}, {"name": "Weston", "state": "NJ", "lat": "40.5224", "lng": "-74.5765"}, {"name": "Park Ridge", "state": "NJ", "lat": "41.0352", "lng": "-74.0423"}, {"name": "Palmyra", "state": "NJ", "lat": "40.0025", "lng": "-75.0360"}, {"name": "West Long Branch", "state": "NJ", "lat": "40.2883", "lng": "-74.0185"}, {"name": "Finderne", "state": "NJ", "lat": "40.5626", "lng": "-74.5743"}, {"name": "Brigantine", "state": "NJ", "lat": "39.4138", "lng": "-74.3787"}, {"name": "Wanaque", "state": "NJ", "lat": "41.0440", "lng": "-74.2900"}, {"name": "Keyport", "state": "NJ", "lat": "40.4327", "lng": "-74.2011"}, {"name": "Pine Beach", "state": "NJ", "lat": "39.9359", "lng": "-74.1700"}, {"name": "Heathcote", "state": "NJ", "lat": "40.3908", "lng": "-74.5756"}, {"name": "Westfield", "state": "NJ", "lat": "40.6515", "lng": "-74.3433"}]