[{"name": "El Cerro Mission", "state": "NM", "lat": "34.7687", "lng": "-106.6447"}, {"name": "Red River", "state": "NM", "lat": "36.7041", "lng": "-105.4064"}, {"name": "Roy", "state": "NM", "lat": "35.9451", "lng": "-104.1963"}, {"name": "Causey", "state": "NM", "lat": "33.8609", "lng": "-103.1071"}, {"name": "Corrales", "state": "NM", "lat": "35.2366", "lng": "-106.6191"}, {"name": "Sena", "state": "NM", "lat": "35.3037", "lng": "-105.3913"}, {"name": "Glen Acres", "state": "NM", "lat": "32.3748", "lng": "-108.7161"}, {"name": "Cuyamungue Grant", "state": "NM", "lat": "35.8464", "lng": "-105.9948"}, {"name": "Carnuel", "state": "NM", "lat": "35.0609", "lng": "-106.4587"}, {"name": "Ca\u00c3\u00b1ones", "state": "NM", "lat": "36.1769", "lng": "-106.4245"}, {"name": "Conchas Dam", "state": "NM", "lat": "35.3623", "lng": "-104.2042"}, {"name": "Rio Communities", "state": "NM", "lat": "34.6459", "lng": "-106.7164"}, {"name": "North Acomita Village", "state": "NM", "lat": "35.0659", "lng": "-107.5676"}, {"name": "Encinal", "state": "NM", "lat": "35.1308", "lng": "-107.4368"}, {"name": "Keeler Farm", "state": "NM", "lat": "32.3161", "lng": "-107.7602"}, {"name": "Newcomb", "state": "NM", "lat": "36.2834", "lng": "-108.7082"}, {"name": "Los Luceros", "state": "NM", "lat": "36.1151", "lng": "-106.0371"}, {"name": "Pueblo", "state": "NM", "lat": "35.3273", "lng": "-105.4354"}, {"name": "Taos Ski Valley", "state": "NM", "lat": "36.5900", "lng": "-105.4369"}, {"name": "La Puebla", "state": "NM", "lat": "35.9890", "lng": "-105.9987"}, {"name": "Chamizal", "state": "NM", "lat": "34.2183", "lng": "-106.9151"}, {"name": "Ojo Amarillo", "state": "NM", "lat": "36.6942", "lng": "-108.3704"}, {"name": "Mesquite", "state": "NM", "lat": "32.1670", "lng": "-106.6885"}, {"name": "Bloomfield", "state": "NM", "lat": "36.7398", "lng": "-107.9733"}, {"name": "South Acomita Village", "state": "NM", "lat": "35.0534", "lng": "-107.5610"}, {"name": "Magdalena", "state": "NM", "lat": "34.1095", "lng": "-107.2319"}, {"name": "Santa Clara", "state": "NM", "lat": "32.7773", "lng": "-108.1540"}, {"name": "Los Alamos", "state": "NM", "lat": "35.8926", "lng": "-106.2862"}, {"name": "Rivers", "state": "NM", "lat": "33.6757", "lng": "-108.7768"}, {"name": "Rio Lucio", "state": "NM", "lat": "36.1922", "lng": "-105.7200"}, {"name": "San Luis", "state": "NM", "lat": "35.7009", "lng": "-107.0431"}, {"name": "Zuni Pueblo", "state": "NM", "lat": "35.0708", "lng": "-108.8484"}, {"name": "Paradise Hills", "state": "NM", "lat": "35.1982", "lng": "-106.7024"}, {"name": "Arroyo Seco", "state": "NM", "lat": "36.5215", "lng": "-105.5860"}, {"name": "Bernalillo", "state": "NM", "lat": "35.3127", "lng": "-106.5537"}, {"name": "Crownpoint", "state": "NM", "lat": "35.6880", "lng": "-108.1494"}, {"name": "Pueblitos", "state": "NM", "lat": "34.6109", "lng": "-106.7817"}, {"name": "Capitan", "state": "NM", "lat": "33.5392", "lng": "-105.5983"}, {"name": "Watrous", "state": "NM", "lat": "35.7900", "lng": "-104.9821"}, {"name": "Whites City", "state": "NM", "lat": "32.1767", "lng": "-104.3739"}, {"name": "Cordova", "state": "NM", "lat": "36.0128", "lng": "-105.8566"}, {"name": "Sanostee", "state": "NM", "lat": "36.4329", "lng": "-108.8730"}, {"name": "Raton", "state": "NM", "lat": "36.8849", "lng": "-104.4396"}, {"name": "Young Place", "state": "NM", "lat": "36.9934", "lng": "-107.4930"}, {"name": "Pinos Altos", "state": "NM", "lat": "32.8665", "lng": "-108.2221"}, {"name": "Chupadero", "state": "NM", "lat": "35.8144", "lng": "-105.9198"}, {"name": "Cuyamungue", "state": "NM", "lat": "35.8648", "lng": "-106.0096"}, {"name": "Eunice", "state": "NM", "lat": "32.4465", "lng": "-103.2009"}, {"name": "Albuquerque", "state": "NM", "lat": "35.1053", "lng": "-106.6464"}, {"name": "Sombrillo", "state": "NM", "lat": "35.9802", "lng": "-106.0354"}, {"name": "Canova", "state": "NM", "lat": "36.1648", "lng": "-105.9857"}, {"name": "Dora", "state": "NM", "lat": "33.9322", "lng": "-103.3369"}, {"name": "Agua Fria", "state": "NM", "lat": "35.6615", "lng": "-106.0149"}, {"name": "Rio Rancho", "state": "NM", "lat": "35.2872", "lng": "-106.6981"}, {"name": "Tatum", "state": "NM", "lat": "33.2553", "lng": "-103.3112"}, {"name": "El Valle de Arroyo Seco", "state": "NM", "lat": "35.9526", "lng": "-106.0262"}, {"name": "San Miguel", "state": "NM", "lat": "32.1535", "lng": "-106.7269"}, {"name": "Ensenada", "state": "NM", "lat": "36.7309", "lng": "-106.5367"}, {"name": "Farmington", "state": "NM", "lat": "36.7555", "lng": "-108.1823"}, {"name": "Truth or Consequences", "state": "NM", "lat": "33.1864", "lng": "-107.2589"}, {"name": "White Sands", "state": "NM", "lat": "32.3808", "lng": "-106.4837"}, {"name": "Santa Rosa", "state": "NM", "lat": "34.9360", "lng": "-104.6769"}, {"name": "Sandia Knolls", "state": "NM", "lat": "35.1604", "lng": "-106.2987"}, {"name": "Chical", "state": "NM", "lat": "34.8657", "lng": "-106.6670"}, {"name": "Hachita", "state": "NM", "lat": "31.9153", "lng": "-108.3251"}, {"name": "Las Nutrias", "state": "NM", "lat": "34.4700", "lng": "-106.7708"}, {"name": "Chamita", "state": "NM", "lat": "36.0706", "lng": "-106.0974"}, {"name": "Berino", "state": "NM", "lat": "32.0689", "lng": "-106.6219"}, {"name": "Pleasanton", "state": "NM", "lat": "33.2758", "lng": "-108.8792"}, {"name": "Estancia", "state": "NM", "lat": "34.7669", "lng": "-106.0313"}, {"name": "Lemitar", "state": "NM", "lat": "34.1551", "lng": "-106.9122"}, {"name": "Mora", "state": "NM", "lat": "35.9634", "lng": "-105.3313"}, {"name": "Loving", "state": "NM", "lat": "32.2867", "lng": "-104.0972"}, {"name": "Edgewood", "state": "NM", "lat": "35.1318", "lng": "-106.2151"}, {"name": "Winston", "state": "NM", "lat": "33.3461", "lng": "-107.6488"}, {"name": "Santa Clara Pueblo", "state": "NM", "lat": "35.9726", "lng": "-106.0927"}, {"name": "Peak Place", "state": "NM", "lat": "35.7911", "lng": "-105.9432"}, {"name": "Hot Springs Landing", "state": "NM", "lat": "33.2047", "lng": "-107.2100"}, {"name": "Floyd", "state": "NM", "lat": "34.2289", "lng": "-103.5519"}, {"name": "Casa Colorada", "state": "NM", "lat": "34.5534", "lng": "-106.7420"}, {"name": "Coyote", "state": "NM", "lat": "36.1616", "lng": "-106.6067"}, {"name": "Tajique", "state": "NM", "lat": "34.7600", "lng": "-106.3010"}, {"name": "Sandia Heights", "state": "NM", "lat": "35.1746", "lng": "-106.4884"}, {"name": "Glorieta", "state": "NM", "lat": "35.5840", "lng": "-105.7629"}, {"name": "Anzac Village", "state": "NM", "lat": "35.0613", "lng": "-107.7456"}, {"name": "Ponderosa Pine", "state": "NM", "lat": "34.9720", "lng": "-106.3369"}, {"name": "Buckhorn", "state": "NM", "lat": "33.0315", "lng": "-108.6944"}, {"name": "Cochiti Lake", "state": "NM", "lat": "35.6478", "lng": "-106.3425"}, {"name": "Ranchos de Taos", "state": "NM", "lat": "36.3619", "lng": "-105.6016"}, {"name": "Loco Hills", "state": "NM", "lat": "32.8197", "lng": "-103.9783"}, {"name": "Bent", "state": "NM", "lat": "33.1473", "lng": "-105.8590"}, {"name": "Pastura", "state": "NM", "lat": "34.7850", "lng": "-104.9422"}, {"name": "Lower Frisco", "state": "NM", "lat": "33.6514", "lng": "-108.7894"}, {"name": "Thoreau", "state": "NM", "lat": "35.4209", "lng": "-108.2235"}, {"name": "Rosedale", "state": "NM", "lat": "32.7693", "lng": "-108.2417"}, {"name": "Williamsburg", "state": "NM", "lat": "33.1159", "lng": "-107.2951"}, {"name": "Manzano Springs", "state": "NM", "lat": "34.9614", "lng": "-106.2328"}, {"name": "Lamy", "state": "NM", "lat": "35.4854", "lng": "-105.8863"}, {"name": "Hillsboro", "state": "NM", "lat": "32.9218", "lng": "-107.5777"}, {"name": "Llano del Medio", "state": "NM", "lat": "35.1881", "lng": "-105.1162"}, {"name": "Timberon", "state": "NM", "lat": "32.6359", "lng": "-105.6925"}, {"name": "Paguate", "state": "NM", "lat": "35.1356", "lng": "-107.3640"}, {"name": "El Rito", "state": "NM", "lat": "36.3380", "lng": "-106.1844"}, {"name": "Sausal", "state": "NM", "lat": "34.6804", "lng": "-106.7592"}, {"name": "Youngsville", "state": "NM", "lat": "36.1928", "lng": "-106.5660"}, {"name": "Hagerman", "state": "NM", "lat": "33.1146", "lng": "-104.3285"}, {"name": "La Huerta", "state": "NM", "lat": "32.4487", "lng": "-104.2224"}, {"name": "Playas", "state": "NM", "lat": "31.9126", "lng": "-108.5363"}, {"name": "Spencerville", "state": "NM", "lat": "36.8191", "lng": "-108.0560"}, {"name": "Monterey Park", "state": "NM", "lat": "34.7511", "lng": "-106.6530"}, {"name": "Brimhall Nizhoni", "state": "NM", "lat": "35.7785", "lng": "-108.6322"}, {"name": "La Mesilla", "state": "NM", "lat": "35.9461", "lng": "-106.0719"}, {"name": "Tohatchi", "state": "NM", "lat": "35.8410", "lng": "-108.7506"}, {"name": "Mountainair", "state": "NM", "lat": "34.5199", "lng": "-106.2430"}, {"name": "San Pablo", "state": "NM", "lat": "32.2506", "lng": "-106.7626"}, {"name": "Logan", "state": "NM", "lat": "35.3581", "lng": "-103.4449"}, {"name": "Luis Lopez", "state": "NM", "lat": "33.9904", "lng": "-106.8878"}, {"name": "Radium Springs", "state": "NM", "lat": "32.4783", "lng": "-106.9031"}, {"name": "Anton Chico", "state": "NM", "lat": "35.1948", "lng": "-105.1439"}, {"name": "Cochiti", "state": "NM", "lat": "35.6104", "lng": "-106.3502"}, {"name": "Navajo", "state": "NM", "lat": "35.9024", "lng": "-109.0321"}, {"name": "Santa Cruz", "state": "NM", "lat": "35.9939", "lng": "-106.0358"}, {"name": "Ribera", "state": "NM", "lat": "35.3700", "lng": "-105.4441"}, {"name": "Kirtland", "state": "NM", "lat": "36.7502", "lng": "-108.3587"}, {"name": "Abeytas", "state": "NM", "lat": "34.4652", "lng": "-106.8137"}, {"name": "Tecolotito", "state": "NM", "lat": "35.2307", "lng": "-105.1631"}, {"name": "Pajarito Mesa", "state": "NM", "lat": "34.9795", "lng": "-106.7979"}, {"name": "Talpa", "state": "NM", "lat": "36.3421", "lng": "-105.5923"}, {"name": "Homestead", "state": "NM", "lat": "34.1488", "lng": "-107.8818"}, {"name": "University Park", "state": "NM", "lat": "32.2767", "lng": "-106.7462"}, {"name": "Nogal", "state": "NM", "lat": "33.5382", "lng": "-105.7119"}, {"name": "Datil", "state": "NM", "lat": "34.1424", "lng": "-107.8424"}, {"name": "Angel Fire", "state": "NM", "lat": "36.3821", "lng": "-105.2718"}, {"name": "City of the Sun", "state": "NM", "lat": "31.8466", "lng": "-107.6504"}, {"name": "San Rafael", "state": "NM", "lat": "35.0878", "lng": "-107.8895"}, {"name": "Ca\u00c3\u00b1ada de los Alamos", "state": "NM", "lat": "35.5926", "lng": "-105.8597"}, {"name": "Vadito", "state": "NM", "lat": "36.1929", "lng": "-105.6754"}, {"name": "Mescalero", "state": "NM", "lat": "33.1448", "lng": "-105.7897"}, {"name": "Las Maravillas", "state": "NM", "lat": "34.7340", "lng": "-106.6690"}, {"name": "Naschitti", "state": "NM", "lat": "36.0625", "lng": "-108.6800"}, {"name": "House", "state": "NM", "lat": "34.6492", "lng": "-103.9039"}, {"name": "Chama", "state": "NM", "lat": "36.8926", "lng": "-106.5843"}, {"name": "North Valley", "state": "NM", "lat": "35.1737", "lng": "-106.6231"}, {"name": "San Felipe Pueblo", "state": "NM", "lat": "35.4338", "lng": "-106.4250"}, {"name": "Folsom", "state": "NM", "lat": "36.8481", "lng": "-103.9186"}, {"name": "Sedillo", "state": "NM", "lat": "35.0906", "lng": "-106.2869"}, {"name": "Rio en Medio", "state": "NM", "lat": "35.8221", "lng": "-105.9010"}, {"name": "Vado", "state": "NM", "lat": "32.1279", "lng": "-106.6571"}, {"name": "La Plata", "state": "NM", "lat": "36.9232", "lng": "-108.1932"}, {"name": "Mimbres", "state": "NM", "lat": "32.8332", "lng": "-107.9559"}, {"name": "Taos", "state": "NM", "lat": "36.3871", "lng": "-105.5803"}, {"name": "Rancho Grande", "state": "NM", "lat": "33.6827", "lng": "-108.8581"}, {"name": "Puerto de Luna", "state": "NM", "lat": "34.8297", "lng": "-104.6223"}, {"name": "Las Palomas", "state": "NM", "lat": "33.0589", "lng": "-107.2982"}, {"name": "Shiprock", "state": "NM", "lat": "36.7924", "lng": "-108.7005"}, {"name": "Oasis", "state": "NM", "lat": "32.9277", "lng": "-107.3164"}, {"name": "La Joya", "state": "NM", "lat": "34.3450", "lng": "-106.8465"}, {"name": "Las Cruces", "state": "NM", "lat": "32.3265", "lng": "-106.7893"}, {"name": "Arroyo Hondo", "state": "NM", "lat": "36.5346", "lng": "-105.6666"}, {"name": "Manzano", "state": "NM", "lat": "34.6437", "lng": "-106.3670"}, {"name": "Los Cerrillos", "state": "NM", "lat": "35.4272", "lng": "-106.1211"}, {"name": "Gallina", "state": "NM", "lat": "36.2297", "lng": "-106.8089"}, {"name": "Silver City", "state": "NM", "lat": "32.7784", "lng": "-108.2698"}, {"name": "Pecan Park", "state": "NM", "lat": "32.2704", "lng": "-107.6740"}, {"name": "Newkirk", "state": "NM", "lat": "35.0635", "lng": "-104.2715"}, {"name": "Elephant Butte", "state": "NM", "lat": "33.1806", "lng": "-107.2269"}, {"name": "Roswell", "state": "NM", "lat": "33.3730", "lng": "-104.5294"}, {"name": "San Ildefonso Pueblo", "state": "NM", "lat": "35.8955", "lng": "-106.1225"}, {"name": "Grady", "state": "NM", "lat": "34.8217", "lng": "-103.3157"}, {"name": "Morningside", "state": "NM", "lat": "32.8610", "lng": "-104.3971"}, {"name": "Boles Acres", "state": "NM", "lat": "32.8196", "lng": "-105.9782"}, {"name": "Lovington", "state": "NM", "lat": "32.9125", "lng": "-103.3277"}, {"name": "Cannon AFB", "state": "NM", "lat": "34.3885", "lng": "-103.3185"}, {"name": "La Villita", "state": "NM", "lat": "36.1001", "lng": "-106.0514"}, {"name": "Rowe", "state": "NM", "lat": "35.4922", "lng": "-105.6715"}, {"name": "Deming", "state": "NM", "lat": "32.2631", "lng": "-107.7525"}, {"name": "Moriarty", "state": "NM", "lat": "35.0052", "lng": "-106.0460"}, {"name": "Highland Meadows", "state": "NM", "lat": "34.9399", "lng": "-107.1655"}, {"name": "Ventura", "state": "NM", "lat": "32.2438", "lng": "-107.6832"}, {"name": "La Cueva", "state": "NM", "lat": "35.8694", "lng": "-106.6485"}, {"name": "Hurley", "state": "NM", "lat": "32.6982", "lng": "-108.1321"}, {"name": "Pueblo of Sandia Village", "state": "NM", "lat": "35.2536", "lng": "-106.5706"}, {"name": "Aragon", "state": "NM", "lat": "33.8899", "lng": "-108.5201"}, {"name": "San Fidel", "state": "NM", "lat": "35.1025", "lng": "-107.5975"}, {"name": "Holloman AFB", "state": "NM", "lat": "32.8483", "lng": "-106.0998"}, {"name": "Madrid", "state": "NM", "lat": "35.4033", "lng": "-106.1538"}, {"name": "Glenwood", "state": "NM", "lat": "33.3188", "lng": "-108.8811"}, {"name": "Garfield", "state": "NM", "lat": "32.7568", "lng": "-107.2665"}, {"name": "Corona", "state": "NM", "lat": "34.2501", "lng": "-105.5970"}, {"name": "Beclabito", "state": "NM", "lat": "36.8335", "lng": "-109.0040"}, {"name": "Ramah", "state": "NM", "lat": "35.1375", "lng": "-108.4861"}, {"name": "Middle Frisco", "state": "NM", "lat": "33.6949", "lng": "-108.7639"}, {"name": "Blanco", "state": "NM", "lat": "36.7211", "lng": "-107.8332"}, {"name": "Alamogordo", "state": "NM", "lat": "32.8837", "lng": "-105.9624"}, {"name": "Hatch", "state": "NM", "lat": "32.6682", "lng": "-107.1641"}, {"name": "East Pecos", "state": "NM", "lat": "35.5765", "lng": "-105.6499"}, {"name": "Nakaibito", "state": "NM", "lat": "35.7826", "lng": "-108.8039"}, {"name": "Placitas", "state": "NM", "lat": "35.3226", "lng": "-106.4436"}, {"name": "Yah-ta-hey", "state": "NM", "lat": "35.6216", "lng": "-108.7919"}, {"name": "Ruidoso", "state": "NM", "lat": "33.3648", "lng": "-105.6432"}, {"name": "Taos Pueblo", "state": "NM", "lat": "36.4656", "lng": "-105.5635"}, {"name": "Texico", "state": "NM", "lat": "34.3897", "lng": "-103.0513"}, {"name": "Jarales", "state": "NM", "lat": "34.6146", "lng": "-106.7631"}, {"name": "Costilla", "state": "NM", "lat": "36.9786", "lng": "-105.5353"}, {"name": "Nadine", "state": "NM", "lat": "32.6232", "lng": "-103.1078"}, {"name": "Fence Lake", "state": "NM", "lat": "34.6690", "lng": "-108.6801"}, {"name": "Villanueva", "state": "NM", "lat": "35.2660", "lng": "-105.3602"}, {"name": "Arenas Valley", "state": "NM", "lat": "32.7765", "lng": "-108.2030"}, {"name": "Cobre", "state": "NM", "lat": "32.7804", "lng": "-108.1107"}, {"name": "La Cienega", "state": "NM", "lat": "35.5801", "lng": "-106.1127"}, {"name": "Arrey", "state": "NM", "lat": "32.8472", "lng": "-107.3204"}, {"name": "Chaparral", "state": "NM", "lat": "32.0442", "lng": "-106.4061"}, {"name": "Orogrande", "state": "NM", "lat": "32.3875", "lng": "-106.1003"}, {"name": "San Antonito", "state": "NM", "lat": "35.1575", "lng": "-106.3475"}, {"name": "Santa Ana Pueblo", "state": "NM", "lat": "35.3495", "lng": "-106.5202"}, {"name": "Pueblito", "state": "NM", "lat": "36.0727", "lng": "-106.0810"}, {"name": "Jal", "state": "NM", "lat": "32.1148", "lng": "-103.1900"}, {"name": "Encino", "state": "NM", "lat": "34.6518", "lng": "-105.4586"}, {"name": "Cedar Crest", "state": "NM", "lat": "35.1114", "lng": "-106.3802"}, {"name": "Pe\u00c3\u00b1a Blanca", "state": "NM", "lat": "35.5709", "lng": "-106.3319"}, {"name": "Hope", "state": "NM", "lat": "32.8158", "lng": "-104.7360"}, {"name": "North San Ysidro", "state": "NM", "lat": "35.4746", "lng": "-105.5661"}, {"name": "Lake Sumner", "state": "NM", "lat": "34.6186", "lng": "-104.3801"}, {"name": "Do\u00c3\u00b1a Ana", "state": "NM", "lat": "32.3940", "lng": "-106.8177"}, {"name": "Cuba", "state": "NM", "lat": "36.0146", "lng": "-106.9680"}, {"name": "Ute Park", "state": "NM", "lat": "36.5467", "lng": "-105.1038"}, {"name": "Cimarron", "state": "NM", "lat": "36.5087", "lng": "-104.9115"}, {"name": "Rodey", "state": "NM", "lat": "32.6538", "lng": "-107.1358"}, {"name": "Eagle Nest", "state": "NM", "lat": "36.5495", "lng": "-105.2593"}, {"name": "Apache Creek", "state": "NM", "lat": "33.8486", "lng": "-108.6141"}, {"name": "Laguna", "state": "NM", "lat": "35.0504", "lng": "-107.4071"}, {"name": "Ruidoso Downs", "state": "NM", "lat": "33.3312", "lng": "-105.5969"}, {"name": "Organ", "state": "NM", "lat": "32.4251", "lng": "-106.6024"}, {"name": "Ohkay Owingeh", "state": "NM", "lat": "36.0439", "lng": "-106.0565"}, {"name": "Bluewater Village", "state": "NM", "lat": "35.2379", "lng": "-107.9810"}, {"name": "McIntosh", "state": "NM", "lat": "34.8804", "lng": "-106.0577"}, {"name": "Lordsburg", "state": "NM", "lat": "32.3438", "lng": "-108.7021"}, {"name": "Pinon", "state": "NM", "lat": "32.6182", "lng": "-105.3867"}, {"name": "Bibo", "state": "NM", "lat": "35.1807", "lng": "-107.4178"}, {"name": "Aztec", "state": "NM", "lat": "36.8190", "lng": "-107.9826"}, {"name": "Dexter", "state": "NM", "lat": "33.1954", "lng": "-104.3687"}, {"name": "Bosque Farms", "state": "NM", "lat": "34.8538", "lng": "-106.7011"}, {"name": "Zia Pueblo", "state": "NM", "lat": "35.5200", "lng": "-106.7150"}, {"name": "Cubero", "state": "NM", "lat": "35.0903", "lng": "-107.5264"}, {"name": "Eldorado at Santa Fe", "state": "NM", "lat": "35.5273", "lng": "-105.9340"}, {"name": "Willard", "state": "NM", "lat": "34.5948", "lng": "-106.0314"}, {"name": "Nara Visa", "state": "NM", "lat": "35.6068", "lng": "-103.1043"}, {"name": "Melrose", "state": "NM", "lat": "34.4290", "lng": "-103.6296"}, {"name": "Bayard", "state": "NM", "lat": "32.7583", "lng": "-108.1336"}, {"name": "Pueblo Pintado", "state": "NM", "lat": "35.9453", "lng": "-107.6161"}, {"name": "White Signal", "state": "NM", "lat": "32.5724", "lng": "-108.3512"}, {"name": "El Cerro", "state": "NM", "lat": "34.7807", "lng": "-106.6956"}, {"name": "Clayton", "state": "NM", "lat": "36.4439", "lng": "-103.1590"}, {"name": "Nenahnezad", "state": "NM", "lat": "36.7354", "lng": "-108.4253"}, {"name": "Brazos", "state": "NM", "lat": "36.7528", "lng": "-106.5598"}, {"name": "Escondida", "state": "NM", "lat": "34.1012", "lng": "-106.8974"}, {"name": "Dixon", "state": "NM", "lat": "36.1886", "lng": "-105.8784"}, {"name": "Abiquiu", "state": "NM", "lat": "36.2017", "lng": "-106.3239"}, {"name": "Questa", "state": "NM", "lat": "36.7114", "lng": "-105.5935"}, {"name": "Faywood", "state": "NM", "lat": "32.6247", "lng": "-107.8723"}, {"name": "Navajo Dam", "state": "NM", "lat": "36.7981", "lng": "-107.7045"}, {"name": "Las Vegas", "state": "NM", "lat": "35.6011", "lng": "-105.2206"}, {"name": "Lee Acres", "state": "NM", "lat": "36.7103", "lng": "-108.0725"}, {"name": "Caballo", "state": "NM", "lat": "32.9806", "lng": "-107.3075"}, {"name": "Quemado", "state": "NM", "lat": "34.3415", "lng": "-108.5060"}, {"name": "Cedro", "state": "NM", "lat": "35.0180", "lng": "-106.3508"}, {"name": "Los Lunas", "state": "NM", "lat": "34.8115", "lng": "-106.7803"}, {"name": "Escudilla Bonita", "state": "NM", "lat": "34.1122", "lng": "-109.0231"}, {"name": "Happy Valley", "state": "NM", "lat": "32.4235", "lng": "-104.2903"}, {"name": "La Union", "state": "NM", "lat": "31.9508", "lng": "-106.6621"}, {"name": "Tucumcari", "state": "NM", "lat": "35.1701", "lng": "-103.7042"}, {"name": "Lake Valley", "state": "NM", "lat": "36.0902", "lng": "-108.1642"}, {"name": "Tyrone", "state": "NM", "lat": "32.7099", "lng": "-108.3028"}, {"name": "Chamberino", "state": "NM", "lat": "32.0364", "lng": "-106.6776"}, {"name": "La Mesa", "state": "NM", "lat": "32.1244", "lng": "-106.7090"}, {"name": "Hobbs", "state": "NM", "lat": "32.7282", "lng": "-103.1600"}, {"name": "Torreon", "state": "NM", "lat": "35.7932", "lng": "-107.2124"}, {"name": "Church Rock", "state": "NM", "lat": "35.5309", "lng": "-108.6234"}, {"name": "Los Ranchos de Albuquerque", "state": "NM", "lat": "35.1626", "lng": "-106.6481"}, {"name": "Hernandez", "state": "NM", "lat": "36.0567", "lng": "-106.1186"}, {"name": "White Rock", "state": "NM", "lat": "35.8075", "lng": "-106.2067"}, {"name": "Napi Headquarters", "state": "NM", "lat": "36.6538", "lng": "-108.2186"}, {"name": "Rincon", "state": "NM", "lat": "32.6729", "lng": "-107.0764"}, {"name": "Indian Hills", "state": "NM", "lat": "34.9832", "lng": "-106.1398"}, {"name": "Carrizozo", "state": "NM", "lat": "33.6433", "lng": "-105.8411"}, {"name": "Chili", "state": "NM", "lat": "36.1028", "lng": "-106.1529"}, {"name": "Atoka", "state": "NM", "lat": "32.7783", "lng": "-104.3931"}, {"name": "Alcalde", "state": "NM", "lat": "36.0854", "lng": "-106.0575"}, {"name": "Twin Forks", "state": "NM", "lat": "32.9463", "lng": "-105.6374"}, {"name": "Waterflow", "state": "NM", "lat": "36.7575", "lng": "-108.4711"}, {"name": "Salem", "state": "NM", "lat": "32.7122", "lng": "-107.2044"}, {"name": "Lake Arthur", "state": "NM", "lat": "32.9994", "lng": "-104.3637"}, {"name": "Duran", "state": "NM", "lat": "34.4636", "lng": "-105.3807"}, {"name": "Des Moines", "state": "NM", "lat": "36.7625", "lng": "-103.8357"}, {"name": "Tecolote", "state": "NM", "lat": "35.4605", "lng": "-105.2842"}, {"name": "Ca\u00c3\u00b1on", "state": "NM", "lat": "35.6718", "lng": "-106.7527"}, {"name": "Chilili", "state": "NM", "lat": "34.8974", "lng": "-106.2332"}, {"name": "Alamillo", "state": "NM", "lat": "34.2519", "lng": "-106.9158"}, {"name": "Meadow Lake", "state": "NM", "lat": "34.8024", "lng": "-106.5701"}, {"name": "Ponderosa", "state": "NM", "lat": "35.6555", "lng": "-106.6544"}, {"name": "Socorro", "state": "NM", "lat": "34.0543", "lng": "-106.9066"}, {"name": "San Mateo", "state": "NM", "lat": "35.3317", "lng": "-107.6469"}, {"name": "Nambe", "state": "NM", "lat": "35.8984", "lng": "-105.9667"}, {"name": "Paraje", "state": "NM", "lat": "35.0444", "lng": "-107.4681"}, {"name": "Galisteo", "state": "NM", "lat": "35.3950", "lng": "-105.9569"}, {"name": "Polvadera", "state": "NM", "lat": "34.2021", "lng": "-106.9171"}, {"name": "Adelino", "state": "NM", "lat": "34.7066", "lng": "-106.7302"}, {"name": "South Valley", "state": "NM", "lat": "35.0093", "lng": "-106.6819"}, {"name": "Sacramento", "state": "NM", "lat": "32.7917", "lng": "-105.5723"}, {"name": "Weed", "state": "NM", "lat": "32.8025", "lng": "-105.5248"}, {"name": "Wagon Mound", "state": "NM", "lat": "36.0048", "lng": "-104.7091"}, {"name": "North Light Plant", "state": "NM", "lat": "36.8751", "lng": "-108.0458"}, {"name": "Malaga", "state": "NM", "lat": "32.2227", "lng": "-104.0692"}, {"name": "Jemez Pueblo", "state": "NM", "lat": "35.6068", "lng": "-106.7332"}, {"name": "Tijeras", "state": "NM", "lat": "35.0884", "lng": "-106.3761"}, {"name": "Midway", "state": "NM", "lat": "33.2958", "lng": "-104.4518"}, {"name": "Belen", "state": "NM", "lat": "34.6803", "lng": "-106.7875"}, {"name": "Bluewater Acres", "state": "NM", "lat": "35.2667", "lng": "-108.1351"}, {"name": "Livingston Wheeler", "state": "NM", "lat": "32.3944", "lng": "-104.1981"}, {"name": "West Hammond", "state": "NM", "lat": "36.6812", "lng": "-108.0491"}, {"name": "El Duende", "state": "NM", "lat": "36.0738", "lng": "-106.1269"}, {"name": "Sheep Springs", "state": "NM", "lat": "36.1564", "lng": "-108.6905"}, {"name": "Los Chaves", "state": "NM", "lat": "34.7332", "lng": "-106.7632"}, {"name": "Pie Town", "state": "NM", "lat": "34.3400", "lng": "-108.1708"}, {"name": "Truchas", "state": "NM", "lat": "36.0338", "lng": "-105.8095"}, {"name": "Upper Fruitland", "state": "NM", "lat": "36.7205", "lng": "-108.3234"}, {"name": "Mesilla", "state": "NM", "lat": "32.2691", "lng": "-106.8086"}, {"name": "Vaughn", "state": "NM", "lat": "34.6072", "lng": "-105.2126"}, {"name": "Mountain View", "state": "NM", "lat": "32.2288", "lng": "-107.7462"}, {"name": "Jaconita", "state": "NM", "lat": "35.8857", "lng": "-106.0611"}, {"name": "Golden", "state": "NM", "lat": "35.2637", "lng": "-106.2230"}, {"name": "Lumberton", "state": "NM", "lat": "36.9328", "lng": "-106.9354"}, {"name": "Clovis", "state": "NM", "lat": "34.4376", "lng": "-103.1923"}, {"name": "Edith Endave", "state": "NM", "lat": "35.2104", "lng": "-106.5890"}, {"name": "San Acacia", "state": "NM", "lat": "34.2550", "lng": "-106.9023"}, {"name": "Chamisal", "state": "NM", "lat": "36.1725", "lng": "-105.7459"}, {"name": "San Cristobal", "state": "NM", "lat": "36.6101", "lng": "-105.6318"}, {"name": "Pe\u00c3\u00b1asco", "state": "NM", "lat": "36.1703", "lng": "-105.6907"}, {"name": "Seama", "state": "NM", "lat": "35.0441", "lng": "-107.5271"}, {"name": "Sunland Park", "state": "NM", "lat": "31.8194", "lng": "-106.5943"}, {"name": "Santa Teresa", "state": "NM", "lat": "31.8701", "lng": "-106.6714"}, {"name": "Skyline-Ganipa", "state": "NM", "lat": "35.0328", "lng": "-107.6140"}, {"name": "La Luz", "state": "NM", "lat": "32.9698", "lng": "-105.9388"}, {"name": "North Hobbs", "state": "NM", "lat": "32.7731", "lng": "-103.1250"}, {"name": "Chimayo", "state": "NM", "lat": "35.9976", "lng": "-105.9363"}, {"name": "Artesia", "state": "NM", "lat": "32.8492", "lng": "-104.4275"}, {"name": "Flora Vista", "state": "NM", "lat": "36.8056", "lng": "-108.0856"}, {"name": "Alamo", "state": "NM", "lat": "34.4184", "lng": "-107.5125"}, {"name": "Grants", "state": "NM", "lat": "35.1538", "lng": "-107.8335"}, {"name": "Cedar Grove", "state": "NM", "lat": "35.1680", "lng": "-106.1616"}, {"name": "San Jon", "state": "NM", "lat": "35.1141", "lng": "-103.3353"}, {"name": "San Ysidro", "state": "NM", "lat": "35.5606", "lng": "-106.7735"}, {"name": "Tesuque", "state": "NM", "lat": "35.7486", "lng": "-105.9210"}, {"name": "Springer", "state": "NM", "lat": "36.3662", "lng": "-104.5932"}, {"name": "Santo Domingo Pueblo", "state": "NM", "lat": "35.5174", "lng": "-106.3670"}, {"name": "Veguita", "state": "NM", "lat": "34.5147", "lng": "-106.7678"}, {"name": "La Madera", "state": "NM", "lat": "36.3807", "lng": "-106.0420"}, {"name": "Carlsbad", "state": "NM", "lat": "32.4013", "lng": "-104.2388"}, {"name": "Los Ojos", "state": "NM", "lat": "36.7361", "lng": "-106.5668"}, {"name": "Jemez Springs", "state": "NM", "lat": "35.7732", "lng": "-106.6909"}, {"name": "Pecos", "state": "NM", "lat": "35.5754", "lng": "-105.6787"}, {"name": "La Jara", "state": "NM", "lat": "36.1055", "lng": "-106.9419"}, {"name": "Sandia Park", "state": "NM", "lat": "35.1648", "lng": "-106.3657"}, {"name": "McCartys Village", "state": "NM", "lat": "35.0636", "lng": "-107.6836"}, {"name": "Cuartelez", "state": "NM", "lat": "35.9928", "lng": "-106.0197"}, {"name": "Columbus", "state": "NM", "lat": "31.8273", "lng": "-107.6423"}, {"name": "Mosquero", "state": "NM", "lat": "35.7743", "lng": "-103.9544"}, {"name": "Mayhill", "state": "NM", "lat": "32.8962", "lng": "-105.4960"}, {"name": "Twin Lakes", "state": "NM", "lat": "35.6834", "lng": "-108.7709"}, {"name": "Gila", "state": "NM", "lat": "32.9485", "lng": "-108.5762"}, {"name": "Pulpotio Bareas", "state": "NM", "lat": "32.2179", "lng": "-107.7728"}, {"name": "Black Rock", "state": "NM", "lat": "35.0833", "lng": "-108.7979"}, {"name": "Lake Roberts Heights", "state": "NM", "lat": "33.0271", "lng": "-108.1382"}, {"name": "Nageezi", "state": "NM", "lat": "36.2488", "lng": "-107.7471"}, {"name": "El Rancho", "state": "NM", "lat": "35.8928", "lng": "-106.0856"}, {"name": "High Rolls", "state": "NM", "lat": "32.9388", "lng": "-105.8214"}, {"name": "Tularosa", "state": "NM", "lat": "33.0753", "lng": "-106.0175"}, {"name": "Rodeo", "state": "NM", "lat": "31.8396", "lng": "-109.0265"}, {"name": "Pojoaque", "state": "NM", "lat": "35.8962", "lng": "-106.0105"}, {"name": "Fairacres", "state": "NM", "lat": "32.3047", "lng": "-106.8366"}, {"name": "Fort Sumner", "state": "NM", "lat": "34.4790", "lng": "-104.2331"}, {"name": "Cedar Hill", "state": "NM", "lat": "36.9296", "lng": "-107.8871"}, {"name": "Portales", "state": "NM", "lat": "34.1753", "lng": "-103.3566"}, {"name": "Maxwell", "state": "NM", "lat": "36.5411", "lng": "-104.5431"}, {"name": "Soham", "state": "NM", "lat": "35.4168", "lng": "-105.4985"}, {"name": "Luna", "state": "NM", "lat": "33.8181", "lng": "-108.9435"}, {"name": "Isleta Village Proper", "state": "NM", "lat": "34.9065", "lng": "-106.6935"}, {"name": "Pinehill", "state": "NM", "lat": "35.0031", "lng": "-108.4080"}, {"name": "Capulin", "state": "NM", "lat": "36.7445", "lng": "-103.9958"}, {"name": "Cloudcroft", "state": "NM", "lat": "32.9532", "lng": "-105.7329"}, {"name": "Windmill", "state": "NM", "lat": "31.9769", "lng": "-108.6315"}, {"name": "Acomita Lake", "state": "NM", "lat": "35.0660", "lng": "-107.6173"}, {"name": "Milan", "state": "NM", "lat": "35.1950", "lng": "-107.8947"}, {"name": "Valencia", "state": "NM", "lat": "34.8053", "lng": "-106.6869"}, {"name": "Hanover", "state": "NM", "lat": "32.8149", "lng": "-108.0897"}, {"name": "La Hacienda", "state": "NM", "lat": "32.2060", "lng": "-107.7250"}, {"name": "Grenville", "state": "NM", "lat": "36.5931", "lng": "-103.6135"}, {"name": "Kingston", "state": "NM", "lat": "32.9173", "lng": "-107.7098"}, {"name": "Dulce", "state": "NM", "lat": "36.9399", "lng": "-107.0049"}, {"name": "Jacona", "state": "NM", "lat": "35.8887", "lng": "-106.0386"}, {"name": "Gallup", "state": "NM", "lat": "35.5183", "lng": "-108.7423"}, {"name": "Espa\u00c3\u00b1ola", "state": "NM", "lat": "36.0041", "lng": "-106.0669"}, {"name": "Velarde", "state": "NM", "lat": "36.1607", "lng": "-105.9660"}, {"name": "Tierra Amarilla", "state": "NM", "lat": "36.7061", "lng": "-106.5599"}, {"name": "Algodones", "state": "NM", "lat": "35.3802", "lng": "-106.4731"}, {"name": "North Hurley", "state": "NM", "lat": "32.7198", "lng": "-108.1285"}, {"name": "Elida", "state": "NM", "lat": "33.9469", "lng": "-103.6531"}, {"name": "Cundiyo", "state": "NM", "lat": "35.9565", "lng": "-105.8971"}, {"name": "Santa Fe", "state": "NM", "lat": "35.6619", "lng": "-105.9819"}, {"name": "Peralta", "state": "NM", "lat": "34.8283", "lng": "-106.6860"}, {"name": "Crystal", "state": "NM", "lat": "36.0280", "lng": "-108.9911"}, {"name": "San Lorenzo", "state": "NM", "lat": "32.8086", "lng": "-107.9221"}, {"name": "Monument", "state": "NM", "lat": "32.6243", "lng": "-103.2776"}, {"name": "Lyden", "state": "NM", "lat": "36.1537", "lng": "-106.0147"}, {"name": "Moquino", "state": "NM", "lat": "35.1801", "lng": "-107.3701"}, {"name": "Cruzville", "state": "NM", "lat": "33.8100", "lng": "-108.6684"}, {"name": "Mesita", "state": "NM", "lat": "35.0133", "lng": "-107.3296"}, {"name": "Tesuque Pueblo", "state": "NM", "lat": "35.8091", "lng": "-105.9752"}, {"name": "Canjilon", "state": "NM", "lat": "36.4840", "lng": "-106.4335"}, {"name": "Tse Bonito", "state": "NM", "lat": "35.6525", "lng": "-109.0361"}, {"name": "Trout Valley", "state": "NM", "lat": "33.0363", "lng": "-108.1893"}, {"name": "Rock Springs", "state": "NM", "lat": "35.6088", "lng": "-108.8293"}, {"name": "Madrone", "state": "NM", "lat": "34.5792", "lng": "-106.7285"}, {"name": "Tome", "state": "NM", "lat": "34.7397", "lng": "-106.7230"}, {"name": "San Antonio", "state": "NM", "lat": "33.9161", "lng": "-106.8700"}, {"name": "Virden", "state": "NM", "lat": "32.6886", "lng": "-109.0010"}, {"name": "Sunshine", "state": "NM", "lat": "32.1344", "lng": "-107.7838"}, {"name": "San Jose", "state": "NM", "lat": "36.0367", "lng": "-106.1004"}, {"name": "Animas", "state": "NM", "lat": "31.9449", "lng": "-108.8065"}, {"name": "Regina", "state": "NM", "lat": "36.1947", "lng": "-106.9453"}, {"name": "Picuris Pueblo", "state": "NM", "lat": "36.1995", "lng": "-105.7133"}, {"name": "Seboyeta", "state": "NM", "lat": "35.2241", "lng": "-107.4049"}, {"name": "San Pedro", "state": "NM", "lat": "35.2280", "lng": "-106.1848"}, {"name": "Cliff", "state": "NM", "lat": "32.9660", "lng": "-108.6176"}, {"name": "Anthony", "state": "NM", "lat": "32.0132", "lng": "-106.5984"}, {"name": "Lake Roberts", "state": "NM", "lat": "33.0313", "lng": "-108.1689"}, {"name": "Cotton City", "state": "NM", "lat": "32.1101", "lng": "-108.8805"}, {"name": "Reserve", "state": "NM", "lat": "33.7090", "lng": "-108.7614"}]