[{"name": "Lamoille", "state": "NV", "lat": "40.7239", "lng": "-115.4790"}, {"name": "Humboldt River Ranch", "state": "NV", "lat": "40.4556", "lng": "-118.2676"}, {"name": "Henderson", "state": "NV", "lat": "36.0146", "lng": "-115.0362"}, {"name": "Minden", "state": "NV", "lat": "38.9609", "lng": "-119.7688"}, {"name": "North Las Vegas", "state": "NV", "lat": "36.2880", "lng": "-115.0901"}, {"name": "Gerlach", "state": "NV", "lat": "40.6451", "lng": "-119.3614"}, {"name": "Pioche", "state": "NV", "lat": "37.9520", "lng": "-114.4434"}, {"name": "Crescent Valley", "state": "NV", "lat": "40.4199", "lng": "-116.5753"}, {"name": "Goodsprings", "state": "NV", "lat": "35.8303", "lng": "-115.4291"}, {"name": "Fish Springs", "state": "NV", "lat": "38.9536", "lng": "-119.6511"}, {"name": "Paradise Valley", "state": "NV", "lat": "41.4900", "lng": "-117.5323"}, {"name": "Fort McDermitt", "state": "NV", "lat": "41.9656", "lng": "-117.6392"}, {"name": "Winnemucca", "state": "NV", "lat": "40.9645", "lng": "-117.7247"}, {"name": "Zephyr Cove", "state": "NV", "lat": "39.0082", "lng": "-119.9307"}, {"name": "Oasis", "state": "NV", "lat": "41.0286", "lng": "-114.4763"}, {"name": "Walker Lake", "state": "NV", "lat": "38.6468", "lng": "-118.7572"}, {"name": "Panaca", "state": "NV", "lat": "37.7889", "lng": "-114.3997"}, {"name": "Cal-Nev-Ari", "state": "NV", "lat": "35.2996", "lng": "-114.8778"}, {"name": "Moapa Town", "state": "NV", "lat": "36.7708", "lng": "-114.6473"}, {"name": "Searchlight", "state": "NV", "lat": "35.4828", "lng": "-114.9157"}, {"name": "Incline Village", "state": "NV", "lat": "39.2639", "lng": "-119.9453"}, {"name": "Gabbs", "state": "NV", "lat": "38.8655", "lng": "-117.9238"}, {"name": "Enterprise", "state": "NV", "lat": "36.0163", "lng": "-115.2207"}, {"name": "Ursine", "state": "NV", "lat": "37.9771", "lng": "-114.2289"}, {"name": "Gardnerville", "state": "NV", "lat": "38.9390", "lng": "-119.7369"}, {"name": "West Wendover", "state": "NV", "lat": "40.7407", "lng": "-114.0783"}, {"name": "Bennett Springs", "state": "NV", "lat": "37.7104", "lng": "-114.4685"}, {"name": "Logan Creek", "state": "NV", "lat": "39.0626", "lng": "-119.9294"}, {"name": "Topaz Lake", "state": "NV", "lat": "38.6976", "lng": "-119.5427"}, {"name": "Ruhenstroth", "state": "NV", "lat": "38.8912", "lng": "-119.6833"}, {"name": "Owyhee", "state": "NV", "lat": "41.9166", "lng": "-116.1822"}, {"name": "Virginia City", "state": "NV", "lat": "39.3075", "lng": "-119.6483"}, {"name": "Gardnerville Ranchos", "state": "NV", "lat": "38.8872", "lng": "-119.7426"}, {"name": "Genoa", "state": "NV", "lat": "39.0256", "lng": "-119.8309"}, {"name": "Cold Springs", "state": "NV", "lat": "39.6927", "lng": "-119.9775"}, {"name": "Schurz", "state": "NV", "lat": "38.9366", "lng": "-118.7925"}, {"name": "Paradise", "state": "NV", "lat": "36.0807", "lng": "-115.1369"}, {"name": "Golden Valley", "state": "NV", "lat": "39.6177", "lng": "-119.8231"}, {"name": "Fallon Station", "state": "NV", "lat": "39.4151", "lng": "-118.7165"}, {"name": "Beatty", "state": "NV", "lat": "36.9352", "lng": "-116.7025"}, {"name": "Round Hill Village", "state": "NV", "lat": "38.9937", "lng": "-119.9233"}, {"name": "Silver City", "state": "NV", "lat": "39.2639", "lng": "-119.6356"}, {"name": "Austin", "state": "NV", "lat": "39.4978", "lng": "-117.0741"}, {"name": "Rachel", "state": "NV", "lat": "37.6509", "lng": "-115.7341"}, {"name": "Washoe Valley", "state": "NV", "lat": "39.2923", "lng": "-119.7767"}, {"name": "Hiko", "state": "NV", "lat": "37.6063", "lng": "-115.2018"}, {"name": "Mina", "state": "NV", "lat": "38.3897", "lng": "-118.1116"}, {"name": "Preston", "state": "NV", "lat": "38.9157", "lng": "-115.0643"}, {"name": "Summerlin South", "state": "NV", "lat": "36.1242", "lng": "-115.3324"}, {"name": "Reno", "state": "NV", "lat": "39.5497", "lng": "-119.8483"}, {"name": "Mesquite", "state": "NV", "lat": "36.8035", "lng": "-114.1325"}, {"name": "Spring Valley", "state": "NV", "lat": "36.0987", "lng": "-115.2619"}, {"name": "Spanish Springs", "state": "NV", "lat": "39.6567", "lng": "-119.6695"}, {"name": "McGill", "state": "NV", "lat": "39.4020", "lng": "-114.7770"}, {"name": "Dayton", "state": "NV", "lat": "39.2580", "lng": "-119.5677"}, {"name": "Wells", "state": "NV", "lat": "41.1132", "lng": "-114.9535"}, {"name": "Spring Creek", "state": "NV", "lat": "40.7387", "lng": "-115.5972"}, {"name": "Osino", "state": "NV", "lat": "40.9410", "lng": "-115.6610"}, {"name": "Laughlin", "state": "NV", "lat": "35.1316", "lng": "-114.6890"}, {"name": "Sparks", "state": "NV", "lat": "39.5729", "lng": "-119.7157"}, {"name": "Tonopah", "state": "NV", "lat": "38.0997", "lng": "-117.2483"}, {"name": "Battle Mountain", "state": "NV", "lat": "40.6379", "lng": "-116.9485"}, {"name": "Topaz Ranch Estates", "state": "NV", "lat": "38.7357", "lng": "-119.5008"}, {"name": "Silver Springs", "state": "NV", "lat": "39.3826", "lng": "-119.2149"}, {"name": "Blue Diamond", "state": "NV", "lat": "36.0400", "lng": "-115.4128"}, {"name": "Imlay", "state": "NV", "lat": "40.6581", "lng": "-118.1440"}, {"name": "Lovelock", "state": "NV", "lat": "40.1789", "lng": "-118.4773"}, {"name": "Jackpot", "state": "NV", "lat": "41.9797", "lng": "-114.6645"}, {"name": "Unionville", "state": "NV", "lat": "40.4437", "lng": "-118.1146"}, {"name": "Glenbrook", "state": "NV", "lat": "39.0986", "lng": "-119.9341"}, {"name": "Montello", "state": "NV", "lat": "41.2673", "lng": "-114.1970"}, {"name": "Sutcliffe", "state": "NV", "lat": "39.9461", "lng": "-119.6305"}, {"name": "Las Vegas", "state": "NV", "lat": "36.2333", "lng": "-115.2654"}, {"name": "McDermitt", "state": "NV", "lat": "41.9909", "lng": "-117.7044"}, {"name": "Denio", "state": "NV", "lat": "41.9700", "lng": "-118.6125"}, {"name": "Lemmon Valley", "state": "NV", "lat": "39.6879", "lng": "-119.8364"}, {"name": "Golconda", "state": "NV", "lat": "40.9614", "lng": "-117.5077"}, {"name": "Mount Charleston", "state": "NV", "lat": "36.2625", "lng": "-115.6138"}, {"name": "Smith Valley", "state": "NV", "lat": "38.7845", "lng": "-119.3444"}, {"name": "Ely", "state": "NV", "lat": "39.2649", "lng": "-114.8709"}, {"name": "Bunkerville", "state": "NV", "lat": "36.7198", "lng": "-114.1221"}, {"name": "Moapa Valley", "state": "NV", "lat": "36.6078", "lng": "-114.4566"}, {"name": "Kingston", "state": "NV", "lat": "39.2101", "lng": "-117.0679"}, {"name": "Whitney", "state": "NV", "lat": "36.1005", "lng": "-115.0380"}, {"name": "Mogul", "state": "NV", "lat": "39.5164", "lng": "-119.9230"}, {"name": "Fallon", "state": "NV", "lat": "39.4738", "lng": "-118.7781"}, {"name": "Sandy Valley", "state": "NV", "lat": "35.8423", "lng": "-115.6304"}, {"name": "Fernley", "state": "NV", "lat": "39.5611", "lng": "-119.1926"}, {"name": "Sunrise Manor", "state": "NV", "lat": "36.1785", "lng": "-115.0490"}, {"name": "Crystal Bay", "state": "NV", "lat": "39.2314", "lng": "-120.0017"}, {"name": "Kingsbury", "state": "NV", "lat": "38.9909", "lng": "-119.8837"}, {"name": "Skyland", "state": "NV", "lat": "39.0265", "lng": "-119.9221"}, {"name": "Dry Valley", "state": "NV", "lat": "37.8843", "lng": "-114.3051"}, {"name": "Ruth", "state": "NV", "lat": "39.2793", "lng": "-114.9899"}, {"name": "Nellis AFB", "state": "NV", "lat": "36.2473", "lng": "-115.0574"}, {"name": "Indian Springs", "state": "NV", "lat": "36.5719", "lng": "-115.7203"}, {"name": "Eureka", "state": "NV", "lat": "39.5113", "lng": "-115.9668"}, {"name": "Caliente", "state": "NV", "lat": "37.6436", "lng": "-114.4964"}, {"name": "Yerington", "state": "NV", "lat": "38.9554", "lng": "-119.1101"}, {"name": "Lakeridge", "state": "NV", "lat": "39.0382", "lng": "-119.9397"}, {"name": "Empire", "state": "NV", "lat": "40.5759", "lng": "-119.3431"}, {"name": "Johnson Lane", "state": "NV", "lat": "39.0489", "lng": "-119.7245"}, {"name": "Winchester", "state": "NV", "lat": "36.1368", "lng": "-115.1299"}, {"name": "Sun Valley", "state": "NV", "lat": "39.6106", "lng": "-119.7765"}, {"name": "Carter Springs", "state": "NV", "lat": "38.8619", "lng": "-119.6413"}, {"name": "Alamo", "state": "NV", "lat": "37.3648", "lng": "-115.1629"}, {"name": "Stateline", "state": "NV", "lat": "38.9678", "lng": "-119.9439"}, {"name": "Stagecoach", "state": "NV", "lat": "39.3656", "lng": "-119.3832"}, {"name": "Elko", "state": "NV", "lat": "40.8387", "lng": "-115.7674"}, {"name": "Valmy", "state": "NV", "lat": "40.7718", "lng": "-117.1309"}, {"name": "Pahrump", "state": "NV", "lat": "36.2411", "lng": "-116.0176"}, {"name": "Hawthorne", "state": "NV", "lat": "38.5249", "lng": "-118.6270"}, {"name": "Silver Peak", "state": "NV", "lat": "37.7577", "lng": "-117.6386"}, {"name": "Nixon", "state": "NV", "lat": "39.8280", "lng": "-119.3589"}, {"name": "Lund", "state": "NV", "lat": "38.8654", "lng": "-115.0091"}, {"name": "Wadsworth", "state": "NV", "lat": "39.6322", "lng": "-119.2901"}, {"name": "Double Spring", "state": "NV", "lat": "38.7788", "lng": "-119.6154"}, {"name": "Mount Wilson", "state": "NV", "lat": "38.2350", "lng": "-114.4503"}, {"name": "East Valley", "state": "NV", "lat": "38.9462", "lng": "-119.7003"}, {"name": "Grass Valley", "state": "NV", "lat": "40.7971", "lng": "-117.7603"}, {"name": "Verdi", "state": "NV", "lat": "39.5143", "lng": "-119.9769"}, {"name": "Indian Hills", "state": "NV", "lat": "39.0894", "lng": "-119.7977"}, {"name": "Goldfield", "state": "NV", "lat": "37.7121", "lng": "-117.2378"}, {"name": "Orovada", "state": "NV", "lat": "41.5610", "lng": "-117.7763"}, {"name": "Nelson", "state": "NV", "lat": "35.7179", "lng": "-114.8313"}, {"name": "Carson City", "state": "NV", "lat": "39.1511", "lng": "-119.7474"}, {"name": "Beaverdam", "state": "NV", "lat": "37.6892", "lng": "-114.4489"}, {"name": "Boulder City", "state": "NV", "lat": "35.8407", "lng": "-114.9257"}, {"name": "Baker", "state": "NV", "lat": "39.0150", "lng": "-114.1233"}, {"name": "Carlin", "state": "NV", "lat": "40.7190", "lng": "-116.1080"}, {"name": "Dyer", "state": "NV", "lat": "37.6493", "lng": "-118.0345"}]