[{"name": "Port Jervis", "state": "NY", "lat": "41.3782", "lng": "-74.6909"}, {"name": "Brewster Hill", "state": "NY", "lat": "41.4228", "lng": "-73.6069"}, {"name": "Sodus", "state": "NY", "lat": "43.2371", "lng": "-77.0628"}, {"name": "Roslyn", "state": "NY", "lat": "40.7990", "lng": "-73.6491"}, {"name": "Washington Mills", "state": "NY", "lat": "43.0479", "lng": "-75.2811"}, {"name": "Wellsburg", "state": "NY", "lat": "42.0127", "lng": "-76.7298"}, {"name": "Palenville", "state": "NY", "lat": "42.1773", "lng": "-74.0229"}, {"name": "Newburgh", "state": "NY", "lat": "41.5037", "lng": "-74.0205"}, {"name": "Aurora", "state": "NY", "lat": "42.7511", "lng": "-76.6994"}, {"name": "Byersville", "state": "NY", "lat": "42.5838", "lng": "-77.7915"}, {"name": "Inwood", "state": "NY", "lat": "40.6218", "lng": "-73.7507"}, {"name": "Plattsburgh", "state": "NY", "lat": "44.6951", "lng": "-73.4563"}, {"name": "Sanborn", "state": "NY", "lat": "43.1451", "lng": "-78.8777"}, {"name": "Almond", "state": "NY", "lat": "42.3193", "lng": "-77.7386"}, {"name": "Tupper Lake", "state": "NY", "lat": "44.2326", "lng": "-74.4621"}, {"name": "North Sea", "state": "NY", "lat": "40.9330", "lng": "-72.4047"}, {"name": "Odessa", "state": "NY", "lat": "42.3350", "lng": "-76.7881"}, {"name": "Panama", "state": "NY", "lat": "42.0747", "lng": "-79.4850"}, {"name": "Liberty", "state": "NY", "lat": "41.7962", "lng": "-74.7429"}, {"name": "Hempstead", "state": "NY", "lat": "40.7043", "lng": "-73.6193"}, {"name": "Cold Spring Harbor", "state": "NY", "lat": "40.8608", "lng": "-73.4488"}, {"name": "Paul Smiths", "state": "NY", "lat": "44.4341", "lng": "-74.2533"}, {"name": "Niagara Falls", "state": "NY", "lat": "43.0921", "lng": "-79.0147"}, {"name": "Cherry Valley", "state": "NY", "lat": "42.7978", "lng": "-74.7506"}, {"name": "Ellisburg", "state": "NY", "lat": "43.7351", "lng": "-76.1344"}, {"name": "Terryville", "state": "NY", "lat": "40.9090", "lng": "-73.0492"}, {"name": "Dansville", "state": "NY", "lat": "42.5625", "lng": "-77.6968"}, {"name": "Groveland Station", "state": "NY", "lat": "42.6634", "lng": "-77.7666"}, {"name": "Chenango Bridge", "state": "NY", "lat": "42.1716", "lng": "-75.8586"}, {"name": "Hillside Lake", "state": "NY", "lat": "41.6191", "lng": "-73.7944"}, {"name": "Mamaroneck", "state": "NY", "lat": "40.9469", "lng": "-73.7316"}, {"name": "St. Regis Falls", "state": "NY", "lat": "44.6764", "lng": "-74.5309"}, {"name": "Brightwaters", "state": "NY", "lat": "40.7193", "lng": "-73.2642"}, {"name": "North Hills", "state": "NY", "lat": "40.7765", "lng": "-73.6778"}, {"name": "Clarence Center", "state": "NY", "lat": "43.0085", "lng": "-78.6308"}, {"name": "Kaser", "state": "NY", "lat": "41.1213", "lng": "-74.0685"}, {"name": "Brockport", "state": "NY", "lat": "43.2137", "lng": "-77.9403"}, {"name": "Wesley Hills", "state": "NY", "lat": "41.1578", "lng": "-74.0769"}, {"name": "Painted Post", "state": "NY", "lat": "42.1634", "lng": "-77.0925"}, {"name": "Norwood", "state": "NY", "lat": "44.7481", "lng": "-74.9970"}, {"name": "South Hill", "state": "NY", "lat": "42.4113", "lng": "-76.4883"}, {"name": "Carle Place", "state": "NY", "lat": "40.7500", "lng": "-73.6122"}, {"name": "Felts Mills", "state": "NY", "lat": "44.0201", "lng": "-75.7595"}, {"name": "Scotchtown", "state": "NY", "lat": "41.4759", "lng": "-74.3682"}, {"name": "Livonia", "state": "NY", "lat": "42.8219", "lng": "-77.6688"}, {"name": "Brookville", "state": "NY", "lat": "40.8123", "lng": "-73.5696"}, {"name": "Moriches", "state": "NY", "lat": "40.8070", "lng": "-72.8235"}, {"name": "Lakewood", "state": "NY", "lat": "42.0991", "lng": "-79.3200"}, {"name": "Colonie", "state": "NY", "lat": "42.7199", "lng": "-73.8333"}, {"name": "Grandyle Village", "state": "NY", "lat": "42.9866", "lng": "-78.9524"}, {"name": "Granville", "state": "NY", "lat": "43.4082", "lng": "-73.2617"}, {"name": "Greenport West", "state": "NY", "lat": "41.1022", "lng": "-72.3759"}, {"name": "Saltaire", "state": "NY", "lat": "40.6388", "lng": "-73.1949"}, {"name": "Crystal Beach", "state": "NY", "lat": "42.8095", "lng": "-77.2582"}, {"name": "Scottsburg", "state": "NY", "lat": "42.6639", "lng": "-77.7124"}, {"name": "South Huntington", "state": "NY", "lat": "40.8225", "lng": "-73.3921"}, {"name": "Portville", "state": "NY", "lat": "42.0368", "lng": "-78.3373"}, {"name": "Haverstraw", "state": "NY", "lat": "41.1934", "lng": "-73.9520"}, {"name": "Town Line", "state": "NY", "lat": "42.8858", "lng": "-78.5610"}, {"name": "Retsof", "state": "NY", "lat": "42.8325", "lng": "-77.8757"}, {"name": "Salisbury Mills", "state": "NY", "lat": "41.4308", "lng": "-74.1098"}, {"name": "Hewlett", "state": "NY", "lat": "40.6422", "lng": "-73.6942"}, {"name": "Castleton-on-Hudson", "state": "NY", "lat": "42.5332", "lng": "-73.7493"}, {"name": "Port Washington North", "state": "NY", "lat": "40.8434", "lng": "-73.7014"}, {"name": "Upper Nyack", "state": "NY", "lat": "41.1143", "lng": "-73.9057"}, {"name": "Hammondsport", "state": "NY", "lat": "42.4082", "lng": "-77.2236"}, {"name": "Bronxville", "state": "NY", "lat": "40.9394", "lng": "-73.8263"}, {"name": "Patchogue", "state": "NY", "lat": "40.7621", "lng": "-73.0185"}, {"name": "Syracuse", "state": "NY", "lat": "43.0409", "lng": "-76.1438"}, {"name": "Shoreham", "state": "NY", "lat": "40.9571", "lng": "-72.9072"}, {"name": "Pine Bush", "state": "NY", "lat": "41.6094", "lng": "-74.2966"}, {"name": "Fort Ann", "state": "NY", "lat": "43.4146", "lng": "-73.4907"}, {"name": "Bedford Hills", "state": "NY", "lat": "41.2362", "lng": "-73.6959"}, {"name": "Rhinecliff", "state": "NY", "lat": "41.9223", "lng": "-73.9441"}, {"name": "Manhasset", "state": "NY", "lat": "40.7884", "lng": "-73.6943"}, {"name": "Newport", "state": "NY", "lat": "43.1859", "lng": "-75.0151"}, {"name": "Angola", "state": "NY", "lat": "42.6379", "lng": "-79.0295"}, {"name": "New Berlin", "state": "NY", "lat": "42.6240", "lng": "-75.3353"}, {"name": "Le Roy", "state": "NY", "lat": "42.9780", "lng": "-77.9899"}, {"name": "Albany", "state": "NY", "lat": "42.6664", "lng": "-73.7987"}, {"name": "Amagansett", "state": "NY", "lat": "40.9844", "lng": "-72.1326"}, {"name": "Sagaponack", "state": "NY", "lat": "40.9302", "lng": "-72.2726"}, {"name": "Croghan", "state": "NY", "lat": "43.8947", "lng": "-75.3914"}, {"name": "Deer Park", "state": "NY", "lat": "40.7623", "lng": "-73.3219"}, {"name": "Fort Montgomery", "state": "NY", "lat": "41.3401", "lng": "-73.9853"}, {"name": "Honeoye Falls", "state": "NY", "lat": "42.9557", "lng": "-77.5903"}, {"name": "Hannibal", "state": "NY", "lat": "43.3194", "lng": "-76.5778"}, {"name": "Remsenburg-Speonk", "state": "NY", "lat": "40.8169", "lng": "-72.7046"}, {"name": "Old Westbury", "state": "NY", "lat": "40.7866", "lng": "-73.5975"}, {"name": "North Merrick", "state": "NY", "lat": "40.6871", "lng": "-73.5615"}, {"name": "Earlville", "state": "NY", "lat": "42.7401", "lng": "-75.5436"}, {"name": "Cragsmoor", "state": "NY", "lat": "41.6655", "lng": "-74.3912"}, {"name": "Plattsburgh West", "state": "NY", "lat": "44.6837", "lng": "-73.5037"}, {"name": "Centereach", "state": "NY", "lat": "40.8696", "lng": "-73.0808"}, {"name": "Harrisville", "state": "NY", "lat": "44.1532", "lng": "-75.3211"}, {"name": "Nedrow", "state": "NY", "lat": "42.9779", "lng": "-76.1417"}, {"name": "East Quogue", "state": "NY", "lat": "40.8489", "lng": "-72.5783"}, {"name": "Cape Vincent", "state": "NY", "lat": "44.1263", "lng": "-76.3302"}, {"name": "North Gates", "state": "NY", "lat": "43.1718", "lng": "-77.7064"}, {"name": "Saranac Lake", "state": "NY", "lat": "44.3246", "lng": "-74.1315"}, {"name": "Bemus Point", "state": "NY", "lat": "42.1635", "lng": "-79.3895"}, {"name": "Geneva", "state": "NY", "lat": "42.8644", "lng": "-76.9827"}, {"name": "Holtsville", "state": "NY", "lat": "40.8123", "lng": "-73.0447"}, {"name": "Water Mill", "state": "NY", "lat": "40.9222", "lng": "-72.3532"}, {"name": "Balmville", "state": "NY", "lat": "41.5281", "lng": "-74.0233"}, {"name": "Stony Brook", "state": "NY", "lat": "40.9060", "lng": "-73.1278"}, {"name": "Valatie", "state": "NY", "lat": "42.4134", "lng": "-73.6778"}, {"name": "Dannemora", "state": "NY", "lat": "44.7197", "lng": "-73.7186"}, {"name": "Dering Harbor", "state": "NY", "lat": "41.0931", "lng": "-72.3417"}, {"name": "Poland", "state": "NY", "lat": "43.2260", "lng": "-75.0612"}, {"name": "Great Neck", "state": "NY", "lat": "40.8029", "lng": "-73.7332"}, {"name": "Watkins Glen", "state": "NY", "lat": "42.3801", "lng": "-76.8673"}, {"name": "Livonia Center", "state": "NY", "lat": "42.8210", "lng": "-77.6420"}, {"name": "Cattaraugus", "state": "NY", "lat": "42.3301", "lng": "-78.8673"}, {"name": "Wurtsboro", "state": "NY", "lat": "41.5761", "lng": "-74.4856"}, {"name": "Clark Mills", "state": "NY", "lat": "43.0895", "lng": "-75.3757"}, {"name": "Lyon Mountain", "state": "NY", "lat": "44.7249", "lng": "-73.8823"}, {"name": "Morristown", "state": "NY", "lat": "44.5842", "lng": "-75.6453"}, {"name": "Gilgo", "state": "NY", "lat": "40.6377", "lng": "-73.3788"}, {"name": "Port Jefferson Station", "state": "NY", "lat": "40.9260", "lng": "-73.0651"}, {"name": "Hammond", "state": "NY", "lat": "44.4464", "lng": "-75.6935"}, {"name": "Elmsford", "state": "NY", "lat": "41.0541", "lng": "-73.8143"}, {"name": "Schaghticoke", "state": "NY", "lat": "42.8988", "lng": "-73.5878"}, {"name": "Wanakah", "state": "NY", "lat": "42.7434", "lng": "-78.9028"}, {"name": "Mayfield", "state": "NY", "lat": "43.1028", "lng": "-74.2661"}, {"name": "Boonville", "state": "NY", "lat": "43.4813", "lng": "-75.3296"}, {"name": "Wappingers Falls", "state": "NY", "lat": "41.5984", "lng": "-73.9181"}, {"name": "Port Gibson", "state": "NY", "lat": "43.0334", "lng": "-77.1576"}, {"name": "East Nassau", "state": "NY", "lat": "42.5330", "lng": "-73.5085"}, {"name": "Montauk", "state": "NY", "lat": "41.0471", "lng": "-71.9449"}, {"name": "Bethpage", "state": "NY", "lat": "40.7495", "lng": "-73.4856"}, {"name": "Waddington", "state": "NY", "lat": "44.8591", "lng": "-75.1969"}, {"name": "Waterville", "state": "NY", "lat": "42.9306", "lng": "-75.3802"}, {"name": "Farmingville", "state": "NY", "lat": "40.8389", "lng": "-73.0401"}, {"name": "Islip Terrace", "state": "NY", "lat": "40.7506", "lng": "-73.1872"}, {"name": "Churchville", "state": "NY", "lat": "43.1036", "lng": "-77.8824"}, {"name": "Glen Park", "state": "NY", "lat": "44.0016", "lng": "-75.9548"}, {"name": "Mastic Beach", "state": "NY", "lat": "40.7679", "lng": "-72.8375"}, {"name": "Floral Park", "state": "NY", "lat": "40.7225", "lng": "-73.7029"}, {"name": "Greene", "state": "NY", "lat": "42.3297", "lng": "-75.7694"}, {"name": "Lindenhurst", "state": "NY", "lat": "40.6858", "lng": "-73.3709"}, {"name": "Peekskill", "state": "NY", "lat": "41.2883", "lng": "-73.9227"}, {"name": "Rhinebeck", "state": "NY", "lat": "41.9294", "lng": "-73.9081"}, {"name": "Cohoes", "state": "NY", "lat": "42.7732", "lng": "-73.7077"}, {"name": "Lincoln Park", "state": "NY", "lat": "41.9559", "lng": "-74.0016"}, {"name": "Lodi", "state": "NY", "lat": "42.6135", "lng": "-76.8225"}, {"name": "South Farmingdale", "state": "NY", "lat": "40.7175", "lng": "-73.4471"}, {"name": "Bridgehampton", "state": "NY", "lat": "40.9427", "lng": "-72.3101"}, {"name": "Lancaster", "state": "NY", "lat": "42.9007", "lng": "-78.6701"}, {"name": "Brewster", "state": "NY", "lat": "41.3969", "lng": "-73.6150"}, {"name": "Bellmore", "state": "NY", "lat": "40.6569", "lng": "-73.5285"}, {"name": "Whitehall", "state": "NY", "lat": "43.5549", "lng": "-73.4220"}, {"name": "Chappaqua", "state": "NY", "lat": "41.1601", "lng": "-73.7672"}, {"name": "Shortsville", "state": "NY", "lat": "42.9555", "lng": "-77.2228"}, {"name": "Montebello", "state": "NY", "lat": "41.1317", "lng": "-74.1134"}, {"name": "Accord", "state": "NY", "lat": "41.7972", "lng": "-74.2319"}, {"name": "North Babylon", "state": "NY", "lat": "40.7311", "lng": "-73.3251"}, {"name": "Camillus", "state": "NY", "lat": "43.0385", "lng": "-76.3103"}, {"name": "Vernon", "state": "NY", "lat": "43.0794", "lng": "-75.5387"}, {"name": "Watchtower", "state": "NY", "lat": "41.6371", "lng": "-74.2633"}, {"name": "North Valley Stream", "state": "NY", "lat": "40.6840", "lng": "-73.7077"}, {"name": "Dryden", "state": "NY", "lat": "42.4912", "lng": "-76.2996"}, {"name": "Pelham Manor", "state": "NY", "lat": "40.8930", "lng": "-73.8057"}, {"name": "Moravia", "state": "NY", "lat": "42.7120", "lng": "-76.4220"}, {"name": "Yorkville", "state": "NY", "lat": "43.1124", "lng": "-75.2739"}, {"name": "Fort Salonga", "state": "NY", "lat": "40.9060", "lng": "-73.2992"}, {"name": "West Hempstead", "state": "NY", "lat": "40.6959", "lng": "-73.6507"}, {"name": "Saddle Rock", "state": "NY", "lat": "40.7947", "lng": "-73.7494"}, {"name": "Fair Haven", "state": "NY", "lat": "43.3263", "lng": "-76.7044"}, {"name": "Stillwater", "state": "NY", "lat": "42.9468", "lng": "-73.6441"}, {"name": "Myers Corner", "state": "NY", "lat": "41.5947", "lng": "-73.8744"}, {"name": "Smithville Flats", "state": "NY", "lat": "42.3943", "lng": "-75.8105"}, {"name": "Davenport Center", "state": "NY", "lat": "42.4459", "lng": "-74.9088"}, {"name": "Hillburn", "state": "NY", "lat": "41.1264", "lng": "-74.1705"}, {"name": "Cherry Creek", "state": "NY", "lat": "42.2959", "lng": "-79.1008"}, {"name": "Calcium", "state": "NY", "lat": "44.0401", "lng": "-75.8468"}, {"name": "Bloomingburg", "state": "NY", "lat": "41.5519", "lng": "-74.4437"}, {"name": "Levittown", "state": "NY", "lat": "40.7241", "lng": "-73.5125"}, {"name": "Scotts Corners", "state": "NY", "lat": "41.1889", "lng": "-73.5561"}, {"name": "Congers", "state": "NY", "lat": "41.1484", "lng": "-73.9456"}, {"name": "Mexico", "state": "NY", "lat": "43.4652", "lng": "-76.2326"}, {"name": "Oswego", "state": "NY", "lat": "43.4516", "lng": "-76.5005"}, {"name": "Elmira", "state": "NY", "lat": "42.0938", "lng": "-76.8097"}, {"name": "Carmel Hamlet", "state": "NY", "lat": "41.4150", "lng": "-73.6855"}, {"name": "Schuylerville", "state": "NY", "lat": "43.1015", "lng": "-73.5808"}, {"name": "Asharoken", "state": "NY", "lat": "40.9380", "lng": "-73.3815"}, {"name": "Parish", "state": "NY", "lat": "43.4058", "lng": "-76.1263"}, {"name": "Ilion", "state": "NY", "lat": "43.0114", "lng": "-75.0396"}, {"name": "Thousand Island Park", "state": "NY", "lat": "44.2887", "lng": "-76.0259"}, {"name": "Windsor", "state": "NY", "lat": "42.0776", "lng": "-75.6405"}, {"name": "Dunkirk", "state": "NY", "lat": "42.4803", "lng": "-79.3323"}, {"name": "Melrose Park", "state": "NY", "lat": "42.9085", "lng": "-76.5263"}, {"name": "Cayuga Heights", "state": "NY", "lat": "42.4680", "lng": "-76.4874"}, {"name": "Jamesport", "state": "NY", "lat": "40.9546", "lng": "-72.5807"}, {"name": "Spencer", "state": "NY", "lat": "42.2149", "lng": "-76.4960"}, {"name": "Ellenville", "state": "NY", "lat": "41.7009", "lng": "-74.3609"}, {"name": "Fort Drum", "state": "NY", "lat": "44.0451", "lng": "-75.7847"}, {"name": "Yorktown Heights", "state": "NY", "lat": "41.2697", "lng": "-73.7755"}, {"name": "Middletown", "state": "NY", "lat": "41.4458", "lng": "-74.4228"}, {"name": "Orient", "state": "NY", "lat": "41.1425", "lng": "-72.2770"}, {"name": "North Haven", "state": "NY", "lat": "41.0230", "lng": "-72.3140"}, {"name": "Montgomery", "state": "NY", "lat": "41.5216", "lng": "-74.2388"}, {"name": "Pulaski", "state": "NY", "lat": "43.5653", "lng": "-76.1267"}, {"name": "Greenwich", "state": "NY", "lat": "43.0865", "lng": "-73.4967"}, {"name": "Franklinville", "state": "NY", "lat": "42.3347", "lng": "-78.4548"}, {"name": "Elma Center", "state": "NY", "lat": "42.8282", "lng": "-78.6343"}, {"name": "St. James", "state": "NY", "lat": "40.8761", "lng": "-73.1521"}, {"name": "Yaphank", "state": "NY", "lat": "40.8323", "lng": "-72.9233"}, {"name": "Lake Mohegan", "state": "NY", "lat": "41.3165", "lng": "-73.8475"}, {"name": "Altamont", "state": "NY", "lat": "42.7055", "lng": "-74.0340"}, {"name": "Cortland", "state": "NY", "lat": "42.6004", "lng": "-76.1784"}, {"name": "Stony Brook University", "state": "NY", "lat": "40.9099", "lng": "-73.1213"}, {"name": "Oakdale", "state": "NY", "lat": "40.7373", "lng": "-73.1345"}, {"name": "Beaver Dam Lake", "state": "NY", "lat": "41.4441", "lng": "-74.1178"}, {"name": "Scarsdale", "state": "NY", "lat": "40.9902", "lng": "-73.7773"}, {"name": "Port Ewen", "state": "NY", "lat": "41.9048", "lng": "-73.9776"}, {"name": "Rouses Point", "state": "NY", "lat": "44.9934", "lng": "-73.3633"}, {"name": "Angola on the Lake", "state": "NY", "lat": "42.6550", "lng": "-79.0523"}, {"name": "Plainview", "state": "NY", "lat": "40.7832", "lng": "-73.4732"}, {"name": "Pine Valley", "state": "NY", "lat": "42.2273", "lng": "-76.8469"}, {"name": "Skaneateles", "state": "NY", "lat": "42.9458", "lng": "-76.4282"}, {"name": "Hunt", "state": "NY", "lat": "42.5477", "lng": "-77.9910"}, {"name": "University Gardens", "state": "NY", "lat": "40.7751", "lng": "-73.7279"}, {"name": "Wading River", "state": "NY", "lat": "40.9464", "lng": "-72.8230"}, {"name": "Harriman", "state": "NY", "lat": "41.3088", "lng": "-74.1444"}, {"name": "Titusville", "state": "NY", "lat": "41.6663", "lng": "-73.8633"}, {"name": "Central Square", "state": "NY", "lat": "43.2860", "lng": "-76.1419"}, {"name": "Setauket-East Setauket", "state": "NY", "lat": "40.9307", "lng": "-73.1018"}, {"name": "Northeast Ithaca", "state": "NY", "lat": "42.4703", "lng": "-76.4623"}, {"name": "Lyndonville", "state": "NY", "lat": "43.3213", "lng": "-78.3891"}, {"name": "Millerton", "state": "NY", "lat": "41.9533", "lng": "-73.5112"}, {"name": "Redwood", "state": "NY", "lat": "44.3011", "lng": "-75.8063"}, {"name": "Coram", "state": "NY", "lat": "40.8813", "lng": "-73.0059"}, {"name": "West Bay Shore", "state": "NY", "lat": "40.7080", "lng": "-73.2719"}, {"name": "Garden City South", "state": "NY", "lat": "40.7121", "lng": "-73.6605"}, {"name": "Lynbrook", "state": "NY", "lat": "40.6579", "lng": "-73.6742"}, {"name": "Rosendale Hamlet", "state": "NY", "lat": "41.8504", "lng": "-74.0738"}, {"name": "Bath", "state": "NY", "lat": "42.3363", "lng": "-77.3180"}, {"name": "Plandome", "state": "NY", "lat": "40.8069", "lng": "-73.6996"}, {"name": "Salisbury", "state": "NY", "lat": "40.7454", "lng": "-73.5604"}, {"name": "Amsterdam", "state": "NY", "lat": "42.9420", "lng": "-74.1907"}, {"name": "Valley Falls", "state": "NY", "lat": "42.9006", "lng": "-73.5627"}, {"name": "Bolton Landing", "state": "NY", "lat": "43.5614", "lng": "-73.6588"}, {"name": "Fort Johnson", "state": "NY", "lat": "42.9591", "lng": "-74.2381"}, {"name": "East Randolph", "state": "NY", "lat": "42.1692", "lng": "-78.9521"}, {"name": "Nesconset", "state": "NY", "lat": "40.8467", "lng": "-73.1522"}, {"name": "Eatons Neck", "state": "NY", "lat": "40.9328", "lng": "-73.3951"}, {"name": "Olean", "state": "NY", "lat": "42.0819", "lng": "-78.4321"}, {"name": "Roslyn Heights", "state": "NY", "lat": "40.7787", "lng": "-73.6396"}, {"name": "Pelham", "state": "NY", "lat": "40.9117", "lng": "-73.8075"}, {"name": "Bay Park", "state": "NY", "lat": "40.6302", "lng": "-73.6670"}, {"name": "West Point", "state": "NY", "lat": "41.3646", "lng": "-74.0135"}, {"name": "Chestertown", "state": "NY", "lat": "43.6461", "lng": "-73.7945"}, {"name": "Zena", "state": "NY", "lat": "42.0209", "lng": "-74.0855"}, {"name": "Blue Point", "state": "NY", "lat": "40.7518", "lng": "-73.0352"}, {"name": "Fishers Landing", "state": "NY", "lat": "44.2743", "lng": "-76.0069"}, {"name": "West Hurley", "state": "NY", "lat": "42.0083", "lng": "-74.1121"}, {"name": "Pawling", "state": "NY", "lat": "41.5635", "lng": "-73.5989"}, {"name": "Horseheads North", "state": "NY", "lat": "42.1928", "lng": "-76.8078"}, {"name": "Coopers Plains", "state": "NY", "lat": "42.1794", "lng": "-77.1376"}, {"name": "Walton", "state": "NY", "lat": "42.1688", "lng": "-75.1304"}, {"name": "Redford", "state": "NY", "lat": "44.6063", "lng": "-73.8114"}, {"name": "Washington Heights", "state": "NY", "lat": "41.4692", "lng": "-74.4179"}, {"name": "Tivoli", "state": "NY", "lat": "42.0587", "lng": "-73.9119"}, {"name": "Endwell", "state": "NY", "lat": "42.1185", "lng": "-76.0219"}, {"name": "East Syracuse", "state": "NY", "lat": "43.0637", "lng": "-76.0697"}, {"name": "North Great River", "state": "NY", "lat": "40.7599", "lng": "-73.1678"}, {"name": "Cuylerville", "state": "NY", "lat": "42.7777", "lng": "-77.8738"}, {"name": "Lake Carmel", "state": "NY", "lat": "41.4612", "lng": "-73.6681"}, {"name": "Copiague", "state": "NY", "lat": "40.6728", "lng": "-73.3932"}, {"name": "Sackets Harbor", "state": "NY", "lat": "43.9418", "lng": "-76.1182"}, {"name": "West Glens Falls", "state": "NY", "lat": "43.3019", "lng": "-73.6873"}, {"name": "Locust Valley", "state": "NY", "lat": "40.8782", "lng": "-73.5884"}, {"name": "Haviland", "state": "NY", "lat": "41.7681", "lng": "-73.9007"}, {"name": "South Fallsburg", "state": "NY", "lat": "41.7218", "lng": "-74.6350"}, {"name": "Old Forge", "state": "NY", "lat": "43.7060", "lng": "-74.9722"}, {"name": "Great River", "state": "NY", "lat": "40.7164", "lng": "-73.1603"}, {"name": "Falconer", "state": "NY", "lat": "42.1190", "lng": "-79.1973"}, {"name": "Ardsley", "state": "NY", "lat": "41.0135", "lng": "-73.8395"}, {"name": "Oriskany", "state": "NY", "lat": "43.1569", "lng": "-75.3336"}, {"name": "Glen Cove", "state": "NY", "lat": "40.8709", "lng": "-73.6287"}, {"name": "Old Field", "state": "NY", "lat": "40.9614", "lng": "-73.1324"}, {"name": "Saugerties", "state": "NY", "lat": "42.0750", "lng": "-73.9484"}, {"name": "Corinth", "state": "NY", "lat": "43.2456", "lng": "-73.8310"}, {"name": "Dix Hills", "state": "NY", "lat": "40.8035", "lng": "-73.3370"}, {"name": "Keuka Park", "state": "NY", "lat": "42.6123", "lng": "-77.0916"}, {"name": "Stamford", "state": "NY", "lat": "42.4093", "lng": "-74.6171"}, {"name": "East Williston", "state": "NY", "lat": "40.7608", "lng": "-73.6336"}, {"name": "Long Beach", "state": "NY", "lat": "40.5887", "lng": "-73.6660"}, {"name": "Antwerp", "state": "NY", "lat": "44.1993", "lng": "-75.6075"}, {"name": "Elmont", "state": "NY", "lat": "40.7033", "lng": "-73.7078"}, {"name": "Rome", "state": "NY", "lat": "43.2260", "lng": "-75.4910"}, {"name": "Center Moriches", "state": "NY", "lat": "40.8015", "lng": "-72.7960"}, {"name": "Wolcott", "state": "NY", "lat": "43.2225", "lng": "-76.8135"}, {"name": "Saddle Rock Estates", "state": "NY", "lat": "40.7939", "lng": "-73.7414"}, {"name": "East Northport", "state": "NY", "lat": "40.8792", "lng": "-73.3232"}, {"name": "East Hampton North", "state": "NY", "lat": "40.9725", "lng": "-72.1889"}, {"name": "Niverville", "state": "NY", "lat": "42.4484", "lng": "-73.6496"}, {"name": "Herkimer", "state": "NY", "lat": "43.0282", "lng": "-74.9928"}, {"name": "Franklin", "state": "NY", "lat": "42.3416", "lng": "-75.1659"}, {"name": "Seaford", "state": "NY", "lat": "40.6678", "lng": "-73.4922"}, {"name": "Fairmount", "state": "NY", "lat": "43.0414", "lng": "-76.2485"}, {"name": "Lowville", "state": "NY", "lat": "43.7867", "lng": "-75.4874"}, {"name": "Peach Lake", "state": "NY", "lat": "41.3682", "lng": "-73.5778"}, {"name": "Jamestown West", "state": "NY", "lat": "42.0886", "lng": "-79.2811"}, {"name": "Munsons Corners", "state": "NY", "lat": "42.5761", "lng": "-76.2053"}, {"name": "Athens", "state": "NY", "lat": "42.2695", "lng": "-73.8104"}, {"name": "Clintondale", "state": "NY", "lat": "41.6927", "lng": "-74.0458"}, {"name": "DeRuyter", "state": "NY", "lat": "42.7587", "lng": "-75.8867"}, {"name": "Dover Plains", "state": "NY", "lat": "41.7395", "lng": "-73.5734"}, {"name": "Mill Neck", "state": "NY", "lat": "40.8839", "lng": "-73.5582"}, {"name": "Remsen", "state": "NY", "lat": "43.3282", "lng": "-75.1870"}, {"name": "Seneca Knolls", "state": "NY", "lat": "43.1200", "lng": "-76.2874"}, {"name": "Greenport", "state": "NY", "lat": "41.1031", "lng": "-72.3669"}, {"name": "Glens Falls", "state": "NY", "lat": "43.3109", "lng": "-73.6459"}, {"name": "Ballston Spa", "state": "NY", "lat": "43.0068", "lng": "-73.8524"}, {"name": "Lyons Falls", "state": "NY", "lat": "43.6171", "lng": "-75.3619"}, {"name": "Van Etten", "state": "NY", "lat": "42.1975", "lng": "-76.5542"}, {"name": "Roscoe", "state": "NY", "lat": "41.9403", "lng": "-74.9132"}, {"name": "Hewlett Neck", "state": "NY", "lat": "40.6247", "lng": "-73.6981"}, {"name": "Richville", "state": "NY", "lat": "44.4151", "lng": "-75.3924"}, {"name": "Webster", "state": "NY", "lat": "43.2150", "lng": "-77.4225"}, {"name": "Fulton", "state": "NY", "lat": "43.3171", "lng": "-76.4162"}, {"name": "Smyrna", "state": "NY", "lat": "42.6869", "lng": "-75.5688"}, {"name": "Blodgett Mills", "state": "NY", "lat": "42.5665", "lng": "-76.1329"}, {"name": "Sandy Creek", "state": "NY", "lat": "43.6434", "lng": "-76.0863"}, {"name": "Ossining", "state": "NY", "lat": "41.1609", "lng": "-73.8712"}, {"name": "Sloan", "state": "NY", "lat": "42.8921", "lng": "-78.7918"}, {"name": "Conesus Lake", "state": "NY", "lat": "42.7756", "lng": "-77.7135"}, {"name": "Thomaston", "state": "NY", "lat": "40.7875", "lng": "-73.7153"}, {"name": "Laurel Hollow", "state": "NY", "lat": "40.8541", "lng": "-73.4755"}, {"name": "East Shoreham", "state": "NY", "lat": "40.9460", "lng": "-72.8812"}, {"name": "Liverpool", "state": "NY", "lat": "43.1061", "lng": "-76.2093"}, {"name": "Wadsworth", "state": "NY", "lat": "42.8214", "lng": "-77.8939"}, {"name": "Hemlock", "state": "NY", "lat": "42.7937", "lng": "-77.6073"}, {"name": "Crown Heights", "state": "NY", "lat": "41.6416", "lng": "-73.9287"}, {"name": "Nunda", "state": "NY", "lat": "42.5800", "lng": "-77.9379"}, {"name": "Deposit", "state": "NY", "lat": "42.0634", "lng": "-75.4224"}, {"name": "Vails Gate", "state": "NY", "lat": "41.4588", "lng": "-74.0534"}, {"name": "Red Oaks Mill", "state": "NY", "lat": "41.6522", "lng": "-73.8746"}, {"name": "North Amityville", "state": "NY", "lat": "40.7005", "lng": "-73.4118"}, {"name": "North Collins", "state": "NY", "lat": "42.5948", "lng": "-78.9369"}, {"name": "West Haverstraw", "state": "NY", "lat": "41.2063", "lng": "-73.9883"}, {"name": "Baldwin Harbor", "state": "NY", "lat": "40.6296", "lng": "-73.6025"}, {"name": "Meridian", "state": "NY", "lat": "43.1630", "lng": "-76.5382"}, {"name": "East Glenville", "state": "NY", "lat": "42.8614", "lng": "-73.9206"}, {"name": "Akron", "state": "NY", "lat": "43.0179", "lng": "-78.4978"}, {"name": "Hancock", "state": "NY", "lat": "41.9527", "lng": "-75.2837"}, {"name": "Sherburne", "state": "NY", "lat": "42.6807", "lng": "-75.4964"}, {"name": "North Creek", "state": "NY", "lat": "43.6923", "lng": "-73.9835"}, {"name": "Hauppauge", "state": "NY", "lat": "40.8217", "lng": "-73.2119"}, {"name": "Barnum Island", "state": "NY", "lat": "40.6050", "lng": "-73.6437"}, {"name": "Springwater Hamlet", "state": "NY", "lat": "42.6350", "lng": "-77.5964"}, {"name": "Fairport", "state": "NY", "lat": "43.0990", "lng": "-77.4427"}, {"name": "Claverack-Red Mills", "state": "NY", "lat": "42.2263", "lng": "-73.7269"}, {"name": "Depauville", "state": "NY", "lat": "44.1425", "lng": "-76.0452"}, {"name": "Fleischmanns", "state": "NY", "lat": "42.1552", "lng": "-74.5335"}, {"name": "New Suffolk", "state": "NY", "lat": "40.9961", "lng": "-72.4767"}, {"name": "Plainedge", "state": "NY", "lat": "40.7240", "lng": "-73.4770"}, {"name": "Flower Hill", "state": "NY", "lat": "40.8075", "lng": "-73.6755"}, {"name": "Eastport", "state": "NY", "lat": "40.8407", "lng": "-72.7251"}, {"name": "Castile", "state": "NY", "lat": "42.6312", "lng": "-78.0525"}, {"name": "Cutchogue", "state": "NY", "lat": "41.0167", "lng": "-72.4872"}, {"name": "Pierrepont Manor", "state": "NY", "lat": "43.7374", "lng": "-76.0595"}, {"name": "Altmar", "state": "NY", "lat": "43.5111", "lng": "-76.0037"}, {"name": "Sparkill", "state": "NY", "lat": "41.0289", "lng": "-73.9333"}, {"name": "Canajoharie", "state": "NY", "lat": "42.8998", "lng": "-74.5700"}, {"name": "Au Sable Forks", "state": "NY", "lat": "44.4507", "lng": "-73.6738"}, {"name": "Wampsville", "state": "NY", "lat": "43.0772", "lng": "-75.7097"}, {"name": "Piffard", "state": "NY", "lat": "42.8319", "lng": "-77.8584"}, {"name": "Arkport", "state": "NY", "lat": "42.3926", "lng": "-77.6955"}, {"name": "Three Mile Bay", "state": "NY", "lat": "44.0829", "lng": "-76.1983"}, {"name": "Middle Island", "state": "NY", "lat": "40.8857", "lng": "-72.9454"}, {"name": "Valhalla", "state": "NY", "lat": "41.0775", "lng": "-73.7780"}, {"name": "Fillmore", "state": "NY", "lat": "42.4669", "lng": "-78.1107"}, {"name": "Savona", "state": "NY", "lat": "42.2830", "lng": "-77.2238"}, {"name": "Alfred", "state": "NY", "lat": "42.2541", "lng": "-77.7897"}, {"name": "Glens Falls North", "state": "NY", "lat": "43.3350", "lng": "-73.6825"}, {"name": "Fort Covington Hamlet", "state": "NY", "lat": "44.9761", "lng": "-74.5097"}, {"name": "Corning", "state": "NY", "lat": "42.1470", "lng": "-77.0561"}, {"name": "Shirley", "state": "NY", "lat": "40.7949", "lng": "-72.8743"}, {"name": "Schroon Lake", "state": "NY", "lat": "43.8345", "lng": "-73.7647"}, {"name": "Youngstown", "state": "NY", "lat": "43.2486", "lng": "-79.0444"}, {"name": "Mineville", "state": "NY", "lat": "44.0933", "lng": "-73.5246"}, {"name": "Brinckerhoff", "state": "NY", "lat": "41.5511", "lng": "-73.8697"}, {"name": "Spring Valley", "state": "NY", "lat": "41.1151", "lng": "-74.0486"}, {"name": "Kenmore", "state": "NY", "lat": "42.9646", "lng": "-78.8713"}, {"name": "Theresa", "state": "NY", "lat": "44.2155", "lng": "-75.7968"}, {"name": "Wellsville", "state": "NY", "lat": "42.1207", "lng": "-77.9458"}, {"name": "Dobbs Ferry", "state": "NY", "lat": "41.0127", "lng": "-73.8698"}, {"name": "Elbridge", "state": "NY", "lat": "43.0367", "lng": "-76.4432"}, {"name": "Marathon", "state": "NY", "lat": "42.4439", "lng": "-76.0351"}, {"name": "Warsaw", "state": "NY", "lat": "42.7429", "lng": "-78.1414"}, {"name": "Garden City Park", "state": "NY", "lat": "40.7436", "lng": "-73.6639"}, {"name": "Clifton Springs", "state": "NY", "lat": "42.9608", "lng": "-77.1348"}, {"name": "Sherman", "state": "NY", "lat": "42.1587", "lng": "-79.5948"}, {"name": "Queens", "state": "NY", "lat": "40.7498", "lng": "-73.7976"}, {"name": "South Corning", "state": "NY", "lat": "42.1262", "lng": "-77.0356"}, {"name": "Richfield Springs", "state": "NY", "lat": "42.8536", "lng": "-74.9862"}, {"name": "Gasport", "state": "NY", "lat": "43.1950", "lng": "-78.5764"}, {"name": "Cooperstown", "state": "NY", "lat": "42.6996", "lng": "-74.9300"}, {"name": "New Paltz", "state": "NY", "lat": "41.7495", "lng": "-74.0809"}, {"name": "Belle Terre", "state": "NY", "lat": "40.9607", "lng": "-73.0672"}, {"name": "East Marion", "state": "NY", "lat": "41.1291", "lng": "-72.3420"}, {"name": "Madison", "state": "NY", "lat": "42.8977", "lng": "-75.5123"}, {"name": "Leicester", "state": "NY", "lat": "42.7709", "lng": "-77.8969"}, {"name": "Troy", "state": "NY", "lat": "42.7354", "lng": "-73.6751"}, {"name": "Croton-on-Hudson", "state": "NY", "lat": "41.2005", "lng": "-73.9002"}, {"name": "West End", "state": "NY", "lat": "42.4667", "lng": "-75.0969"}, {"name": "Lansing", "state": "NY", "lat": "42.4901", "lng": "-76.4856"}, {"name": "Firthcliffe", "state": "NY", "lat": "41.4409", "lng": "-74.0353"}, {"name": "Otisville", "state": "NY", "lat": "41.4714", "lng": "-74.5397"}, {"name": "University at Buffalo", "state": "NY", "lat": "43.0025", "lng": "-78.7887"}, {"name": "North Massapequa", "state": "NY", "lat": "40.7031", "lng": "-73.4679"}, {"name": "Fairview", "state": "NY", "lat": "41.7320", "lng": "-73.9139"}, {"name": "Crompond", "state": "NY", "lat": "41.2908", "lng": "-73.8357"}, {"name": "Silver Springs", "state": "NY", "lat": "42.6605", "lng": "-78.0855"}, {"name": "Staatsburg", "state": "NY", "lat": "41.8554", "lng": "-73.9255"}, {"name": "Trumansburg", "state": "NY", "lat": "42.5410", "lng": "-76.6618"}, {"name": "New Hempstead", "state": "NY", "lat": "41.1488", "lng": "-74.0485"}, {"name": "Kings Point", "state": "NY", "lat": "40.8162", "lng": "-73.7407"}, {"name": "Lorenz Park", "state": "NY", "lat": "42.2669", "lng": "-73.7700"}, {"name": "Little Valley", "state": "NY", "lat": "42.2494", "lng": "-78.7988"}, {"name": "Mount Kisco", "state": "NY", "lat": "41.2018", "lng": "-73.7282"}, {"name": "Hall", "state": "NY", "lat": "42.7965", "lng": "-77.0679"}, {"name": "Dexter", "state": "NY", "lat": "44.0111", "lng": "-76.0425"}, {"name": "Lake Grove", "state": "NY", "lat": "40.8586", "lng": "-73.1168"}, {"name": "North Wantagh", "state": "NY", "lat": "40.6983", "lng": "-73.5086"}, {"name": "Greenvale", "state": "NY", "lat": "40.8118", "lng": "-73.6262"}, {"name": "Highland Falls", "state": "NY", "lat": "41.3644", "lng": "-73.9683"}, {"name": "Verplanck", "state": "NY", "lat": "41.2558", "lng": "-73.9585"}, {"name": "Commack", "state": "NY", "lat": "40.8443", "lng": "-73.2834"}, {"name": "Clayton", "state": "NY", "lat": "44.2370", "lng": "-76.0826"}, {"name": "Waterford", "state": "NY", "lat": "42.7917", "lng": "-73.6789"}, {"name": "Canton", "state": "NY", "lat": "44.6000", "lng": "-75.1703"}, {"name": "St. Johnsville", "state": "NY", "lat": "43.0010", "lng": "-74.6781"}, {"name": "Jericho", "state": "NY", "lat": "40.7875", "lng": "-73.5416"}, {"name": "Maybrook", "state": "NY", "lat": "41.4881", "lng": "-74.2131"}, {"name": "Avon", "state": "NY", "lat": "42.9129", "lng": "-77.7464"}, {"name": "Winthrop", "state": "NY", "lat": "44.8006", "lng": "-74.8016"}, {"name": "Lisle", "state": "NY", "lat": "42.3491", "lng": "-76.0055"}, {"name": "Central Bridge", "state": "NY", "lat": "42.7068", "lng": "-74.3473"}, {"name": "Westvale", "state": "NY", "lat": "43.0400", "lng": "-76.2177"}, {"name": "Fultonville", "state": "NY", "lat": "42.9463", "lng": "-74.3704"}, {"name": "Cornwall-on-Hudson", "state": "NY", "lat": "41.4369", "lng": "-74.0145"}, {"name": "North Lindenhurst", "state": "NY", "lat": "40.7072", "lng": "-73.3859"}, {"name": "Millport", "state": "NY", "lat": "42.2681", "lng": "-76.8363"}, {"name": "Valley Stream", "state": "NY", "lat": "40.6647", "lng": "-73.7044"}, {"name": "Calverton", "state": "NY", "lat": "40.9163", "lng": "-72.7645"}, {"name": "North Bellmore", "state": "NY", "lat": "40.6904", "lng": "-73.5390"}, {"name": "Hicksville", "state": "NY", "lat": "40.7637", "lng": "-73.5245"}, {"name": "Lakeville", "state": "NY", "lat": "42.8367", "lng": "-77.7033"}, {"name": "Chestnut Ridge", "state": "NY", "lat": "41.0829", "lng": "-74.0551"}, {"name": "North Bay Shore", "state": "NY", "lat": "40.7601", "lng": "-73.2618"}, {"name": "Forest Home", "state": "NY", "lat": "42.4530", "lng": "-76.4702"}, {"name": "Old Bethpage", "state": "NY", "lat": "40.7557", "lng": "-73.4544"}, {"name": "Philmont", "state": "NY", "lat": "42.2477", "lng": "-73.6463"}, {"name": "Roslyn Estates", "state": "NY", "lat": "40.7937", "lng": "-73.6611"}, {"name": "Cedarhurst", "state": "NY", "lat": "40.6252", "lng": "-73.7278"}, {"name": "Oceanside", "state": "NY", "lat": "40.6328", "lng": "-73.6363"}, {"name": "Rye Brook", "state": "NY", "lat": "41.0303", "lng": "-73.6865"}, {"name": "Copake Hamlet", "state": "NY", "lat": "42.1041", "lng": "-73.5494"}, {"name": "Canisteo", "state": "NY", "lat": "42.2703", "lng": "-77.6056"}, {"name": "Bronx", "state": "NY", "lat": "40.8501", "lng": "-73.8662"}, {"name": "Cobleskill", "state": "NY", "lat": "42.6786", "lng": "-74.4860"}, {"name": "Mohawk", "state": "NY", "lat": "43.0104", "lng": "-75.0075"}, {"name": "Woodmere", "state": "NY", "lat": "40.6374", "lng": "-73.7219"}, {"name": "South Hempstead", "state": "NY", "lat": "40.6814", "lng": "-73.6233"}, {"name": "Uniondale", "state": "NY", "lat": "40.7176", "lng": "-73.5947"}, {"name": "Honeoye", "state": "NY", "lat": "42.7902", "lng": "-77.5147"}, {"name": "Merritt Park", "state": "NY", "lat": "41.5385", "lng": "-73.8724"}, {"name": "Cove Neck", "state": "NY", "lat": "40.8840", "lng": "-73.5002"}, {"name": "Gang Mills", "state": "NY", "lat": "42.1534", "lng": "-77.1230"}, {"name": "Massapequa Park", "state": "NY", "lat": "40.6817", "lng": "-73.4496"}, {"name": "Tuckahoe", "state": "NY", "lat": "40.9530", "lng": "-73.8230"}, {"name": "Black River", "state": "NY", "lat": "44.0089", "lng": "-75.7966"}, {"name": "Harrison", "state": "NY", "lat": "41.0233", "lng": "-73.7192"}, {"name": "Baldwin", "state": "NY", "lat": "40.6634", "lng": "-73.6104"}, {"name": "Sands Point", "state": "NY", "lat": "40.8531", "lng": "-73.7039"}, {"name": "Lake Ronkonkoma", "state": "NY", "lat": "40.8308", "lng": "-73.1112"}, {"name": "Loch Sheldrake", "state": "NY", "lat": "41.7733", "lng": "-74.6558"}, {"name": "East Meadow", "state": "NY", "lat": "40.7197", "lng": "-73.5604"}, {"name": "Phelps", "state": "NY", "lat": "42.9580", "lng": "-77.0622"}, {"name": "Freedom Plains", "state": "NY", "lat": "41.6695", "lng": "-73.7974"}, {"name": "Cayuga", "state": "NY", "lat": "42.9191", "lng": "-76.7265"}, {"name": "Delhi", "state": "NY", "lat": "42.2786", "lng": "-74.9150"}, {"name": "Adams", "state": "NY", "lat": "43.8102", "lng": "-76.0230"}, {"name": "Clayville", "state": "NY", "lat": "42.9747", "lng": "-75.2490"}, {"name": "Manhattan", "state": "NY", "lat": "40.7834", "lng": "-73.9662"}, {"name": "Farmingdale", "state": "NY", "lat": "40.7328", "lng": "-73.4465"}, {"name": "Marlboro", "state": "NY", "lat": "41.6028", "lng": "-73.9774"}, {"name": "Owego", "state": "NY", "lat": "42.1044", "lng": "-76.2628"}, {"name": "Sand Ridge", "state": "NY", "lat": "43.2559", "lng": "-76.2317"}, {"name": "Lockport", "state": "NY", "lat": "43.1698", "lng": "-78.6956"}, {"name": "Blasdell", "state": "NY", "lat": "42.7965", "lng": "-78.8325"}, {"name": "Point Lookout", "state": "NY", "lat": "40.5903", "lng": "-73.5795"}, {"name": "Muttontown", "state": "NY", "lat": "40.8254", "lng": "-73.5363"}, {"name": "Dresden", "state": "NY", "lat": "42.6836", "lng": "-76.9571"}, {"name": "Great Bend", "state": "NY", "lat": "44.0197", "lng": "-75.7075"}, {"name": "Binghamton", "state": "NY", "lat": "42.1014", "lng": "-75.9093"}, {"name": "Star Lake", "state": "NY", "lat": "44.1613", "lng": "-75.0363"}, {"name": "North Lynbrook", "state": "NY", "lat": "40.6685", "lng": "-73.6737"}, {"name": "Glen Aubrey", "state": "NY", "lat": "42.2623", "lng": "-76.0002"}, {"name": "Heritage Hills", "state": "NY", "lat": "41.3398", "lng": "-73.7016"}, {"name": "Red Creek", "state": "NY", "lat": "43.2488", "lng": "-76.7225"}, {"name": "Hudson Falls", "state": "NY", "lat": "43.3043", "lng": "-73.5817"}, {"name": "Cambridge", "state": "NY", "lat": "43.0279", "lng": "-73.3813"}, {"name": "Wantagh", "state": "NY", "lat": "40.6686", "lng": "-73.5104"}, {"name": "Lakeview", "state": "NY", "lat": "40.6775", "lng": "-73.6493"}, {"name": "Turin", "state": "NY", "lat": "43.6292", "lng": "-75.4107"}, {"name": "Bergen", "state": "NY", "lat": "43.0825", "lng": "-77.9425"}, {"name": "Port Byron", "state": "NY", "lat": "43.0366", "lng": "-76.6263"}, {"name": "Philadelphia", "state": "NY", "lat": "44.1540", "lng": "-75.7098"}, {"name": "Cato", "state": "NY", "lat": "43.1680", "lng": "-76.5728"}, {"name": "Peconic", "state": "NY", "lat": "41.0381", "lng": "-72.4608"}, {"name": "Kinderhook", "state": "NY", "lat": "42.3944", "lng": "-73.7038"}, {"name": "Massapequa", "state": "NY", "lat": "40.6676", "lng": "-73.4706"}, {"name": "Warwick", "state": "NY", "lat": "41.2551", "lng": "-74.3550"}, {"name": "Sleepy Hollow", "state": "NY", "lat": "41.0936", "lng": "-73.8724"}, {"name": "Chadwicks", "state": "NY", "lat": "43.0291", "lng": "-75.2710"}, {"name": "North New Hyde Park", "state": "NY", "lat": "40.7460", "lng": "-73.6876"}, {"name": "Elwood", "state": "NY", "lat": "40.8462", "lng": "-73.3389"}, {"name": "Gowanda", "state": "NY", "lat": "42.4612", "lng": "-78.9339"}, {"name": "Stewart Manor", "state": "NY", "lat": "40.7203", "lng": "-73.6853"}, {"name": "Rapids", "state": "NY", "lat": "43.0976", "lng": "-78.6440"}, {"name": "Angelica", "state": "NY", "lat": "42.3055", "lng": "-78.0206"}, {"name": "Mattydale", "state": "NY", "lat": "43.0992", "lng": "-76.1388"}, {"name": "North Rose", "state": "NY", "lat": "43.1872", "lng": "-76.8864"}, {"name": "Babylon", "state": "NY", "lat": "40.6949", "lng": "-73.3270"}, {"name": "Hawthorne", "state": "NY", "lat": "41.1035", "lng": "-73.7968"}, {"name": "Lido Beach", "state": "NY", "lat": "40.5904", "lng": "-73.6121"}, {"name": "Brasher Falls", "state": "NY", "lat": "44.8096", "lng": "-74.7789"}, {"name": "West Islip", "state": "NY", "lat": "40.7097", "lng": "-73.2971"}, {"name": "Buffalo", "state": "NY", "lat": "42.9017", "lng": "-78.8487"}, {"name": "Pultneyville", "state": "NY", "lat": "43.2734", "lng": "-77.1824"}, {"name": "Interlaken", "state": "NY", "lat": "42.6189", "lng": "-76.7251"}, {"name": "Sloatsburg", "state": "NY", "lat": "41.1620", "lng": "-74.1902"}, {"name": "Kerhonkson", "state": "NY", "lat": "41.7798", "lng": "-74.2956"}, {"name": "Celoron", "state": "NY", "lat": "42.1053", "lng": "-79.2777"}, {"name": "Sound Beach", "state": "NY", "lat": "40.9578", "lng": "-72.9726"}, {"name": "Wyoming", "state": "NY", "lat": "42.8240", "lng": "-78.0842"}, {"name": "Mineola", "state": "NY", "lat": "40.7469", "lng": "-73.6392"}, {"name": "Waverly", "state": "NY", "lat": "42.0119", "lng": "-76.5406"}, {"name": "Whitesboro", "state": "NY", "lat": "43.1240", "lng": "-75.2966"}, {"name": "Atlantic Beach", "state": "NY", "lat": "40.5894", "lng": "-73.7296"}, {"name": "Canaseraga", "state": "NY", "lat": "42.4618", "lng": "-77.7773"}, {"name": "Bridgeport", "state": "NY", "lat": "43.1545", "lng": "-75.9735"}, {"name": "Herrings", "state": "NY", "lat": "44.0223", "lng": "-75.6529"}, {"name": "Coxsackie", "state": "NY", "lat": "42.3561", "lng": "-73.8080"}, {"name": "Cortland West", "state": "NY", "lat": "42.5942", "lng": "-76.2258"}, {"name": "West Elmira", "state": "NY", "lat": "42.0879", "lng": "-76.8472"}, {"name": "Port Washington", "state": "NY", "lat": "40.8267", "lng": "-73.6764"}, {"name": "Oxbow", "state": "NY", "lat": "44.2871", "lng": "-75.6228"}, {"name": "Viola", "state": "NY", "lat": "41.1287", "lng": "-74.0855"}, {"name": "Bellport", "state": "NY", "lat": "40.7547", "lng": "-72.9423"}, {"name": "Natural Bridge", "state": "NY", "lat": "44.0718", "lng": "-75.4999"}, {"name": "Oneida Castle", "state": "NY", "lat": "43.0814", "lng": "-75.6331"}, {"name": "Galeville", "state": "NY", "lat": "43.0889", "lng": "-76.1815"}, {"name": "Downsville", "state": "NY", "lat": "42.0819", "lng": "-74.9980"}, {"name": "Airmont", "state": "NY", "lat": "41.0992", "lng": "-74.0990"}, {"name": "Speculator", "state": "NY", "lat": "43.5944", "lng": "-74.3822"}, {"name": "Hewlett Bay Park", "state": "NY", "lat": "40.6346", "lng": "-73.6953"}, {"name": "Norwich", "state": "NY", "lat": "42.5333", "lng": "-75.5227"}, {"name": "Wheatley Heights", "state": "NY", "lat": "40.7624", "lng": "-73.3705"}, {"name": "York Hamlet", "state": "NY", "lat": "42.8696", "lng": "-77.8872"}, {"name": "Greenlawn", "state": "NY", "lat": "40.8630", "lng": "-73.3642"}, {"name": "Woodbury", "state": "NY", "lat": "41.3284", "lng": "-74.1004"}, {"name": "Northville", "state": "NY", "lat": "43.2239", "lng": "-74.1702"}, {"name": "Hampton Manor", "state": "NY", "lat": "42.6215", "lng": "-73.7279"}, {"name": "Armonk", "state": "NY", "lat": "41.1320", "lng": "-73.7137"}, {"name": "East Ithaca", "state": "NY", "lat": "42.4263", "lng": "-76.4627"}, {"name": "Beacon", "state": "NY", "lat": "41.5036", "lng": "-73.9655"}, {"name": "South Lockport", "state": "NY", "lat": "43.1377", "lng": "-78.6864"}, {"name": "Orange Lake", "state": "NY", "lat": "41.5319", "lng": "-74.0936"}, {"name": "La Fargeville", "state": "NY", "lat": "44.1960", "lng": "-75.9628"}, {"name": "Selden", "state": "NY", "lat": "40.8699", "lng": "-73.0462"}, {"name": "Silver Creek", "state": "NY", "lat": "42.5426", "lng": "-79.1677"}, {"name": "Tillson", "state": "NY", "lat": "41.8316", "lng": "-74.0696"}, {"name": "Champlain", "state": "NY", "lat": "44.9882", "lng": "-73.4408"}, {"name": "Matinecock", "state": "NY", "lat": "40.8640", "lng": "-73.5817"}, {"name": "Lackawanna", "state": "NY", "lat": "42.8182", "lng": "-78.8326"}, {"name": "Barker", "state": "NY", "lat": "43.3282", "lng": "-78.5535"}, {"name": "Keeseville", "state": "NY", "lat": "44.5035", "lng": "-73.4812"}, {"name": "Sunset Bay", "state": "NY", "lat": "42.5607", "lng": "-79.1308"}, {"name": "North Boston", "state": "NY", "lat": "42.6773", "lng": "-78.7797"}, {"name": "Irvington", "state": "NY", "lat": "41.0349", "lng": "-73.8661"}, {"name": "Shinnecock Hills", "state": "NY", "lat": "40.8877", "lng": "-72.4554"}, {"name": "Minoa", "state": "NY", "lat": "43.0742", "lng": "-76.0085"}, {"name": "Fire Island", "state": "NY", "lat": "40.6782", "lng": "-73.0709"}, {"name": "Bellerose Terrace", "state": "NY", "lat": "40.7221", "lng": "-73.7252"}, {"name": "Scotia", "state": "NY", "lat": "42.8321", "lng": "-73.9607"}, {"name": "Green Island", "state": "NY", "lat": "42.7474", "lng": "-73.6925"}, {"name": "Avoca", "state": "NY", "lat": "42.4096", "lng": "-77.4222"}, {"name": "Depew", "state": "NY", "lat": "42.9117", "lng": "-78.7044"}, {"name": "Solvay", "state": "NY", "lat": "43.0573", "lng": "-76.2126"}, {"name": "Brewerton", "state": "NY", "lat": "43.2344", "lng": "-76.1411"}, {"name": "Harbor Isle", "state": "NY", "lat": "40.6019", "lng": "-73.6647"}, {"name": "Little Falls", "state": "NY", "lat": "43.0452", "lng": "-74.8566"}, {"name": "Holland Patent", "state": "NY", "lat": "43.2413", "lng": "-75.2567"}, {"name": "Jefferson Heights", "state": "NY", "lat": "42.2361", "lng": "-73.8822"}, {"name": "Middleport", "state": "NY", "lat": "43.2117", "lng": "-78.4757"}, {"name": "Pamelia Center", "state": "NY", "lat": "44.0409", "lng": "-75.9017"}, {"name": "Corfu", "state": "NY", "lat": "42.9611", "lng": "-78.4026"}, {"name": "Herricks", "state": "NY", "lat": "40.7567", "lng": "-73.6635"}, {"name": "Strykersville", "state": "NY", "lat": "42.7080", "lng": "-78.4484"}, {"name": "Johnson City", "state": "NY", "lat": "42.1230", "lng": "-75.9624"}, {"name": "Sherrill", "state": "NY", "lat": "43.0704", "lng": "-75.5992"}, {"name": "Walton Park", "state": "NY", "lat": "41.3119", "lng": "-74.2249"}, {"name": "Oriskany Falls", "state": "NY", "lat": "42.9380", "lng": "-75.4636"}, {"name": "Poughkeepsie", "state": "NY", "lat": "41.6949", "lng": "-73.9210"}, {"name": "Wynantskill", "state": "NY", "lat": "42.6881", "lng": "-73.6468"}, {"name": "Penn Yan", "state": "NY", "lat": "42.6610", "lng": "-77.0535"}, {"name": "Cohocton", "state": "NY", "lat": "42.4999", "lng": "-77.5000"}, {"name": "Lewiston", "state": "NY", "lat": "43.1724", "lng": "-79.0400"}, {"name": "Huntington Bay", "state": "NY", "lat": "40.9014", "lng": "-73.4163"}, {"name": "South Dayton", "state": "NY", "lat": "42.3628", "lng": "-79.0510"}, {"name": "Argyle", "state": "NY", "lat": "43.2363", "lng": "-73.4907"}, {"name": "Otego", "state": "NY", "lat": "42.3928", "lng": "-75.1801"}, {"name": "Auburn", "state": "NY", "lat": "42.9338", "lng": "-76.5685"}, {"name": "Limestone", "state": "NY", "lat": "42.0228", "lng": "-78.6324"}, {"name": "Pine Hill", "state": "NY", "lat": "42.1307", "lng": "-74.4665"}, {"name": "Hortonville", "state": "NY", "lat": "41.7661", "lng": "-75.0221"}, {"name": "Watervliet", "state": "NY", "lat": "42.7243", "lng": "-73.7068"}, {"name": "Salamanca", "state": "NY", "lat": "42.1631", "lng": "-78.7233"}, {"name": "Hunter", "state": "NY", "lat": "42.2109", "lng": "-74.2160"}, {"name": "Rockville Centre", "state": "NY", "lat": "40.6643", "lng": "-73.6383"}, {"name": "Delanson", "state": "NY", "lat": "42.7474", "lng": "-74.1841"}, {"name": "Oxford", "state": "NY", "lat": "42.4412", "lng": "-75.5959"}, {"name": "Olcott", "state": "NY", "lat": "43.3302", "lng": "-78.7104"}, {"name": "Malone", "state": "NY", "lat": "44.8490", "lng": "-74.2889"}, {"name": "Oyster Bay Cove", "state": "NY", "lat": "40.8569", "lng": "-73.5038"}, {"name": "Medford", "state": "NY", "lat": "40.8220", "lng": "-72.9859"}, {"name": "Nissequogue", "state": "NY", "lat": "40.9022", "lng": "-73.1922"}, {"name": "Broadalbin", "state": "NY", "lat": "43.0560", "lng": "-74.1964"}, {"name": "Perry", "state": "NY", "lat": "42.7174", "lng": "-78.0064"}, {"name": "Arlington", "state": "NY", "lat": "41.6958", "lng": "-73.8988"}, {"name": "Forestville", "state": "NY", "lat": "42.4691", "lng": "-79.1755"}, {"name": "Kensington", "state": "NY", "lat": "40.7931", "lng": "-73.7221"}, {"name": "Menands", "state": "NY", "lat": "42.6910", "lng": "-73.7271"}, {"name": "New Square", "state": "NY", "lat": "41.1410", "lng": "-74.0294"}, {"name": "New Rochelle", "state": "NY", "lat": "40.9305", "lng": "-73.7836"}, {"name": "Malverne", "state": "NY", "lat": "40.6746", "lng": "-73.6721"}, {"name": "Lawrence", "state": "NY", "lat": "40.6042", "lng": "-73.7149"}, {"name": "Stone Ridge", "state": "NY", "lat": "41.8414", "lng": "-74.1539"}, {"name": "Williston Park", "state": "NY", "lat": "40.7587", "lng": "-73.6465"}, {"name": "Baldwinsville", "state": "NY", "lat": "43.1570", "lng": "-76.3319"}, {"name": "Syosset", "state": "NY", "lat": "40.8156", "lng": "-73.5020"}, {"name": "Wainscott", "state": "NY", "lat": "40.9591", "lng": "-72.2507"}, {"name": "South Nyack", "state": "NY", "lat": "41.0798", "lng": "-73.9127"}, {"name": "Pittsford", "state": "NY", "lat": "43.0901", "lng": "-77.5166"}, {"name": "Groton", "state": "NY", "lat": "42.5875", "lng": "-76.3630"}, {"name": "Belmont", "state": "NY", "lat": "42.2226", "lng": "-78.0328"}, {"name": "Burke", "state": "NY", "lat": "44.9032", "lng": "-74.1700"}, {"name": "Belleville", "state": "NY", "lat": "43.7843", "lng": "-76.1171"}, {"name": "Elba", "state": "NY", "lat": "43.0768", "lng": "-78.1889"}, {"name": "Central Islip", "state": "NY", "lat": "40.7837", "lng": "-73.1945"}, {"name": "Montrose", "state": "NY", "lat": "41.2455", "lng": "-73.9376"}, {"name": "Napeague", "state": "NY", "lat": "40.9950", "lng": "-72.0707"}, {"name": "Oakfield", "state": "NY", "lat": "43.0649", "lng": "-78.2710"}, {"name": "Parc", "state": "NY", "lat": "44.6639", "lng": "-73.4530"}, {"name": "Holbrook", "state": "NY", "lat": "40.7944", "lng": "-73.0707"}, {"name": "New Cassel", "state": "NY", "lat": "40.7600", "lng": "-73.5649"}, {"name": "Halesite", "state": "NY", "lat": "40.8864", "lng": "-73.4139"}, {"name": "Jordan", "state": "NY", "lat": "43.0671", "lng": "-76.4728"}, {"name": "Kysorville", "state": "NY", "lat": "42.6528", "lng": "-77.7949"}, {"name": "Houghton", "state": "NY", "lat": "42.4277", "lng": "-78.1615"}, {"name": "Richmondville", "state": "NY", "lat": "42.6335", "lng": "-74.5628"}, {"name": "Rensselaer", "state": "NY", "lat": "42.6465", "lng": "-73.7328"}, {"name": "Salt Point", "state": "NY", "lat": "41.8061", "lng": "-73.7900"}, {"name": "West Chazy", "state": "NY", "lat": "44.8178", "lng": "-73.5116"}, {"name": "Hewlett Harbor", "state": "NY", "lat": "40.6327", "lng": "-73.6842"}, {"name": "Witherbee", "state": "NY", "lat": "44.0837", "lng": "-73.5371"}, {"name": "Wilson", "state": "NY", "lat": "43.3097", "lng": "-78.8260"}, {"name": "Rochester", "state": "NY", "lat": "43.1680", "lng": "-77.6162"}, {"name": "Gilbertsville", "state": "NY", "lat": "42.4694", "lng": "-75.3226"}, {"name": "Mount Morris", "state": "NY", "lat": "42.7237", "lng": "-77.8753"}, {"name": "Brooklyn", "state": "NY", "lat": "40.6501", "lng": "-73.9496"}, {"name": "Southampton", "state": "NY", "lat": "40.8778", "lng": "-72.4004"}, {"name": "Galway", "state": "NY", "lat": "43.0185", "lng": "-74.0318"}, {"name": "Greigsville", "state": "NY", "lat": "42.8307", "lng": "-77.9015"}, {"name": "Cazenovia", "state": "NY", "lat": "42.9278", "lng": "-75.8514"}, {"name": "Yonkers", "state": "NY", "lat": "40.9466", "lng": "-73.8674"}, {"name": "Sinclairville", "state": "NY", "lat": "42.2653", "lng": "-79.2591"}, {"name": "West Hills", "state": "NY", "lat": "40.8198", "lng": "-73.4339"}, {"name": "Chester", "state": "NY", "lat": "41.3570", "lng": "-74.2769"}, {"name": "Constableville", "state": "NY", "lat": "43.5649", "lng": "-75.4280"}, {"name": "St. Bonaventure", "state": "NY", "lat": "42.0806", "lng": "-78.4750"}, {"name": "Hillside", "state": "NY", "lat": "41.9177", "lng": "-74.0336"}, {"name": "Jeffersonville", "state": "NY", "lat": "41.7799", "lng": "-74.9298"}, {"name": "Frewsburg", "state": "NY", "lat": "42.0575", "lng": "-79.1485"}, {"name": "Gouverneur", "state": "NY", "lat": "44.3367", "lng": "-75.4666"}, {"name": "Narrowsburg", "state": "NY", "lat": "41.6006", "lng": "-75.0579"}, {"name": "West Sayville", "state": "NY", "lat": "40.7294", "lng": "-73.1050"}, {"name": "Bloomfield", "state": "NY", "lat": "42.8991", "lng": "-77.4244"}, {"name": "Alexander", "state": "NY", "lat": "42.9020", "lng": "-78.2591"}, {"name": "New York Mills", "state": "NY", "lat": "43.1007", "lng": "-75.2932"}, {"name": "Middleville", "state": "NY", "lat": "43.1384", "lng": "-74.9707"}, {"name": "Pearl River", "state": "NY", "lat": "41.0615", "lng": "-74.0047"}, {"name": "Brownville", "state": "NY", "lat": "44.0056", "lng": "-75.9834"}, {"name": "Sodus Point", "state": "NY", "lat": "43.2641", "lng": "-76.9953"}, {"name": "Hampton Bays", "state": "NY", "lat": "40.8692", "lng": "-72.5227"}, {"name": "North Tonawanda", "state": "NY", "lat": "43.0457", "lng": "-78.8659"}, {"name": "Port Chester", "state": "NY", "lat": "41.0052", "lng": "-73.6680"}, {"name": "Valley Cottage", "state": "NY", "lat": "41.1160", "lng": "-73.9436"}, {"name": "Bliss", "state": "NY", "lat": "42.5801", "lng": "-78.2538"}, {"name": "Munnsville", "state": "NY", "lat": "42.9767", "lng": "-75.5866"}, {"name": "Mount Sinai", "state": "NY", "lat": "40.9372", "lng": "-73.0180"}, {"name": "Woodsville", "state": "NY", "lat": "42.5790", "lng": "-77.7338"}, {"name": "Candor", "state": "NY", "lat": "42.2284", "lng": "-76.3366"}, {"name": "East Kingston", "state": "NY", "lat": "41.9523", "lng": "-73.9704"}, {"name": "Washingtonville", "state": "NY", "lat": "41.4296", "lng": "-74.1578"}, {"name": "Laurel", "state": "NY", "lat": "40.9728", "lng": "-72.5560"}, {"name": "Shrub Oak", "state": "NY", "lat": "41.3256", "lng": "-73.8295"}, {"name": "Manorville", "state": "NY", "lat": "40.8575", "lng": "-72.7915"}, {"name": "Cassadaga", "state": "NY", "lat": "42.3427", "lng": "-79.3180"}, {"name": "Milford", "state": "NY", "lat": "42.5905", "lng": "-74.9471"}, {"name": "Centre Island", "state": "NY", "lat": "40.9018", "lng": "-73.5211"}, {"name": "Flanders", "state": "NY", "lat": "40.8925", "lng": "-72.6049"}, {"name": "West Nyack", "state": "NY", "lat": "41.0907", "lng": "-73.9714"}, {"name": "Putnam Lake", "state": "NY", "lat": "41.4747", "lng": "-73.5483"}, {"name": "Dolgeville", "state": "NY", "lat": "43.1031", "lng": "-74.7749"}, {"name": "Bolivar", "state": "NY", "lat": "42.0685", "lng": "-78.1662"}, {"name": "Addison", "state": "NY", "lat": "42.1063", "lng": "-77.2320"}, {"name": "Oak Beach-Captree", "state": "NY", "lat": "40.6465", "lng": "-73.2721"}, {"name": "Breesport", "state": "NY", "lat": "42.1816", "lng": "-76.7358"}, {"name": "Brushton", "state": "NY", "lat": "44.8308", "lng": "-74.5117"}, {"name": "Newfield Hamlet", "state": "NY", "lat": "42.3582", "lng": "-76.5923"}, {"name": "Monroe", "state": "NY", "lat": "41.3198", "lng": "-74.1848"}, {"name": "Conesus Hamlet", "state": "NY", "lat": "42.7262", "lng": "-77.6696"}, {"name": "Ellicottville", "state": "NY", "lat": "42.2746", "lng": "-78.6722"}, {"name": "Hoosick Falls", "state": "NY", "lat": "42.9009", "lng": "-73.3500"}, {"name": "Farnham", "state": "NY", "lat": "42.5951", "lng": "-79.0809"}, {"name": "Islandia", "state": "NY", "lat": "40.8068", "lng": "-73.1711"}, {"name": "Monticello", "state": "NY", "lat": "41.6523", "lng": "-74.6876"}, {"name": "Harris Hill", "state": "NY", "lat": "42.9730", "lng": "-78.6793"}, {"name": "Dalton", "state": "NY", "lat": "42.5422", "lng": "-77.9520"}, {"name": "Plessis", "state": "NY", "lat": "44.2736", "lng": "-75.8575"}, {"name": "Poquott", "state": "NY", "lat": "40.9529", "lng": "-73.0903"}, {"name": "Malden-on-Hudson", "state": "NY", "lat": "42.0933", "lng": "-73.9365"}, {"name": "Rushville", "state": "NY", "lat": "42.7607", "lng": "-77.2274"}, {"name": "Buchanan", "state": "NY", "lat": "41.2643", "lng": "-73.9465"}, {"name": "Sag Harbor", "state": "NY", "lat": "40.9970", "lng": "-72.2892"}, {"name": "Shokan", "state": "NY", "lat": "41.9809", "lng": "-74.2130"}, {"name": "Wayland", "state": "NY", "lat": "42.5660", "lng": "-77.5925"}, {"name": "South Lima", "state": "NY", "lat": "42.8575", "lng": "-77.6760"}, {"name": "Port Dickinson", "state": "NY", "lat": "42.1361", "lng": "-75.8939"}, {"name": "SUNY Oswego", "state": "NY", "lat": "43.4515", "lng": "-76.5439"}, {"name": "East Avon", "state": "NY", "lat": "42.9127", "lng": "-77.7072"}, {"name": "Stannards", "state": "NY", "lat": "42.0741", "lng": "-77.9123"}, {"name": "Cold Brook", "state": "NY", "lat": "43.2397", "lng": "-75.0390"}, {"name": "Plandome Heights", "state": "NY", "lat": "40.8021", "lng": "-73.7049"}, {"name": "Red Hook", "state": "NY", "lat": "41.9959", "lng": "-73.8769"}, {"name": "Apalachin", "state": "NY", "lat": "42.0705", "lng": "-76.1626"}, {"name": "Kennedy", "state": "NY", "lat": "42.1590", "lng": "-79.0982"}, {"name": "Lake Katrine", "state": "NY", "lat": "41.9863", "lng": "-73.9895"}, {"name": "McGraw", "state": "NY", "lat": "42.5938", "lng": "-76.0975"}, {"name": "Melville", "state": "NY", "lat": "40.7823", "lng": "-73.4088"}, {"name": "Chittenango", "state": "NY", "lat": "43.0462", "lng": "-75.8749"}, {"name": "Attica", "state": "NY", "lat": "42.8640", "lng": "-78.2799"}, {"name": "Manhasset Hills", "state": "NY", "lat": "40.7592", "lng": "-73.6810"}, {"name": "East Patchogue", "state": "NY", "lat": "40.7704", "lng": "-72.9817"}, {"name": "Village Green", "state": "NY", "lat": "43.1324", "lng": "-76.3108"}, {"name": "Rock Hill", "state": "NY", "lat": "41.6153", "lng": "-74.5821"}, {"name": "Eggertsville", "state": "NY", "lat": "42.9665", "lng": "-78.8065"}, {"name": "Island Park", "state": "NY", "lat": "40.6051", "lng": "-73.6553"}, {"name": "Schenectady", "state": "NY", "lat": "42.8025", "lng": "-73.9276"}, {"name": "Newark", "state": "NY", "lat": "43.0418", "lng": "-77.0930"}, {"name": "Merrick", "state": "NY", "lat": "40.6515", "lng": "-73.5535"}, {"name": "Huntington Station", "state": "NY", "lat": "40.8446", "lng": "-73.4050"}, {"name": "Village of the Branch", "state": "NY", "lat": "40.8524", "lng": "-73.1844"}, {"name": "Johnstown", "state": "NY", "lat": "43.0073", "lng": "-74.3755"}, {"name": "Palatine Bridge", "state": "NY", "lat": "42.9143", "lng": "-74.5756"}, {"name": "Briarcliff Manor", "state": "NY", "lat": "41.1400", "lng": "-73.8440"}, {"name": "Cumberland Head", "state": "NY", "lat": "44.7165", "lng": "-73.3966"}, {"name": "Copake Falls", "state": "NY", "lat": "42.1202", "lng": "-73.5247"}, {"name": "Russell Gardens", "state": "NY", "lat": "40.7809", "lng": "-73.7254"}, {"name": "Clinton", "state": "NY", "lat": "43.0488", "lng": "-75.3785"}, {"name": "Quogue", "state": "NY", "lat": "40.8215", "lng": "-72.5987"}, {"name": "Adams Center", "state": "NY", "lat": "43.8616", "lng": "-76.0001"}, {"name": "Lyncourt", "state": "NY", "lat": "43.0821", "lng": "-76.1264"}, {"name": "Fabius", "state": "NY", "lat": "42.8346", "lng": "-75.9846"}, {"name": "Fowlerville", "state": "NY", "lat": "42.8940", "lng": "-77.8480"}, {"name": "East Islip", "state": "NY", "lat": "40.7275", "lng": "-73.1861"}, {"name": "Arcade", "state": "NY", "lat": "42.5317", "lng": "-78.4327"}, {"name": "Rensselaer Falls", "state": "NY", "lat": "44.5909", "lng": "-75.3192"}, {"name": "Bloomville", "state": "NY", "lat": "42.3338", "lng": "-74.8180"}, {"name": "Chaumont", "state": "NY", "lat": "44.0675", "lng": "-76.1301"}, {"name": "East Rochester", "state": "NY", "lat": "43.1120", "lng": "-77.4869"}, {"name": "North Hornell", "state": "NY", "lat": "42.3454", "lng": "-77.6605"}, {"name": "Tribes Hill", "state": "NY", "lat": "42.9479", "lng": "-74.2988"}, {"name": "East Atlantic Beach", "state": "NY", "lat": "40.5876", "lng": "-73.7092"}, {"name": "Greenwood Lake", "state": "NY", "lat": "41.2215", "lng": "-74.2891"}, {"name": "Brocton", "state": "NY", "lat": "42.3900", "lng": "-79.4429"}, {"name": "South Valley Stream", "state": "NY", "lat": "40.6557", "lng": "-73.7186"}, {"name": "South Glens Falls", "state": "NY", "lat": "43.2951", "lng": "-73.6351"}, {"name": "East Massapequa", "state": "NY", "lat": "40.6743", "lng": "-73.4358"}, {"name": "Morrisonville", "state": "NY", "lat": "44.6922", "lng": "-73.5505"}, {"name": "Mount Ivy", "state": "NY", "lat": "41.1926", "lng": "-74.0297"}, {"name": "Fort Edward", "state": "NY", "lat": "43.2688", "lng": "-73.5825"}, {"name": "Golden's Bridge", "state": "NY", "lat": "41.2878", "lng": "-73.6681"}, {"name": "North Syracuse", "state": "NY", "lat": "43.1339", "lng": "-76.1306"}, {"name": "Hailesboro", "state": "NY", "lat": "44.3097", "lng": "-75.4356"}, {"name": "Gainesville", "state": "NY", "lat": "42.6415", "lng": "-78.1347"}, {"name": "Phoenicia", "state": "NY", "lat": "42.0790", "lng": "-74.3090"}, {"name": "Potsdam", "state": "NY", "lat": "44.6699", "lng": "-74.9831"}, {"name": "Piermont", "state": "NY", "lat": "41.0423", "lng": "-73.9150"}, {"name": "Spencerport", "state": "NY", "lat": "43.1882", "lng": "-77.8069"}, {"name": "Woodridge", "state": "NY", "lat": "41.7125", "lng": "-74.5742"}, {"name": "Northport", "state": "NY", "lat": "40.9036", "lng": "-73.3446"}, {"name": "Medina", "state": "NY", "lat": "43.2197", "lng": "-78.3888"}, {"name": "Greenville", "state": "NY", "lat": "40.9982", "lng": "-73.8194"}, {"name": "Rifton", "state": "NY", "lat": "41.8288", "lng": "-74.0381"}, {"name": "Mattituck", "state": "NY", "lat": "41.0012", "lng": "-72.5419"}, {"name": "West Winfield", "state": "NY", "lat": "42.8838", "lng": "-75.1914"}, {"name": "Watertown", "state": "NY", "lat": "43.9734", "lng": "-75.9095"}, {"name": "Shelter Island Heights", "state": "NY", "lat": "41.0745", "lng": "-72.3434"}, {"name": "Fayetteville", "state": "NY", "lat": "43.0308", "lng": "-75.9985"}, {"name": "Suffern", "state": "NY", "lat": "41.1138", "lng": "-74.1421"}, {"name": "Albion", "state": "NY", "lat": "43.2460", "lng": "-78.1902"}, {"name": "Amityville", "state": "NY", "lat": "40.6696", "lng": "-73.4156"}, {"name": "Afton", "state": "NY", "lat": "42.2291", "lng": "-75.5247"}, {"name": "New Hartford", "state": "NY", "lat": "43.0710", "lng": "-75.2886"}, {"name": "Ronkonkoma", "state": "NY", "lat": "40.8040", "lng": "-73.1258"}, {"name": "Mariaville Lake", "state": "NY", "lat": "42.8252", "lng": "-74.1286"}, {"name": "Bay Shore", "state": "NY", "lat": "40.7317", "lng": "-73.2505"}, {"name": "Crugers", "state": "NY", "lat": "41.2279", "lng": "-73.9260"}, {"name": "Fort Plain", "state": "NY", "lat": "42.9316", "lng": "-74.6278"}, {"name": "Alden", "state": "NY", "lat": "42.8988", "lng": "-78.4946"}, {"name": "Nichols", "state": "NY", "lat": "42.0200", "lng": "-76.3704"}, {"name": "Castorland", "state": "NY", "lat": "43.8862", "lng": "-75.5165"}, {"name": "North Patchogue", "state": "NY", "lat": "40.7833", "lng": "-73.0234"}, {"name": "Orchard Park", "state": "NY", "lat": "42.7627", "lng": "-78.7438"}, {"name": "Phoenix", "state": "NY", "lat": "43.2316", "lng": "-76.2961"}, {"name": "Union Springs", "state": "NY", "lat": "42.8457", "lng": "-76.6909"}, {"name": "Lime Lake", "state": "NY", "lat": "42.4327", "lng": "-78.4808"}, {"name": "Copenhagen", "state": "NY", "lat": "43.8934", "lng": "-75.6726"}, {"name": "Victor", "state": "NY", "lat": "42.9820", "lng": "-77.4097"}, {"name": "New City", "state": "NY", "lat": "41.1543", "lng": "-73.9909"}, {"name": "Ogdensburg", "state": "NY", "lat": "44.7088", "lng": "-75.4717"}, {"name": "Harbor Hills", "state": "NY", "lat": "40.7881", "lng": "-73.7492"}, {"name": "East Farmingdale", "state": "NY", "lat": "40.7336", "lng": "-73.4169"}, {"name": "Sharon Springs", "state": "NY", "lat": "42.7930", "lng": "-74.6129"}, {"name": "Manlius", "state": "NY", "lat": "43.0017", "lng": "-75.9819"}, {"name": "Hobart", "state": "NY", "lat": "42.3715", "lng": "-74.6691"}, {"name": "Old Brookville", "state": "NY", "lat": "40.8332", "lng": "-73.6039"}, {"name": "Lloyd Harbor", "state": "NY", "lat": "40.9139", "lng": "-73.4618"}, {"name": "White Plains", "state": "NY", "lat": "41.0220", "lng": "-73.7549"}, {"name": "Shenorock", "state": "NY", "lat": "41.3306", "lng": "-73.7409"}, {"name": "Malverne Park Oaks", "state": "NY", "lat": "40.6817", "lng": "-73.6642"}, {"name": "Catskill", "state": "NY", "lat": "42.2145", "lng": "-73.8656"}, {"name": "Mechanicstown", "state": "NY", "lat": "41.4472", "lng": "-74.3914"}, {"name": "Lima", "state": "NY", "lat": "42.9069", "lng": "-77.6123"}, {"name": "Hudson", "state": "NY", "lat": "42.2515", "lng": "-73.7859"}, {"name": "Springs", "state": "NY", "lat": "41.0212", "lng": "-72.1584"}, {"name": "Great Neck Estates", "state": "NY", "lat": "40.7857", "lng": "-73.7396"}, {"name": "Mechanicville", "state": "NY", "lat": "42.9037", "lng": "-73.6895"}, {"name": "Tonawanda", "state": "NY", "lat": "43.0105", "lng": "-78.8805"}, {"name": "Staten Island", "state": "NY", "lat": "40.5834", "lng": "-74.1496"}, {"name": "Tappan", "state": "NY", "lat": "41.0269", "lng": "-73.9520"}, {"name": "Hilton", "state": "NY", "lat": "43.2899", "lng": "-77.7925"}, {"name": "Lake Placid", "state": "NY", "lat": "44.2837", "lng": "-73.9855"}, {"name": "Monsey", "state": "NY", "lat": "41.1181", "lng": "-74.0681"}, {"name": "North Bellport", "state": "NY", "lat": "40.7868", "lng": "-72.9457"}, {"name": "Ocean Beach", "state": "NY", "lat": "40.6463", "lng": "-73.1565"}, {"name": "Cranberry Lake", "state": "NY", "lat": "44.2063", "lng": "-74.8426"}, {"name": "Mount Vernon", "state": "NY", "lat": "40.9136", "lng": "-73.8291"}, {"name": "Pomona", "state": "NY", "lat": "41.1892", "lng": "-74.0543"}, {"name": "Spackenkill", "state": "NY", "lat": "41.6549", "lng": "-73.9102"}, {"name": "Hopewell Junction", "state": "NY", "lat": "41.5787", "lng": "-73.8078"}, {"name": "Caroga Lake", "state": "NY", "lat": "43.1353", "lng": "-74.4810"}, {"name": "East Hampton", "state": "NY", "lat": "40.9527", "lng": "-72.1961"}, {"name": "Sidney", "state": "NY", "lat": "42.3067", "lng": "-75.3984"}, {"name": "Thornwood", "state": "NY", "lat": "41.1186", "lng": "-73.7795"}, {"name": "Franklin Square", "state": "NY", "lat": "40.7002", "lng": "-73.6775"}, {"name": "Noyack", "state": "NY", "lat": "40.9827", "lng": "-72.3350"}, {"name": "Sylvan Beach", "state": "NY", "lat": "43.2061", "lng": "-75.7234"}, {"name": "Goshen", "state": "NY", "lat": "41.4017", "lng": "-74.3270"}, {"name": "Tannersville", "state": "NY", "lat": "42.1937", "lng": "-74.1353"}, {"name": "Fredonia", "state": "NY", "lat": "42.4407", "lng": "-79.3319"}, {"name": "Rocky Point", "state": "NY", "lat": "40.9357", "lng": "-72.9364"}, {"name": "Munsey Park", "state": "NY", "lat": "40.7990", "lng": "-73.6799"}, {"name": "Bainbridge", "state": "NY", "lat": "42.2974", "lng": "-75.4807"}, {"name": "Montour Falls", "state": "NY", "lat": "42.3499", "lng": "-76.8483"}, {"name": "Weston Mills", "state": "NY", "lat": "42.0752", "lng": "-78.3727"}, {"name": "Stottville", "state": "NY", "lat": "42.2913", "lng": "-73.7532"}, {"name": "Cumminsville", "state": "NY", "lat": "42.5706", "lng": "-77.7189"}, {"name": "Lake Success", "state": "NY", "lat": "40.7680", "lng": "-73.7089"}, {"name": "Delevan", "state": "NY", "lat": "42.4913", "lng": "-78.4796"}, {"name": "South Blooming Grove", "state": "NY", "lat": "41.3735", "lng": "-74.1790"}, {"name": "Head of the Harbor", "state": "NY", "lat": "40.8981", "lng": "-73.1624"}, {"name": "Websters Crossing", "state": "NY", "lat": "42.6661", "lng": "-77.6373"}, {"name": "Morris", "state": "NY", "lat": "42.5480", "lng": "-75.2455"}, {"name": "Westmere", "state": "NY", "lat": "42.6883", "lng": "-73.8744"}, {"name": "Billington Heights", "state": "NY", "lat": "42.7862", "lng": "-78.6237"}, {"name": "Smallwood", "state": "NY", "lat": "41.6595", "lng": "-74.8200"}, {"name": "New Hyde Park", "state": "NY", "lat": "40.7324", "lng": "-73.6857"}, {"name": "Jamestown", "state": "NY", "lat": "42.0975", "lng": "-79.2366"}, {"name": "Tully", "state": "NY", "lat": "42.7979", "lng": "-76.1101"}, {"name": "Chatham", "state": "NY", "lat": "42.3621", "lng": "-73.5976"}, {"name": "Waterloo", "state": "NY", "lat": "42.9048", "lng": "-76.8592"}, {"name": "Nelsonville", "state": "NY", "lat": "41.4291", "lng": "-73.9466"}, {"name": "Morrisville", "state": "NY", "lat": "42.8987", "lng": "-75.6448"}, {"name": "Florida", "state": "NY", "lat": "41.3312", "lng": "-74.3533"}, {"name": "Roosevelt", "state": "NY", "lat": "40.6797", "lng": "-73.5837"}, {"name": "Kings Park", "state": "NY", "lat": "40.8887", "lng": "-73.2452"}, {"name": "Lacona", "state": "NY", "lat": "43.6434", "lng": "-76.0666"}, {"name": "Hillcrest", "state": "NY", "lat": "41.1298", "lng": "-74.0350"}, {"name": "Northwest Harbor", "state": "NY", "lat": "41.0053", "lng": "-72.2220"}, {"name": "Nyack", "state": "NY", "lat": "41.0919", "lng": "-73.9143"}, {"name": "Burdett", "state": "NY", "lat": "42.4169", "lng": "-76.8441"}, {"name": "New York", "state": "NY", "lat": "40.6943", "lng": "-73.9249"}, {"name": "Taconic Shores", "state": "NY", "lat": "42.1192", "lng": "-73.5532"}, {"name": "Saugerties South", "state": "NY", "lat": "42.0614", "lng": "-73.9506"}, {"name": "Binghamton University", "state": "NY", "lat": "42.0893", "lng": "-75.9684"}, {"name": "Sayville", "state": "NY", "lat": "40.7478", "lng": "-73.0840"}, {"name": "Gardnertown", "state": "NY", "lat": "41.5328", "lng": "-74.0594"}, {"name": "Hannawa Falls", "state": "NY", "lat": "44.6017", "lng": "-74.9738"}, {"name": "Nelliston", "state": "NY", "lat": "42.9318", "lng": "-74.6099"}, {"name": "West Hampton Dunes", "state": "NY", "lat": "40.7776", "lng": "-72.7137"}, {"name": "Linwood", "state": "NY", "lat": "42.8967", "lng": "-77.9476"}, {"name": "Westbury", "state": "NY", "lat": "40.7599", "lng": "-73.5891"}, {"name": "Scottsville", "state": "NY", "lat": "43.0221", "lng": "-77.7555"}, {"name": "Livingston Manor", "state": "NY", "lat": "41.8935", "lng": "-74.8265"}, {"name": "Walden", "state": "NY", "lat": "41.5603", "lng": "-74.1879"}, {"name": "Roslyn Harbor", "state": "NY", "lat": "40.8157", "lng": "-73.6378"}, {"name": "Blauvelt", "state": "NY", "lat": "41.0689", "lng": "-73.9545"}, {"name": "Baywood", "state": "NY", "lat": "40.7533", "lng": "-73.2900"}, {"name": "Rye", "state": "NY", "lat": "40.9690", "lng": "-73.6878"}, {"name": "Bohemia", "state": "NY", "lat": "40.7717", "lng": "-73.1271"}, {"name": "Glen Head", "state": "NY", "lat": "40.8450", "lng": "-73.6180"}, {"name": "Orangeburg", "state": "NY", "lat": "41.0488", "lng": "-73.9407"}, {"name": "West Babylon", "state": "NY", "lat": "40.7112", "lng": "-73.3567"}, {"name": "Laurens", "state": "NY", "lat": "42.5313", "lng": "-75.0888"}, {"name": "East Moriches", "state": "NY", "lat": "40.8097", "lng": "-72.7581"}, {"name": "Round Lake", "state": "NY", "lat": "42.9376", "lng": "-73.7958"}, {"name": "Larchmont", "state": "NY", "lat": "40.9258", "lng": "-73.7529"}, {"name": "Unadilla", "state": "NY", "lat": "42.3273", "lng": "-75.3155"}, {"name": "Saratoga Springs", "state": "NY", "lat": "43.0674", "lng": "-73.7775"}, {"name": "Manchester", "state": "NY", "lat": "42.9681", "lng": "-77.2316"}, {"name": "Northwest Ithaca", "state": "NY", "lat": "42.4706", "lng": "-76.5414"}, {"name": "Nassau", "state": "NY", "lat": "42.5140", "lng": "-73.6108"}, {"name": "West Carthage", "state": "NY", "lat": "43.9730", "lng": "-75.6219"}, {"name": "Searingtown", "state": "NY", "lat": "40.7705", "lng": "-73.6603"}, {"name": "Thendara", "state": "NY", "lat": "43.7010", "lng": "-74.9971"}, {"name": "Westhampton Beach", "state": "NY", "lat": "40.8080", "lng": "-72.6457"}, {"name": "East Rockaway", "state": "NY", "lat": "40.6432", "lng": "-73.6672"}, {"name": "West Sand Lake", "state": "NY", "lat": "42.6403", "lng": "-73.6033"}, {"name": "Cuba", "state": "NY", "lat": "42.2182", "lng": "-78.2752"}, {"name": "West Valley", "state": "NY", "lat": "42.4036", "lng": "-78.6115"}, {"name": "Duane Lake", "state": "NY", "lat": "42.7526", "lng": "-74.1089"}, {"name": "Deferiet", "state": "NY", "lat": "44.0343", "lng": "-75.6792"}, {"name": "Leeds", "state": "NY", "lat": "42.2529", "lng": "-73.8940"}, {"name": "Baiting Hollow", "state": "NY", "lat": "40.9645", "lng": "-72.7402"}, {"name": "Glasco", "state": "NY", "lat": "42.0461", "lng": "-73.9487"}, {"name": "Freeville", "state": "NY", "lat": "42.5114", "lng": "-76.3457"}, {"name": "Andover", "state": "NY", "lat": "42.1575", "lng": "-77.7955"}, {"name": "South Floral Park", "state": "NY", "lat": "40.7136", "lng": "-73.7005"}, {"name": "Unionville", "state": "NY", "lat": "41.3013", "lng": "-74.5619"}, {"name": "Katonah", "state": "NY", "lat": "41.2559", "lng": "-73.6856"}, {"name": "Ovid", "state": "NY", "lat": "42.6756", "lng": "-76.8229"}, {"name": "Frankfort", "state": "NY", "lat": "43.0384", "lng": "-75.0724"}, {"name": "Dundee", "state": "NY", "lat": "42.5236", "lng": "-76.9775"}, {"name": "Massena", "state": "NY", "lat": "44.9292", "lng": "-74.8923"}, {"name": "Heuvelton", "state": "NY", "lat": "44.6170", "lng": "-75.4046"}, {"name": "Brentwood", "state": "NY", "lat": "40.7839", "lng": "-73.2522"}, {"name": "Walker Valley", "state": "NY", "lat": "41.6386", "lng": "-74.3775"}, {"name": "Ames", "state": "NY", "lat": "42.8373", "lng": "-74.6014"}, {"name": "Grand View-on-Hudson", "state": "NY", "lat": "41.0627", "lng": "-73.9208"}, {"name": "Highland", "state": "NY", "lat": "41.7179", "lng": "-73.9646"}, {"name": "Fishers Island", "state": "NY", "lat": "41.2702", "lng": "-71.9878"}, {"name": "Alexandria Bay", "state": "NY", "lat": "44.3399", "lng": "-75.9161"}, {"name": "Endicott", "state": "NY", "lat": "42.0980", "lng": "-76.0639"}, {"name": "Schenevus", "state": "NY", "lat": "42.5497", "lng": "-74.8270"}, {"name": "Batavia", "state": "NY", "lat": "42.9987", "lng": "-78.1802"}, {"name": "Oneonta", "state": "NY", "lat": "42.4551", "lng": "-75.0666"}, {"name": "Williamsville", "state": "NY", "lat": "42.9623", "lng": "-78.7418"}, {"name": "Caledonia", "state": "NY", "lat": "42.9755", "lng": "-77.8571"}, {"name": "Lattingtown", "state": "NY", "lat": "40.8921", "lng": "-73.5966"}, {"name": "East Aurora", "state": "NY", "lat": "42.7666", "lng": "-78.6172"}, {"name": "Middleburgh", "state": "NY", "lat": "42.5980", "lng": "-74.3298"}, {"name": "Newark Valley", "state": "NY", "lat": "42.2229", "lng": "-76.1867"}, {"name": "Naples", "state": "NY", "lat": "42.6177", "lng": "-77.4021"}, {"name": "Marcellus", "state": "NY", "lat": "42.9840", "lng": "-76.3404"}, {"name": "Ravena", "state": "NY", "lat": "42.4755", "lng": "-73.8113"}, {"name": "Cold Spring", "state": "NY", "lat": "41.4191", "lng": "-73.9545"}, {"name": "Hamburg", "state": "NY", "lat": "42.7233", "lng": "-78.8348"}, {"name": "Homer", "state": "NY", "lat": "42.6371", "lng": "-76.1849"}, {"name": "Prospect", "state": "NY", "lat": "43.3026", "lng": "-75.1514"}, {"name": "Manorhaven", "state": "NY", "lat": "40.8399", "lng": "-73.7127"}, {"name": "Esperance", "state": "NY", "lat": "42.7652", "lng": "-74.2589"}, {"name": "Freeport", "state": "NY", "lat": "40.6515", "lng": "-73.5850"}, {"name": "Garden City", "state": "NY", "lat": "40.7266", "lng": "-73.6447"}, {"name": "Voorheesville", "state": "NY", "lat": "42.6518", "lng": "-73.9349"}, {"name": "Margaretville", "state": "NY", "lat": "42.1458", "lng": "-74.6503"}, {"name": "Quiogue", "state": "NY", "lat": "40.8201", "lng": "-72.6280"}, {"name": "North Ballston Spa", "state": "NY", "lat": "43.0197", "lng": "-73.8511"}, {"name": "Fonda", "state": "NY", "lat": "42.9536", "lng": "-74.3720"}, {"name": "Canastota", "state": "NY", "lat": "43.0835", "lng": "-75.7558"}, {"name": "Mayville", "state": "NY", "lat": "42.2532", "lng": "-79.5031"}, {"name": "Glenwood Landing", "state": "NY", "lat": "40.8295", "lng": "-73.6378"}, {"name": "Gloversville", "state": "NY", "lat": "43.0491", "lng": "-74.3465"}, {"name": "East Hills", "state": "NY", "lat": "40.7958", "lng": "-73.6292"}, {"name": "Palmyra", "state": "NY", "lat": "43.0609", "lng": "-77.2298"}, {"name": "Bayville", "state": "NY", "lat": "40.9077", "lng": "-73.5603"}, {"name": "Utica", "state": "NY", "lat": "43.0961", "lng": "-75.2260"}, {"name": "Tuxedo Park", "state": "NY", "lat": "41.2007", "lng": "-74.2060"}, {"name": "Great Neck Gardens", "state": "NY", "lat": "40.7970", "lng": "-73.7228"}, {"name": "Kiryas Joel", "state": "NY", "lat": "41.3404", "lng": "-74.1658"}, {"name": "Allegany", "state": "NY", "lat": "42.0917", "lng": "-78.4927"}, {"name": "Oneida", "state": "NY", "lat": "43.0769", "lng": "-75.6621"}, {"name": "Lake George", "state": "NY", "lat": "43.4260", "lng": "-73.7150"}, {"name": "Hamilton", "state": "NY", "lat": "42.8292", "lng": "-75.5503"}, {"name": "Mastic", "state": "NY", "lat": "40.8098", "lng": "-72.8479"}, {"name": "Jefferson Valley-Yorktown", "state": "NY", "lat": "41.3179", "lng": "-73.8007"}, {"name": "Geneseo", "state": "NY", "lat": "42.7990", "lng": "-77.8095"}, {"name": "Pleasantville", "state": "NY", "lat": "41.1378", "lng": "-73.7827"}, {"name": "Clyde", "state": "NY", "lat": "43.0839", "lng": "-76.8707"}, {"name": "Riverside", "state": "NY", "lat": "42.1554", "lng": "-77.0802"}, {"name": "Aquebogue", "state": "NY", "lat": "40.9425", "lng": "-72.6149"}, {"name": "Mahopac", "state": "NY", "lat": "41.3684", "lng": "-73.7401"}, {"name": "Hornell", "state": "NY", "lat": "42.3330", "lng": "-77.6632"}, {"name": "Preston-Potter Hollow", "state": "NY", "lat": "42.4330", "lng": "-74.2287"}, {"name": "Nanuet", "state": "NY", "lat": "41.0957", "lng": "-74.0155"}, {"name": "Whitney Point", "state": "NY", "lat": "42.3303", "lng": "-75.9679"}, {"name": "Durhamville", "state": "NY", "lat": "43.1225", "lng": "-75.6650"}, {"name": "Upper Brookville", "state": "NY", "lat": "40.8476", "lng": "-73.5627"}, {"name": "Napanoch", "state": "NY", "lat": "41.7514", "lng": "-74.3729"}, {"name": "Port Leyden", "state": "NY", "lat": "43.5838", "lng": "-75.3413"}, {"name": "Elmira Heights", "state": "NY", "lat": "42.1267", "lng": "-76.8255"}, {"name": "Miller Place", "state": "NY", "lat": "40.9374", "lng": "-72.9864"}, {"name": "Cleveland", "state": "NY", "lat": "43.2398", "lng": "-75.8847"}, {"name": "Hagaman", "state": "NY", "lat": "42.9728", "lng": "-74.1545"}, {"name": "Sea Cliff", "state": "NY", "lat": "40.8441", "lng": "-73.6442"}, {"name": "Holley", "state": "NY", "lat": "43.2247", "lng": "-78.0292"}, {"name": "Weedsport", "state": "NY", "lat": "43.0482", "lng": "-76.5637"}, {"name": "Schoharie", "state": "NY", "lat": "42.6664", "lng": "-74.3137"}, {"name": "Copake Lake", "state": "NY", "lat": "42.1416", "lng": "-73.5903"}, {"name": "Evans Mills", "state": "NY", "lat": "44.0870", "lng": "-75.8078"}, {"name": "Ransomville", "state": "NY", "lat": "43.2389", "lng": "-78.9114"}, {"name": "Thiells", "state": "NY", "lat": "41.2067", "lng": "-74.0122"}, {"name": "Ithaca", "state": "NY", "lat": "42.4442", "lng": "-76.5032"}, {"name": "Millbrook", "state": "NY", "lat": "41.7842", "lng": "-73.6937"}, {"name": "Baxter Estates", "state": "NY", "lat": "40.8338", "lng": "-73.6949"}, {"name": "Bellerose", "state": "NY", "lat": "40.7242", "lng": "-73.7167"}, {"name": "Westhampton", "state": "NY", "lat": "40.8325", "lng": "-72.6617"}, {"name": "Lake Erie Beach", "state": "NY", "lat": "42.6242", "lng": "-79.0786"}, {"name": "Horseheads", "state": "NY", "lat": "42.1689", "lng": "-76.8299"}, {"name": "Canandaigua", "state": "NY", "lat": "42.8885", "lng": "-77.2805"}, {"name": "East Norwich", "state": "NY", "lat": "40.8496", "lng": "-73.5288"}, {"name": "Camden", "state": "NY", "lat": "43.3365", "lng": "-75.7478"}, {"name": "Ridge", "state": "NY", "lat": "40.9068", "lng": "-72.8816"}, {"name": "Great Neck Plaza", "state": "NY", "lat": "40.7869", "lng": "-73.7261"}, {"name": "Plandome Manor", "state": "NY", "lat": "40.8146", "lng": "-73.6979"}, {"name": "Springville", "state": "NY", "lat": "42.5084", "lng": "-78.6696"}, {"name": "Port Jefferson", "state": "NY", "lat": "40.9465", "lng": "-73.0579"}, {"name": "Carthage", "state": "NY", "lat": "43.9837", "lng": "-75.6022"}, {"name": "Mountain Lodge Park", "state": "NY", "lat": "41.3862", "lng": "-74.1389"}, {"name": "Centerport", "state": "NY", "lat": "40.8943", "lng": "-73.3714"}, {"name": "Gordon Heights", "state": "NY", "lat": "40.8645", "lng": "-72.9678"}, {"name": "Bardonia", "state": "NY", "lat": "41.1129", "lng": "-73.9823"}, {"name": "Chateaugay", "state": "NY", "lat": "44.9266", "lng": "-74.0803"}, {"name": "Pottersville", "state": "NY", "lat": "43.7363", "lng": "-73.8212"}, {"name": "Hartsdale", "state": "NY", "lat": "41.0153", "lng": "-73.8036"}, {"name": "Kingston", "state": "NY", "lat": "41.9295", "lng": "-73.9968"}, {"name": "Fishkill", "state": "NY", "lat": "41.5337", "lng": "-73.8942"}, {"name": "Hastings-on-Hudson", "state": "NY", "lat": "40.9902", "lng": "-73.8801"}, {"name": "Averill Park", "state": "NY", "lat": "42.6361", "lng": "-73.5530"}, {"name": "Country Knolls", "state": "NY", "lat": "42.9141", "lng": "-73.8062"}, {"name": "Wyandanch", "state": "NY", "lat": "40.7467", "lng": "-73.3769"}, {"name": "Albertson", "state": "NY", "lat": "40.7715", "lng": "-73.6482"}, {"name": "Mannsville", "state": "NY", "lat": "43.7158", "lng": "-76.0649"}, {"name": "High Falls", "state": "NY", "lat": "41.8275", "lng": "-74.1184"}, {"name": "Tarrytown", "state": "NY", "lat": "41.0647", "lng": "-73.8673"}, {"name": "Woodsburgh", "state": "NY", "lat": "40.6215", "lng": "-73.7068"}, {"name": "Lakeland", "state": "NY", "lat": "43.0908", "lng": "-76.2426"}, {"name": "Bayport", "state": "NY", "lat": "40.7460", "lng": "-73.0546"}, {"name": "Richburg", "state": "NY", "lat": "42.0887", "lng": "-78.1565"}, {"name": "Westfield", "state": "NY", "lat": "42.3219", "lng": "-79.5747"}, {"name": "Lincolndale", "state": "NY", "lat": "41.3361", "lng": "-73.7254"}]