[{"name": "Trenton", "state": "OH", "lat": "39.4791", "lng": "-84.4620"}, {"name": "Maple Heights", "state": "OH", "lat": "41.4094", "lng": "-81.5625"}, {"name": "Amesville", "state": "OH", "lat": "39.4016", "lng": "-81.9549"}, {"name": "Belle Valley", "state": "OH", "lat": "39.7888", "lng": "-81.5565"}, {"name": "Middleburg Heights", "state": "OH", "lat": "41.3695", "lng": "-81.8151"}, {"name": "Brilliant", "state": "OH", "lat": "40.2701", "lng": "-80.6318"}, {"name": "Turpin Hills", "state": "OH", "lat": "39.1063", "lng": "-84.3703"}, {"name": "Coshocton", "state": "OH", "lat": "40.2618", "lng": "-81.8480"}, {"name": "Miamiville", "state": "OH", "lat": "39.2123", "lng": "-84.3001"}, {"name": "Aurora", "state": "OH", "lat": "41.3118", "lng": "-81.3450"}, {"name": "South Vienna", "state": "OH", "lat": "39.9295", "lng": "-83.6139"}, {"name": "Glencoe", "state": "OH", "lat": "40.0105", "lng": "-80.8814"}, {"name": "Waldo", "state": "OH", "lat": "40.4598", "lng": "-83.0848"}, {"name": "Ridgeville Corners", "state": "OH", "lat": "41.4387", "lng": "-84.2554"}, {"name": "Arlington Heights", "state": "OH", "lat": "39.2151", "lng": "-84.4555"}, {"name": "Fairfax", "state": "OH", "lat": "39.1432", "lng": "-84.3971"}, {"name": "Piqua", "state": "OH", "lat": "40.1504", "lng": "-84.2438"}, {"name": "Munroe Falls", "state": "OH", "lat": "41.1386", "lng": "-81.4344"}, {"name": "Miamitown", "state": "OH", "lat": "39.2171", "lng": "-84.7095"}, {"name": "North Olmsted", "state": "OH", "lat": "41.4150", "lng": "-81.9190"}, {"name": "Gahanna", "state": "OH", "lat": "40.0251", "lng": "-82.8637"}, {"name": "Wintersville", "state": "OH", "lat": "40.3790", "lng": "-80.7095"}, {"name": "Chippewa Park", "state": "OH", "lat": "40.5160", "lng": "-83.8875"}, {"name": "St. Paris", "state": "OH", "lat": "40.1270", "lng": "-83.9644"}, {"name": "Kirkersville", "state": "OH", "lat": "39.9500", "lng": "-82.5985"}, {"name": "Mount Healthy", "state": "OH", "lat": "39.2338", "lng": "-84.5474"}, {"name": "Lodi", "state": "OH", "lat": "41.0349", "lng": "-82.0123"}, {"name": "Whitehall", "state": "OH", "lat": "39.9682", "lng": "-82.8833"}, {"name": "Green Meadows", "state": "OH", "lat": "39.8672", "lng": "-83.9454"}, {"name": "Devola", "state": "OH", "lat": "39.4739", "lng": "-81.4680"}, {"name": "Custar", "state": "OH", "lat": "41.2846", "lng": "-83.8438"}, {"name": "Perry Heights", "state": "OH", "lat": "40.7978", "lng": "-81.4680"}, {"name": "Irondale", "state": "OH", "lat": "40.5728", "lng": "-80.7259"}, {"name": "Midway", "state": "OH", "lat": "39.7330", "lng": "-83.4765"}, {"name": "Brownsville", "state": "OH", "lat": "39.9438", "lng": "-82.2517"}, {"name": "New Paris", "state": "OH", "lat": "39.8564", "lng": "-84.7922"}, {"name": "Northbrook", "state": "OH", "lat": "39.2466", "lng": "-84.5795"}, {"name": "Flat Rock", "state": "OH", "lat": "41.2355", "lng": "-82.8592"}, {"name": "Dellroy", "state": "OH", "lat": "40.5550", "lng": "-81.1992"}, {"name": "Belmont", "state": "OH", "lat": "40.0279", "lng": "-81.0410"}, {"name": "Magnetic Springs", "state": "OH", "lat": "40.3534", "lng": "-83.2628"}, {"name": "Berlin", "state": "OH", "lat": "40.5628", "lng": "-81.8011"}, {"name": "Creston", "state": "OH", "lat": "40.9764", "lng": "-81.9000"}, {"name": "Rockford", "state": "OH", "lat": "40.6915", "lng": "-84.6502"}, {"name": "Norwood", "state": "OH", "lat": "39.1604", "lng": "-84.4534"}, {"name": "Blacklick Estates", "state": "OH", "lat": "39.9049", "lng": "-82.8655"}, {"name": "Grover Hill", "state": "OH", "lat": "41.0190", "lng": "-84.4775"}, {"name": "Stoutsville", "state": "OH", "lat": "39.6049", "lng": "-82.8235"}, {"name": "Waverly", "state": "OH", "lat": "39.1256", "lng": "-82.9836"}, {"name": "Florida", "state": "OH", "lat": "41.3237", "lng": "-84.2004"}, {"name": "Brookville", "state": "OH", "lat": "39.8393", "lng": "-84.4176"}, {"name": "Louisville", "state": "OH", "lat": "40.8370", "lng": "-81.2644"}, {"name": "Lindsey", "state": "OH", "lat": "41.4216", "lng": "-83.2210"}, {"name": "Granville", "state": "OH", "lat": "40.0648", "lng": "-82.5025"}, {"name": "Eastlake", "state": "OH", "lat": "41.6581", "lng": "-81.4323"}, {"name": "Hillsboro", "state": "OH", "lat": "39.2123", "lng": "-83.6113"}, {"name": "Logan Elm Village", "state": "OH", "lat": "39.5705", "lng": "-82.9471"}, {"name": "Belle Center", "state": "OH", "lat": "40.5090", "lng": "-83.7453"}, {"name": "Grandview Heights", "state": "OH", "lat": "39.9793", "lng": "-83.0409"}, {"name": "South Charleston", "state": "OH", "lat": "39.8243", "lng": "-83.6416"}, {"name": "Lockland", "state": "OH", "lat": "39.2277", "lng": "-84.4564"}, {"name": "Orangeville", "state": "OH", "lat": "41.3421", "lng": "-80.5277"}, {"name": "Northfield", "state": "OH", "lat": "41.3427", "lng": "-81.5286"}, {"name": "Newcomerstown", "state": "OH", "lat": "40.2761", "lng": "-81.5949"}, {"name": "Apple Creek", "state": "OH", "lat": "40.7486", "lng": "-81.8334"}, {"name": "Minerva Park", "state": "OH", "lat": "40.0770", "lng": "-82.9407"}, {"name": "Kimbolton", "state": "OH", "lat": "40.1508", "lng": "-81.5758"}, {"name": "Gettysburg", "state": "OH", "lat": "40.1157", "lng": "-84.4966"}, {"name": "London", "state": "OH", "lat": "39.8936", "lng": "-83.4375"}, {"name": "Shawnee", "state": "OH", "lat": "39.6063", "lng": "-82.2046"}, {"name": "Kirtland", "state": "OH", "lat": "41.5969", "lng": "-81.3406"}, {"name": "Hamden", "state": "OH", "lat": "39.1591", "lng": "-82.5243"}, {"name": "Damascus", "state": "OH", "lat": "40.9042", "lng": "-80.9524"}, {"name": "Pepper Pike", "state": "OH", "lat": "41.4801", "lng": "-81.4620"}, {"name": "Fredericktown", "state": "OH", "lat": "40.4784", "lng": "-82.5485"}, {"name": "Osgood", "state": "OH", "lat": "40.3394", "lng": "-84.4957"}, {"name": "Smithfield", "state": "OH", "lat": "40.2715", "lng": "-80.7773"}, {"name": "Orange", "state": "OH", "lat": "41.4415", "lng": "-81.4743"}, {"name": "Woodsfield", "state": "OH", "lat": "39.7631", "lng": "-81.1168"}, {"name": "Bethesda", "state": "OH", "lat": "40.0164", "lng": "-81.0727"}, {"name": "Metamora", "state": "OH", "lat": "41.7113", "lng": "-83.9057"}, {"name": "Lakeline", "state": "OH", "lat": "41.6596", "lng": "-81.4543"}, {"name": "North Robinson", "state": "OH", "lat": "40.7924", "lng": "-82.8568"}, {"name": "Dunkirk", "state": "OH", "lat": "40.7880", "lng": "-83.6430"}, {"name": "Lakemore", "state": "OH", "lat": "41.0215", "lng": "-81.4264"}, {"name": "Proctorville", "state": "OH", "lat": "38.4375", "lng": "-82.3818"}, {"name": "Minford", "state": "OH", "lat": "38.8618", "lng": "-82.8552"}, {"name": "Burkettsville", "state": "OH", "lat": "40.3530", "lng": "-84.6426"}, {"name": "South Point", "state": "OH", "lat": "38.4214", "lng": "-82.5784"}, {"name": "Milan", "state": "OH", "lat": "41.2883", "lng": "-82.5995"}, {"name": "Galena", "state": "OH", "lat": "40.2219", "lng": "-82.8802"}, {"name": "Beavercreek", "state": "OH", "lat": "39.7310", "lng": "-84.0624"}, {"name": "Akron", "state": "OH", "lat": "41.0798", "lng": "-81.5219"}, {"name": "Urbana", "state": "OH", "lat": "40.1089", "lng": "-83.7541"}, {"name": "South Webster", "state": "OH", "lat": "38.8170", "lng": "-82.7282"}, {"name": "Independence", "state": "OH", "lat": "41.3780", "lng": "-81.6385"}, {"name": "Uniontown", "state": "OH", "lat": "40.9736", "lng": "-81.4045"}, {"name": "Neapolis", "state": "OH", "lat": "41.4906", "lng": "-83.8747"}, {"name": "Plain City", "state": "OH", "lat": "40.1067", "lng": "-83.2693"}, {"name": "Sarahsville", "state": "OH", "lat": "39.8075", "lng": "-81.4692"}, {"name": "Columbiana", "state": "OH", "lat": "40.8871", "lng": "-80.6749"}, {"name": "Baltic", "state": "OH", "lat": "40.4436", "lng": "-81.7016"}, {"name": "Stewart", "state": "OH", "lat": "39.3080", "lng": "-81.8974"}, {"name": "Pickerington", "state": "OH", "lat": "39.8890", "lng": "-82.7678"}, {"name": "Trinway", "state": "OH", "lat": "40.1376", "lng": "-82.0119"}, {"name": "Rossford", "state": "OH", "lat": "41.5832", "lng": "-83.5692"}, {"name": "Columbus Grove", "state": "OH", "lat": "40.9205", "lng": "-84.0597"}, {"name": "West Jefferson", "state": "OH", "lat": "39.9488", "lng": "-83.3026"}, {"name": "Conesville", "state": "OH", "lat": "40.1850", "lng": "-81.8919"}, {"name": "Seven Mile", "state": "OH", "lat": "39.4859", "lng": "-84.5522"}, {"name": "Peebles", "state": "OH", "lat": "38.9463", "lng": "-83.4094"}, {"name": "Venedocia", "state": "OH", "lat": "40.7852", "lng": "-84.4559"}, {"name": "Lake Darby", "state": "OH", "lat": "39.9604", "lng": "-83.2243"}, {"name": "Danville", "state": "OH", "lat": "40.4470", "lng": "-82.2607"}, {"name": "Cloverdale", "state": "OH", "lat": "41.0193", "lng": "-84.3035"}, {"name": "Kenton", "state": "OH", "lat": "40.6446", "lng": "-83.6099"}, {"name": "Hicksville", "state": "OH", "lat": "41.2944", "lng": "-84.7648"}, {"name": "Strasburg", "state": "OH", "lat": "40.6007", "lng": "-81.5295"}, {"name": "Blue Jay", "state": "OH", "lat": "39.2308", "lng": "-84.7442"}, {"name": "St. Johns", "state": "OH", "lat": "40.5558", "lng": "-84.0796"}, {"name": "Mount Orab", "state": "OH", "lat": "39.0293", "lng": "-83.9267"}, {"name": "Toronto", "state": "OH", "lat": "40.4581", "lng": "-80.6096"}, {"name": "Harveysburg", "state": "OH", "lat": "39.5022", "lng": "-83.9984"}, {"name": "Sycamore", "state": "OH", "lat": "40.9517", "lng": "-83.1709"}, {"name": "Poland", "state": "OH", "lat": "41.0220", "lng": "-80.6156"}, {"name": "Lake Tomahawk", "state": "OH", "lat": "40.7638", "lng": "-80.5952"}, {"name": "Canal Fulton", "state": "OH", "lat": "40.8896", "lng": "-81.5887"}, {"name": "Timberlake", "state": "OH", "lat": "41.6655", "lng": "-81.4428"}, {"name": "Morristown", "state": "OH", "lat": "40.0638", "lng": "-81.0695"}, {"name": "New Holland", "state": "OH", "lat": "39.5545", "lng": "-83.2595"}, {"name": "Bay Village", "state": "OH", "lat": "41.4851", "lng": "-81.9315"}, {"name": "Meyers Lake", "state": "OH", "lat": "40.8159", "lng": "-81.4165"}, {"name": "Pataskala", "state": "OH", "lat": "40.0110", "lng": "-82.7155"}, {"name": "Hoytville", "state": "OH", "lat": "41.1900", "lng": "-83.7844"}, {"name": "Bradford", "state": "OH", "lat": "40.1319", "lng": "-84.4293"}, {"name": "Rogers", "state": "OH", "lat": "40.7897", "lng": "-80.6275"}, {"name": "Yellow Springs", "state": "OH", "lat": "39.7986", "lng": "-83.8905"}, {"name": "Dennison", "state": "OH", "lat": "40.3972", "lng": "-81.3275"}, {"name": "Hartford", "state": "OH", "lat": "40.2395", "lng": "-82.6884"}, {"name": "Dover", "state": "OH", "lat": "40.5302", "lng": "-81.4805"}, {"name": "Westerville", "state": "OH", "lat": "40.1241", "lng": "-82.9209"}, {"name": "New Lebanon", "state": "OH", "lat": "39.7440", "lng": "-84.3943"}, {"name": "Port Clinton", "state": "OH", "lat": "41.5094", "lng": "-82.9383"}, {"name": "Madeira", "state": "OH", "lat": "39.1854", "lng": "-84.3734"}, {"name": "Nevada", "state": "OH", "lat": "40.8188", "lng": "-83.1312"}, {"name": "Lake Lorelei", "state": "OH", "lat": "39.1875", "lng": "-83.9716"}, {"name": "Cumberland", "state": "OH", "lat": "39.8530", "lng": "-81.6588"}, {"name": "Chagrin Falls", "state": "OH", "lat": "41.4321", "lng": "-81.3887"}, {"name": "Waterville", "state": "OH", "lat": "41.5015", "lng": "-83.7365"}, {"name": "West Portsmouth", "state": "OH", "lat": "38.7622", "lng": "-83.0416"}, {"name": "Vinton", "state": "OH", "lat": "38.9776", "lng": "-82.3374"}, {"name": "Jenera", "state": "OH", "lat": "40.8995", "lng": "-83.7271"}, {"name": "Ansonia", "state": "OH", "lat": "40.2141", "lng": "-84.6344"}, {"name": "Silver Lake", "state": "OH", "lat": "41.1593", "lng": "-81.4605"}, {"name": "East Canton", "state": "OH", "lat": "40.7890", "lng": "-81.2837"}, {"name": "Versailles", "state": "OH", "lat": "40.2225", "lng": "-84.4831"}, {"name": "Vanlue", "state": "OH", "lat": "40.9751", "lng": "-83.4824"}, {"name": "Beckett Ridge", "state": "OH", "lat": "39.3448", "lng": "-84.4381"}, {"name": "Riverside", "state": "OH", "lat": "39.7836", "lng": "-84.1219"}, {"name": "Fort Recovery", "state": "OH", "lat": "40.4112", "lng": "-84.7761"}, {"name": "Montezuma", "state": "OH", "lat": "40.4891", "lng": "-84.5498"}, {"name": "Perrysville", "state": "OH", "lat": "40.6584", "lng": "-82.3144"}, {"name": "Chesapeake", "state": "OH", "lat": "38.4298", "lng": "-82.4489"}, {"name": "Lexington", "state": "OH", "lat": "40.6800", "lng": "-82.5793"}, {"name": "Dupont", "state": "OH", "lat": "41.0547", "lng": "-84.3011"}, {"name": "Shadyside", "state": "OH", "lat": "39.9716", "lng": "-80.7511"}, {"name": "New London", "state": "OH", "lat": "41.0796", "lng": "-82.4066"}, {"name": "Twinsburg", "state": "OH", "lat": "41.3220", "lng": "-81.4451"}, {"name": "Dry Ridge", "state": "OH", "lat": "39.2587", "lng": "-84.6339"}, {"name": "Lancaster", "state": "OH", "lat": "39.7249", "lng": "-82.6049"}, {"name": "Brewster", "state": "OH", "lat": "40.7135", "lng": "-81.5990"}, {"name": "Somerville", "state": "OH", "lat": "39.5639", "lng": "-84.6391"}, {"name": "Doylestown", "state": "OH", "lat": "40.9699", "lng": "-81.6958"}, {"name": "Pettisville", "state": "OH", "lat": "41.5323", "lng": "-84.2231"}, {"name": "Linndale", "state": "OH", "lat": "41.4450", "lng": "-81.7667"}, {"name": "Adelphi", "state": "OH", "lat": "39.4647", "lng": "-82.7456"}, {"name": "Sidney", "state": "OH", "lat": "40.2891", "lng": "-84.1667"}, {"name": "Buford", "state": "OH", "lat": "39.0721", "lng": "-83.8393"}, {"name": "Sixteen Mile Stand", "state": "OH", "lat": "39.2749", "lng": "-84.3265"}, {"name": "Coal Grove", "state": "OH", "lat": "38.4976", "lng": "-82.6423"}, {"name": "Caledonia", "state": "OH", "lat": "40.6363", "lng": "-82.9694"}, {"name": "Stockport", "state": "OH", "lat": "39.5489", "lng": "-81.7944"}, {"name": "Boardman", "state": "OH", "lat": "41.0334", "lng": "-80.6671"}, {"name": "Swanton", "state": "OH", "lat": "41.5840", "lng": "-83.8881"}, {"name": "Macedonia", "state": "OH", "lat": "41.3147", "lng": "-81.4989"}, {"name": "Orwell", "state": "OH", "lat": "41.5364", "lng": "-80.8597"}, {"name": "Windham", "state": "OH", "lat": "41.2375", "lng": "-81.0373"}, {"name": "Dillonvale", "state": "OH", "lat": "40.1985", "lng": "-80.7757"}, {"name": "New Concord", "state": "OH", "lat": "39.9948", "lng": "-81.7379"}, {"name": "Yorkville", "state": "OH", "lat": "40.1528", "lng": "-80.7079"}, {"name": "Struthers", "state": "OH", "lat": "41.0510", "lng": "-80.5920"}, {"name": "Portsmouth", "state": "OH", "lat": "38.7539", "lng": "-82.9446"}, {"name": "Woodstock", "state": "OH", "lat": "40.1736", "lng": "-83.5281"}, {"name": "Highpoint", "state": "OH", "lat": "39.2892", "lng": "-84.3472"}, {"name": "Clay Center", "state": "OH", "lat": "41.5733", "lng": "-83.3643"}, {"name": "Union", "state": "OH", "lat": "39.9090", "lng": "-84.2897"}, {"name": "Kettlersville", "state": "OH", "lat": "40.4389", "lng": "-84.2597"}, {"name": "Junction City", "state": "OH", "lat": "39.7218", "lng": "-82.2997"}, {"name": "South Lebanon", "state": "OH", "lat": "39.3687", "lng": "-84.2190"}, {"name": "Unionville Center", "state": "OH", "lat": "40.1368", "lng": "-83.3416"}, {"name": "Senecaville", "state": "OH", "lat": "39.9348", "lng": "-81.4594"}, {"name": "Chilo", "state": "OH", "lat": "38.7934", "lng": "-84.1373"}, {"name": "Coldwater", "state": "OH", "lat": "40.4833", "lng": "-84.6317"}, {"name": "Concorde Hills", "state": "OH", "lat": "39.2108", "lng": "-84.3570"}, {"name": "Bloomingburg", "state": "OH", "lat": "39.6079", "lng": "-83.3953"}, {"name": "Mount Gilead", "state": "OH", "lat": "40.5533", "lng": "-82.8279"}, {"name": "Orrville", "state": "OH", "lat": "40.8482", "lng": "-81.7747"}, {"name": "Thurston", "state": "OH", "lat": "39.8451", "lng": "-82.5531"}, {"name": "Darbyville", "state": "OH", "lat": "39.6957", "lng": "-83.1139"}, {"name": "Canal Winchester", "state": "OH", "lat": "39.8432", "lng": "-82.8121"}, {"name": "Tiffin", "state": "OH", "lat": "41.1165", "lng": "-83.1805"}, {"name": "Zanesville", "state": "OH", "lat": "39.9567", "lng": "-82.0133"}, {"name": "Hessville", "state": "OH", "lat": "41.4030", "lng": "-83.2430"}, {"name": "Laurelville", "state": "OH", "lat": "39.4719", "lng": "-82.7374"}, {"name": "Lucas", "state": "OH", "lat": "40.7042", "lng": "-82.4222"}, {"name": "The Plains", "state": "OH", "lat": "39.3655", "lng": "-82.1344"}, {"name": "Rome", "state": "OH", "lat": "38.6657", "lng": "-83.3793"}, {"name": "Pandora", "state": "OH", "lat": "40.9474", "lng": "-83.9567"}, {"name": "North Canton", "state": "OH", "lat": "40.8742", "lng": "-81.3971"}, {"name": "Spencer", "state": "OH", "lat": "41.0991", "lng": "-82.1231"}, {"name": "Duncan Falls", "state": "OH", "lat": "39.8777", "lng": "-81.9111"}, {"name": "Port William", "state": "OH", "lat": "39.5523", "lng": "-83.7856"}, {"name": "Martinsburg", "state": "OH", "lat": "40.2696", "lng": "-82.3545"}, {"name": "Campbell", "state": "OH", "lat": "41.0777", "lng": "-80.5903"}, {"name": "Graysville", "state": "OH", "lat": "39.6633", "lng": "-81.1746"}, {"name": "Sandyville", "state": "OH", "lat": "40.6466", "lng": "-81.3671"}, {"name": "Greenwich", "state": "OH", "lat": "41.0318", "lng": "-82.5198"}, {"name": "Clarksville", "state": "OH", "lat": "39.4016", "lng": "-83.9828"}, {"name": "Cortland", "state": "OH", "lat": "41.3320", "lng": "-80.7195"}, {"name": "Castine", "state": "OH", "lat": "39.9311", "lng": "-84.6247"}, {"name": "Mineral Ridge", "state": "OH", "lat": "41.1379", "lng": "-80.7653"}, {"name": "South Russell", "state": "OH", "lat": "41.4318", "lng": "-81.3351"}, {"name": "Rocky River", "state": "OH", "lat": "41.4703", "lng": "-81.8526"}, {"name": "Stryker", "state": "OH", "lat": "41.5026", "lng": "-84.4183"}, {"name": "Wakeman", "state": "OH", "lat": "41.2530", "lng": "-82.4028"}, {"name": "New Straitsville", "state": "OH", "lat": "39.5793", "lng": "-82.2343"}, {"name": "Athens", "state": "OH", "lat": "39.3269", "lng": "-82.0987"}, {"name": "Barnhill", "state": "OH", "lat": "40.4497", "lng": "-81.3679"}, {"name": "Leesville", "state": "OH", "lat": "40.4520", "lng": "-81.2096"}, {"name": "Taylor Creek", "state": "OH", "lat": "39.2364", "lng": "-84.6796"}, {"name": "New Haven", "state": "OH", "lat": "39.2773", "lng": "-84.7446"}, {"name": "Westfield Center", "state": "OH", "lat": "41.0283", "lng": "-81.9314"}, {"name": "Verona", "state": "OH", "lat": "39.9018", "lng": "-84.4959"}, {"name": "Bairdstown", "state": "OH", "lat": "41.1711", "lng": "-83.6072"}, {"name": "Tipp City", "state": "OH", "lat": "39.9643", "lng": "-84.1858"}, {"name": "Gallipolis", "state": "OH", "lat": "38.8186", "lng": "-82.1934"}, {"name": "Columbus", "state": "OH", "lat": "39.9860", "lng": "-82.9851"}, {"name": "Belpre", "state": "OH", "lat": "39.2815", "lng": "-81.5971"}, {"name": "Limaville", "state": "OH", "lat": "40.9840", "lng": "-81.1483"}, {"name": "Burbank", "state": "OH", "lat": "40.9864", "lng": "-81.9947"}, {"name": "Stow", "state": "OH", "lat": "41.1765", "lng": "-81.4344"}, {"name": "Millfield", "state": "OH", "lat": "39.4340", "lng": "-82.0949"}, {"name": "Lowellville", "state": "OH", "lat": "41.0390", "lng": "-80.5463"}, {"name": "Amsterdam", "state": "OH", "lat": "40.4717", "lng": "-80.9217"}, {"name": "Obetz", "state": "OH", "lat": "39.8671", "lng": "-82.9451"}, {"name": "McKinley Heights", "state": "OH", "lat": "41.1859", "lng": "-80.7177"}, {"name": "Northridge", "state": "OH", "lat": "39.9971", "lng": "-83.7770"}, {"name": "Peninsula", "state": "OH", "lat": "41.2379", "lng": "-81.5519"}, {"name": "Stony Ridge", "state": "OH", "lat": "41.5075", "lng": "-83.5093"}, {"name": "Harbor View", "state": "OH", "lat": "41.6933", "lng": "-83.4447"}, {"name": "Matamoras", "state": "OH", "lat": "39.5203", "lng": "-81.0685"}, {"name": "Massillon", "state": "OH", "lat": "40.7839", "lng": "-81.5256"}, {"name": "Rossburg", "state": "OH", "lat": "40.2802", "lng": "-84.6384"}, {"name": "Parma Heights", "state": "OH", "lat": "41.3865", "lng": "-81.7637"}, {"name": "Woodlawn", "state": "OH", "lat": "39.2555", "lng": "-84.4709"}, {"name": "Port Washington", "state": "OH", "lat": "40.3267", "lng": "-81.5191"}, {"name": "Morral", "state": "OH", "lat": "40.6914", "lng": "-83.2098"}, {"name": "Glenmont", "state": "OH", "lat": "40.5190", "lng": "-82.0926"}, {"name": "Roseville", "state": "OH", "lat": "39.8066", "lng": "-82.0756"}, {"name": "Dent", "state": "OH", "lat": "39.1922", "lng": "-84.6593"}, {"name": "New Lexington", "state": "OH", "lat": "39.7160", "lng": "-82.2080"}, {"name": "Ravenna", "state": "OH", "lat": "41.1613", "lng": "-81.2421"}, {"name": "Dexter City", "state": "OH", "lat": "39.6592", "lng": "-81.4739"}, {"name": "Republic", "state": "OH", "lat": "41.1250", "lng": "-83.0167"}, {"name": "New Knoxville", "state": "OH", "lat": "40.4943", "lng": "-84.3158"}, {"name": "Edon", "state": "OH", "lat": "41.5562", "lng": "-84.7693"}, {"name": "Bellevue", "state": "OH", "lat": "41.2743", "lng": "-82.8395"}, {"name": "Kipton", "state": "OH", "lat": "41.2665", "lng": "-82.3040"}, {"name": "Ottawa", "state": "OH", "lat": "41.0203", "lng": "-84.0354"}, {"name": "Van Wert", "state": "OH", "lat": "40.8653", "lng": "-84.5873"}, {"name": "Stone Creek", "state": "OH", "lat": "40.3997", "lng": "-81.5580"}, {"name": "Mount Cory", "state": "OH", "lat": "40.9348", "lng": "-83.8235"}, {"name": "Kings Mills", "state": "OH", "lat": "39.3586", "lng": "-84.2505"}, {"name": "Gloria Glens Park", "state": "OH", "lat": "41.0577", "lng": "-81.9010"}, {"name": "Vermilion", "state": "OH", "lat": "41.4103", "lng": "-82.3214"}, {"name": "Laura", "state": "OH", "lat": "39.9952", "lng": "-84.4083"}, {"name": "Marion", "state": "OH", "lat": "40.5933", "lng": "-83.1236"}, {"name": "Barberton", "state": "OH", "lat": "41.0094", "lng": "-81.6037"}, {"name": "Lake Waynoka", "state": "OH", "lat": "38.9401", "lng": "-83.7786"}, {"name": "Norwalk", "state": "OH", "lat": "41.2443", "lng": "-82.6088"}, {"name": "Highland Hills", "state": "OH", "lat": "41.4507", "lng": "-81.5191"}, {"name": "Caldwell", "state": "OH", "lat": "39.7467", "lng": "-81.5127"}, {"name": "Crystal Lakes", "state": "OH", "lat": "39.8862", "lng": "-84.0243"}, {"name": "Uniopolis", "state": "OH", "lat": "40.6024", "lng": "-84.0858"}, {"name": "Burlington", "state": "OH", "lat": "38.4099", "lng": "-82.5283"}, {"name": "Buckeye Lake", "state": "OH", "lat": "39.9355", "lng": "-82.4826"}, {"name": "Springboro", "state": "OH", "lat": "39.5612", "lng": "-84.2349"}, {"name": "Green Camp", "state": "OH", "lat": "40.5321", "lng": "-83.2076"}, {"name": "Brook Park", "state": "OH", "lat": "41.4036", "lng": "-81.8219"}, {"name": "Cinnamon Lake", "state": "OH", "lat": "40.9835", "lng": "-82.1914"}, {"name": "Wharton", "state": "OH", "lat": "40.8613", "lng": "-83.4648"}, {"name": "Edgerton", "state": "OH", "lat": "41.4493", "lng": "-84.7500"}, {"name": "Drexel", "state": "OH", "lat": "39.7382", "lng": "-84.2931"}, {"name": "Whites Landing", "state": "OH", "lat": "41.4308", "lng": "-82.8960"}, {"name": "Tremont City", "state": "OH", "lat": "40.0147", "lng": "-83.8388"}, {"name": "Finneytown", "state": "OH", "lat": "39.2160", "lng": "-84.5146"}, {"name": "Enon", "state": "OH", "lat": "39.8650", "lng": "-83.9330"}, {"name": "De Graff", "state": "OH", "lat": "40.3127", "lng": "-83.9167"}, {"name": "South Salem", "state": "OH", "lat": "39.3373", "lng": "-83.3066"}, {"name": "Harpster", "state": "OH", "lat": "40.7384", "lng": "-83.2502"}, {"name": "Greentown", "state": "OH", "lat": "40.9274", "lng": "-81.4020"}, {"name": "North Star", "state": "OH", "lat": "40.3242", "lng": "-84.5692"}, {"name": "Wellston", "state": "OH", "lat": "39.1172", "lng": "-82.5375"}, {"name": "New Baltimore", "state": "OH", "lat": "39.2744", "lng": "-84.6705"}, {"name": "Ostrander", "state": "OH", "lat": "40.2684", "lng": "-83.2087"}, {"name": "Antwerp", "state": "OH", "lat": "41.1798", "lng": "-84.7378"}, {"name": "Hopedale", "state": "OH", "lat": "40.3265", "lng": "-80.8954"}, {"name": "Maple Ridge", "state": "OH", "lat": "40.9143", "lng": "-81.0468"}, {"name": "Lithopolis", "state": "OH", "lat": "39.8113", "lng": "-82.8155"}, {"name": "Holmesville", "state": "OH", "lat": "40.6290", "lng": "-81.9233"}, {"name": "Oberlin", "state": "OH", "lat": "41.2857", "lng": "-82.2197"}, {"name": "Arcadia", "state": "OH", "lat": "41.1078", "lng": "-83.5144"}, {"name": "Brooklyn Heights", "state": "OH", "lat": "41.4178", "lng": "-81.6680"}, {"name": "Dublin", "state": "OH", "lat": "40.1112", "lng": "-83.1453"}, {"name": "Higginsport", "state": "OH", "lat": "38.7900", "lng": "-83.9673"}, {"name": "Franklin", "state": "OH", "lat": "39.5538", "lng": "-84.2950"}, {"name": "Groveport", "state": "OH", "lat": "39.8585", "lng": "-82.8978"}, {"name": "Orient", "state": "OH", "lat": "39.8056", "lng": "-83.1528"}, {"name": "Churchill", "state": "OH", "lat": "41.1692", "lng": "-80.6660"}, {"name": "The Village of Indian Hill", "state": "OH", "lat": "39.1917", "lng": "-84.3341"}, {"name": "Kidron", "state": "OH", "lat": "40.7440", "lng": "-81.7467"}, {"name": "Butlerville", "state": "OH", "lat": "39.3018", "lng": "-84.0903"}, {"name": "Parma", "state": "OH", "lat": "41.3843", "lng": "-81.7286"}, {"name": "Glenford", "state": "OH", "lat": "39.8862", "lng": "-82.3198"}, {"name": "Moraine", "state": "OH", "lat": "39.6983", "lng": "-84.2459"}, {"name": "Rosewood", "state": "OH", "lat": "40.2174", "lng": "-83.9635"}, {"name": "Parral", "state": "OH", "lat": "40.5609", "lng": "-81.4950"}, {"name": "Homeworth", "state": "OH", "lat": "40.8357", "lng": "-81.0649"}, {"name": "New Albany", "state": "OH", "lat": "40.0808", "lng": "-82.7896"}, {"name": "New Bavaria", "state": "OH", "lat": "41.2037", "lng": "-84.1672"}, {"name": "Cardington", "state": "OH", "lat": "40.4980", "lng": "-82.8937"}, {"name": "Fairfield", "state": "OH", "lat": "39.3301", "lng": "-84.5405"}, {"name": "Bellville", "state": "OH", "lat": "40.6292", "lng": "-82.5238"}, {"name": "Milford", "state": "OH", "lat": "39.1700", "lng": "-84.2810"}, {"name": "Oregon", "state": "OH", "lat": "41.6528", "lng": "-83.4322"}, {"name": "Mansfield", "state": "OH", "lat": "40.7656", "lng": "-82.5275"}, {"name": "Catawba", "state": "OH", "lat": "39.9996", "lng": "-83.6219"}, {"name": "Riverlea", "state": "OH", "lat": "40.0805", "lng": "-83.0254"}, {"name": "Ohio City", "state": "OH", "lat": "40.7703", "lng": "-84.6162"}, {"name": "Rockbridge", "state": "OH", "lat": "39.5862", "lng": "-82.5262"}, {"name": "Millville", "state": "OH", "lat": "39.3924", "lng": "-84.6528"}, {"name": "Sugar Grove", "state": "OH", "lat": "39.6280", "lng": "-82.5455"}, {"name": "Russells Point", "state": "OH", "lat": "40.4681", "lng": "-83.8939"}, {"name": "Cuyahoga Heights", "state": "OH", "lat": "41.4349", "lng": "-81.6561"}, {"name": "Sharonville", "state": "OH", "lat": "39.2825", "lng": "-84.4069"}, {"name": "Richville", "state": "OH", "lat": "40.7529", "lng": "-81.4684"}, {"name": "Bowerston", "state": "OH", "lat": "40.4273", "lng": "-81.1874"}, {"name": "Pulaski", "state": "OH", "lat": "41.5108", "lng": "-84.5079"}, {"name": "North Zanesville", "state": "OH", "lat": "39.9906", "lng": "-81.9982"}, {"name": "Olmsted Falls", "state": "OH", "lat": "41.3658", "lng": "-81.9042"}, {"name": "Crooksville", "state": "OH", "lat": "39.7691", "lng": "-82.0955"}, {"name": "West Unity", "state": "OH", "lat": "41.5889", "lng": "-84.4305"}, {"name": "Middlefield", "state": "OH", "lat": "41.4604", "lng": "-81.0734"}, {"name": "Walbridge", "state": "OH", "lat": "41.5863", "lng": "-83.4930"}, {"name": "Lockbourne", "state": "OH", "lat": "39.8078", "lng": "-82.9837"}, {"name": "Pleasant Plain", "state": "OH", "lat": "39.2785", "lng": "-84.1121"}, {"name": "Chillicothe", "state": "OH", "lat": "39.3393", "lng": "-82.9937"}, {"name": "Springfield", "state": "OH", "lat": "39.9297", "lng": "-83.7957"}, {"name": "Bethel", "state": "OH", "lat": "38.9627", "lng": "-84.0847"}, {"name": "Marengo", "state": "OH", "lat": "40.4008", "lng": "-82.8108"}, {"name": "South Canal", "state": "OH", "lat": "41.1759", "lng": "-80.9864"}, {"name": "Alger", "state": "OH", "lat": "40.7095", "lng": "-83.8439"}, {"name": "Walton Hills", "state": "OH", "lat": "41.3662", "lng": "-81.5554"}, {"name": "Latty", "state": "OH", "lat": "41.0879", "lng": "-84.5832"}, {"name": "Hemlock", "state": "OH", "lat": "39.5905", "lng": "-82.1545"}, {"name": "Golf Manor", "state": "OH", "lat": "39.1874", "lng": "-84.4468"}, {"name": "Hanging Rock", "state": "OH", "lat": "38.5599", "lng": "-82.7274"}, {"name": "Hilltop", "state": "OH", "lat": "41.1627", "lng": "-80.7408"}, {"name": "Haydenville", "state": "OH", "lat": "39.4807", "lng": "-82.3238"}, {"name": "Beloit", "state": "OH", "lat": "40.9196", "lng": "-80.9963"}, {"name": "North Hampton", "state": "OH", "lat": "39.9894", "lng": "-83.9440"}, {"name": "Bergholz", "state": "OH", "lat": "40.5208", "lng": "-80.8851"}, {"name": "Lake Lakengren", "state": "OH", "lat": "39.6894", "lng": "-84.6900"}, {"name": "Yorkshire", "state": "OH", "lat": "40.3252", "lng": "-84.4950"}, {"name": "West Elkton", "state": "OH", "lat": "39.5881", "lng": "-84.5597"}, {"name": "Trotwood", "state": "OH", "lat": "39.7927", "lng": "-84.3165"}, {"name": "Parkman", "state": "OH", "lat": "41.3722", "lng": "-81.0591"}, {"name": "Pottery Addition", "state": "OH", "lat": "40.4031", "lng": "-80.6241"}, {"name": "West Mansfield", "state": "OH", "lat": "40.4007", "lng": "-83.5444"}, {"name": "Cairo", "state": "OH", "lat": "40.8307", "lng": "-84.0846"}, {"name": "Winesburg", "state": "OH", "lat": "40.6177", "lng": "-81.6948"}, {"name": "Chippewa Lake", "state": "OH", "lat": "41.0737", "lng": "-81.9047"}, {"name": "Carlisle", "state": "OH", "lat": "39.5807", "lng": "-84.3201"}, {"name": "Jackson", "state": "OH", "lat": "39.0460", "lng": "-82.6493"}, {"name": "Blakeslee", "state": "OH", "lat": "41.5243", "lng": "-84.7309"}, {"name": "Kilbourne", "state": "OH", "lat": "40.3323", "lng": "-82.9592"}, {"name": "Bannock", "state": "OH", "lat": "40.1043", "lng": "-80.9757"}, {"name": "Kent", "state": "OH", "lat": "41.1490", "lng": "-81.3610"}, {"name": "Little Hocking", "state": "OH", "lat": "39.2607", "lng": "-81.7019"}, {"name": "Summitville", "state": "OH", "lat": "40.6760", "lng": "-80.8875"}, {"name": "Sheffield", "state": "OH", "lat": "41.4559", "lng": "-82.0912"}, {"name": "Hiram", "state": "OH", "lat": "41.3113", "lng": "-81.1429"}, {"name": "Glendale", "state": "OH", "lat": "39.2705", "lng": "-84.4579"}, {"name": "North Kingsville", "state": "OH", "lat": "41.9189", "lng": "-80.6724"}, {"name": "Cheviot", "state": "OH", "lat": "39.1578", "lng": "-84.6138"}, {"name": "Gordon", "state": "OH", "lat": "39.9303", "lng": "-84.5091"}, {"name": "Evendale", "state": "OH", "lat": "39.2508", "lng": "-84.4265"}, {"name": "Rayland", "state": "OH", "lat": "40.1842", "lng": "-80.6911"}, {"name": "Streetsboro", "state": "OH", "lat": "41.2396", "lng": "-81.3456"}, {"name": "Lyons", "state": "OH", "lat": "41.7004", "lng": "-84.0718"}, {"name": "Roswell", "state": "OH", "lat": "40.4759", "lng": "-81.3480"}, {"name": "Nettle Lake", "state": "OH", "lat": "41.6785", "lng": "-84.7271"}, {"name": "Haviland", "state": "OH", "lat": "41.0178", "lng": "-84.5853"}, {"name": "Hilliard", "state": "OH", "lat": "40.0353", "lng": "-83.1578"}, {"name": "North College Hill", "state": "OH", "lat": "39.2173", "lng": "-84.5518"}, {"name": "Mifflin", "state": "OH", "lat": "40.7735", "lng": "-82.3639"}, {"name": "Moscow", "state": "OH", "lat": "38.8601", "lng": "-84.2281"}, {"name": "Elmwood Place", "state": "OH", "lat": "39.1855", "lng": "-84.4889"}, {"name": "Corning", "state": "OH", "lat": "39.6016", "lng": "-82.0876"}, {"name": "Bloomingdale", "state": "OH", "lat": "40.3421", "lng": "-80.8180"}, {"name": "Crestline", "state": "OH", "lat": "40.7836", "lng": "-82.7458"}, {"name": "Vienna Center", "state": "OH", "lat": "41.2345", "lng": "-80.6541"}, {"name": "Youngstown", "state": "OH", "lat": "41.0993", "lng": "-80.6463"}, {"name": "Willowick", "state": "OH", "lat": "41.6343", "lng": "-81.4680"}, {"name": "Russia", "state": "OH", "lat": "40.2341", "lng": "-84.4073"}, {"name": "Prospect", "state": "OH", "lat": "40.4540", "lng": "-83.1848"}, {"name": "Mount Eaton", "state": "OH", "lat": "40.6952", "lng": "-81.7024"}, {"name": "Amherst", "state": "OH", "lat": "41.4022", "lng": "-82.2303"}, {"name": "West Salem", "state": "OH", "lat": "40.9697", "lng": "-82.1078"}, {"name": "Reno", "state": "OH", "lat": "39.3769", "lng": "-81.3932"}, {"name": "Champion Heights", "state": "OH", "lat": "41.3031", "lng": "-80.8514"}, {"name": "Wellsville", "state": "OH", "lat": "40.6042", "lng": "-80.6550"}, {"name": "Warsaw", "state": "OH", "lat": "40.3360", "lng": "-82.0019"}, {"name": "Terrace Park", "state": "OH", "lat": "39.1584", "lng": "-84.3111"}, {"name": "Middletown", "state": "OH", "lat": "39.5032", "lng": "-84.3660"}, {"name": "Malta", "state": "OH", "lat": "39.6515", "lng": "-81.8639"}, {"name": "Canton", "state": "OH", "lat": "40.8076", "lng": "-81.3678"}, {"name": "Huber Ridge", "state": "OH", "lat": "40.0909", "lng": "-82.9174"}, {"name": "Jefferson", "state": "OH", "lat": "41.7383", "lng": "-80.7690"}, {"name": "Greenhills", "state": "OH", "lat": "39.2669", "lng": "-84.5191"}, {"name": "Spring Valley", "state": "OH", "lat": "39.6103", "lng": "-84.0069"}, {"name": "Fort Shawnee", "state": "OH", "lat": "40.6814", "lng": "-84.1487"}, {"name": "Howland Center", "state": "OH", "lat": "41.2483", "lng": "-80.7444"}, {"name": "Marysville", "state": "OH", "lat": "40.2276", "lng": "-83.3594"}, {"name": "Hooven", "state": "OH", "lat": "39.1863", "lng": "-84.7632"}, {"name": "Coolville", "state": "OH", "lat": "39.2201", "lng": "-81.7977"}, {"name": "Washington Court House", "state": "OH", "lat": "39.5383", "lng": "-83.4279"}, {"name": "Corwin", "state": "OH", "lat": "39.5249", "lng": "-84.0676"}, {"name": "McConnelsville", "state": "OH", "lat": "39.6568", "lng": "-81.8467"}, {"name": "Bentleyville", "state": "OH", "lat": "41.4122", "lng": "-81.4121"}, {"name": "Madison", "state": "OH", "lat": "41.7722", "lng": "-81.0530"}, {"name": "Phillipsburg", "state": "OH", "lat": "39.9040", "lng": "-84.4009"}, {"name": "Convoy", "state": "OH", "lat": "40.9179", "lng": "-84.7053"}, {"name": "Delphos", "state": "OH", "lat": "40.8481", "lng": "-84.3368"}, {"name": "Troy", "state": "OH", "lat": "40.0435", "lng": "-84.2189"}, {"name": "Helena", "state": "OH", "lat": "41.3403", "lng": "-83.2921"}, {"name": "Fletcher", "state": "OH", "lat": "40.1417", "lng": "-84.1119"}, {"name": "New Bremen", "state": "OH", "lat": "40.4355", "lng": "-84.3775"}, {"name": "New Madison", "state": "OH", "lat": "39.9677", "lng": "-84.7082"}, {"name": "Williston", "state": "OH", "lat": "41.6026", "lng": "-83.3419"}, {"name": "Richmond Heights", "state": "OH", "lat": "41.5589", "lng": "-81.5029"}, {"name": "Haskins", "state": "OH", "lat": "41.4648", "lng": "-83.7043"}, {"name": "Mount Victory", "state": "OH", "lat": "40.5335", "lng": "-83.5202"}, {"name": "Lansing", "state": "OH", "lat": "40.0758", "lng": "-80.7920"}, {"name": "Sherrodsville", "state": "OH", "lat": "40.4945", "lng": "-81.2441"}, {"name": "Kanauga", "state": "OH", "lat": "38.8411", "lng": "-82.1495"}, {"name": "Bloomdale", "state": "OH", "lat": "41.1716", "lng": "-83.5534"}, {"name": "Fairview", "state": "OH", "lat": "40.0573", "lng": "-81.2350"}, {"name": "Delhi Hills", "state": "OH", "lat": "39.0871", "lng": "-84.6178"}, {"name": "Gratiot", "state": "OH", "lat": "39.9515", "lng": "-82.2167"}, {"name": "Owensville", "state": "OH", "lat": "39.1242", "lng": "-84.1366"}, {"name": "Cheshire", "state": "OH", "lat": "38.9502", "lng": "-82.1130"}, {"name": "Garrettsville", "state": "OH", "lat": "41.2843", "lng": "-81.0933"}, {"name": "Amanda", "state": "OH", "lat": "39.6502", "lng": "-82.7421"}, {"name": "Green", "state": "OH", "lat": "40.9483", "lng": "-81.4757"}, {"name": "Sheffield Lake", "state": "OH", "lat": "41.4884", "lng": "-82.0978"}, {"name": "New Pittsburg", "state": "OH", "lat": "40.8416", "lng": "-82.0989"}, {"name": "Euclid", "state": "OH", "lat": "41.5904", "lng": "-81.5188"}, {"name": "Willard", "state": "OH", "lat": "41.0518", "lng": "-82.7232"}, {"name": "Holiday Lakes", "state": "OH", "lat": "41.0923", "lng": "-82.7292"}, {"name": "Reading", "state": "OH", "lat": "39.2241", "lng": "-84.4332"}, {"name": "Masury", "state": "OH", "lat": "41.2083", "lng": "-80.5378"}, {"name": "Mowrystown", "state": "OH", "lat": "39.0405", "lng": "-83.7518"}, {"name": "Forest Park", "state": "OH", "lat": "39.2860", "lng": "-84.5259"}, {"name": "Clayton", "state": "OH", "lat": "39.8689", "lng": "-84.3292"}, {"name": "Marseilles", "state": "OH", "lat": "40.7018", "lng": "-83.3920"}, {"name": "Commercial Point", "state": "OH", "lat": "39.7813", "lng": "-83.0382"}, {"name": "Newton Falls", "state": "OH", "lat": "41.1888", "lng": "-80.9712"}, {"name": "Negley", "state": "OH", "lat": "40.7927", "lng": "-80.5360"}, {"name": "Marietta", "state": "OH", "lat": "39.4241", "lng": "-81.4465"}, {"name": "Bellaire", "state": "OH", "lat": "40.0177", "lng": "-80.7469"}, {"name": "Mentor", "state": "OH", "lat": "41.6895", "lng": "-81.3361"}, {"name": "LaGrange", "state": "OH", "lat": "41.2400", "lng": "-82.1181"}, {"name": "Chardon", "state": "OH", "lat": "41.5803", "lng": "-81.2081"}, {"name": "Killbuck", "state": "OH", "lat": "40.4961", "lng": "-81.9825"}, {"name": "Howard", "state": "OH", "lat": "40.4092", "lng": "-82.3275"}, {"name": "Kenwood", "state": "OH", "lat": "39.2068", "lng": "-84.3744"}, {"name": "Lake Milton", "state": "OH", "lat": "41.0960", "lng": "-80.9812"}, {"name": "West Rushville", "state": "OH", "lat": "39.7639", "lng": "-82.4485"}, {"name": "Newburgh Heights", "state": "OH", "lat": "41.4509", "lng": "-81.6627"}, {"name": "Lowell", "state": "OH", "lat": "39.5292", "lng": "-81.5068"}, {"name": "New Riegel", "state": "OH", "lat": "41.0520", "lng": "-83.3191"}, {"name": "Smithville", "state": "OH", "lat": "40.8623", "lng": "-81.8602"}, {"name": "Beaver", "state": "OH", "lat": "39.0319", "lng": "-82.8252"}, {"name": "Centerville", "state": "OH", "lat": "39.6339", "lng": "-84.1449"}, {"name": "Russellville", "state": "OH", "lat": "38.8673", "lng": "-83.7878"}, {"name": "New Franklin", "state": "OH", "lat": "40.9525", "lng": "-81.5838"}, {"name": "Oakwood", "state": "OH", "lat": "39.7202", "lng": "-84.1733"}, {"name": "Fort Jennings", "state": "OH", "lat": "40.9069", "lng": "-84.2996"}, {"name": "Ashtabula", "state": "OH", "lat": "41.8806", "lng": "-80.7984"}, {"name": "Sterling", "state": "OH", "lat": "40.9663", "lng": "-81.8440"}, {"name": "Millersburg", "state": "OH", "lat": "40.5534", "lng": "-81.9171"}, {"name": "Lewisville", "state": "OH", "lat": "39.7670", "lng": "-81.2181"}, {"name": "Mogadore", "state": "OH", "lat": "41.0523", "lng": "-81.3993"}, {"name": "Wellington", "state": "OH", "lat": "41.1610", "lng": "-82.2268"}, {"name": "Reminderville", "state": "OH", "lat": "41.3338", "lng": "-81.4018"}, {"name": "Ottoville", "state": "OH", "lat": "40.9343", "lng": "-84.3383"}, {"name": "Sawyerwood", "state": "OH", "lat": "41.0344", "lng": "-81.4413"}, {"name": "West Milton", "state": "OH", "lat": "39.9586", "lng": "-84.3262"}, {"name": "West Millgrove", "state": "OH", "lat": "41.2429", "lng": "-83.4913"}, {"name": "Harrison", "state": "OH", "lat": "39.2571", "lng": "-84.7882"}, {"name": "Bratenahl", "state": "OH", "lat": "41.5546", "lng": "-81.6046"}, {"name": "Washingtonville", "state": "OH", "lat": "40.8990", "lng": "-80.7677"}, {"name": "Deshler", "state": "OH", "lat": "41.2075", "lng": "-83.9056"}, {"name": "McDonald", "state": "OH", "lat": "41.1634", "lng": "-80.7230"}, {"name": "Deersville", "state": "OH", "lat": "40.3083", "lng": "-81.1880"}, {"name": "Carrollton", "state": "OH", "lat": "40.5788", "lng": "-81.0908"}, {"name": "Englewood", "state": "OH", "lat": "39.8643", "lng": "-84.3071"}, {"name": "Grove City", "state": "OH", "lat": "39.8659", "lng": "-83.0692"}, {"name": "Adamsville", "state": "OH", "lat": "40.0689", "lng": "-81.8826"}, {"name": "Marblehead", "state": "OH", "lat": "41.5222", "lng": "-82.7281"}, {"name": "Beverly", "state": "OH", "lat": "39.5500", "lng": "-81.6362"}, {"name": "Day Heights", "state": "OH", "lat": "39.1755", "lng": "-84.2275"}, {"name": "Mendon", "state": "OH", "lat": "40.6733", "lng": "-84.5175"}, {"name": "East Fultonham", "state": "OH", "lat": "39.8486", "lng": "-82.1207"}, {"name": "Lebanon", "state": "OH", "lat": "39.4250", "lng": "-84.2136"}, {"name": "McCutchenville", "state": "OH", "lat": "40.9944", "lng": "-83.2547"}, {"name": "North Lawrence", "state": "OH", "lat": "40.8417", "lng": "-81.6347"}, {"name": "New Waterford", "state": "OH", "lat": "40.8478", "lng": "-80.6188"}, {"name": "Tontogany", "state": "OH", "lat": "41.4210", "lng": "-83.7410"}, {"name": "West Hill", "state": "OH", "lat": "41.2298", "lng": "-80.5273"}, {"name": "Polk", "state": "OH", "lat": "40.9449", "lng": "-82.2147"}, {"name": "Seaman", "state": "OH", "lat": "38.9370", "lng": "-83.5753"}, {"name": "Pioneer", "state": "OH", "lat": "41.6773", "lng": "-84.5524"}, {"name": "New California", "state": "OH", "lat": "40.1503", "lng": "-83.2372"}, {"name": "Newport", "state": "OH", "lat": "39.3966", "lng": "-81.2247"}, {"name": "Sinking Spring", "state": "OH", "lat": "39.0747", "lng": "-83.3871"}, {"name": "Dry Run", "state": "OH", "lat": "39.1047", "lng": "-84.3307"}, {"name": "Dresden", "state": "OH", "lat": "40.1220", "lng": "-82.0130"}, {"name": "Old Fort", "state": "OH", "lat": "41.2419", "lng": "-83.1515"}, {"name": "Willshire", "state": "OH", "lat": "40.7465", "lng": "-84.7924"}, {"name": "Lockington", "state": "OH", "lat": "40.2075", "lng": "-84.2358"}, {"name": "Lake Buckhorn", "state": "OH", "lat": "40.4744", "lng": "-81.9082"}, {"name": "Lorain", "state": "OH", "lat": "41.4409", "lng": "-82.1840"}, {"name": "South Zanesville", "state": "OH", "lat": "39.9037", "lng": "-82.0179"}, {"name": "Rendville", "state": "OH", "lat": "39.6199", "lng": "-82.0900"}, {"name": "Northgate", "state": "OH", "lat": "39.2531", "lng": "-84.5943"}, {"name": "Grandview", "state": "OH", "lat": "39.1921", "lng": "-84.7246"}, {"name": "Cambridge", "state": "OH", "lat": "40.0221", "lng": "-81.5868"}, {"name": "Maumee", "state": "OH", "lat": "41.5696", "lng": "-83.6636"}, {"name": "Carey", "state": "OH", "lat": "40.9499", "lng": "-83.3826"}, {"name": "Zoar", "state": "OH", "lat": "40.6134", "lng": "-81.4233"}, {"name": "Lakeview", "state": "OH", "lat": "40.4875", "lng": "-83.9266"}, {"name": "Curtice", "state": "OH", "lat": "41.6160", "lng": "-83.3744"}, {"name": "Burton", "state": "OH", "lat": "41.4708", "lng": "-81.1456"}, {"name": "Jerusalem", "state": "OH", "lat": "39.8519", "lng": "-81.0961"}, {"name": "Leipsic", "state": "OH", "lat": "41.1096", "lng": "-83.9674"}, {"name": "Hide-A-Way Hills", "state": "OH", "lat": "39.6551", "lng": "-82.4660"}, {"name": "Somerset", "state": "OH", "lat": "39.8064", "lng": "-82.2995"}, {"name": "Liberty Center", "state": "OH", "lat": "41.4436", "lng": "-84.0078"}, {"name": "Franklin Furnace", "state": "OH", "lat": "38.6115", "lng": "-82.8439"}, {"name": "New Boston", "state": "OH", "lat": "38.7516", "lng": "-82.9351"}, {"name": "Old Washington", "state": "OH", "lat": "40.0376", "lng": "-81.4442"}, {"name": "East Liverpool", "state": "OH", "lat": "40.6333", "lng": "-80.5677"}, {"name": "Rocky Fork Point", "state": "OH", "lat": "39.1878", "lng": "-83.4901"}, {"name": "Canal Lewisville", "state": "OH", "lat": "40.2990", "lng": "-81.8402"}, {"name": "North Ridgeville", "state": "OH", "lat": "41.3851", "lng": "-82.0194"}, {"name": "Highland Heights", "state": "OH", "lat": "41.5518", "lng": "-81.4691"}, {"name": "New Middletown", "state": "OH", "lat": "40.9646", "lng": "-80.5597"}, {"name": "Crystal Rock", "state": "OH", "lat": "41.4480", "lng": "-82.8419"}, {"name": "Salem", "state": "OH", "lat": "40.9049", "lng": "-80.8491"}, {"name": "Pleasant Grove", "state": "OH", "lat": "39.9513", "lng": "-81.9592"}, {"name": "Bremen", "state": "OH", "lat": "39.7060", "lng": "-82.4296"}, {"name": "North Royalton", "state": "OH", "lat": "41.3138", "lng": "-81.7452"}, {"name": "Congress", "state": "OH", "lat": "40.9252", "lng": "-82.0559"}, {"name": "Bowersville", "state": "OH", "lat": "39.5808", "lng": "-83.7234"}, {"name": "Lake Mohawk", "state": "OH", "lat": "40.6608", "lng": "-81.1929"}, {"name": "Vaughnsville", "state": "OH", "lat": "40.8814", "lng": "-84.1458"}, {"name": "Darrtown", "state": "OH", "lat": "39.4975", "lng": "-84.6690"}, {"name": "Wolfhurst", "state": "OH", "lat": "40.0690", "lng": "-80.7810"}, {"name": "Forestville", "state": "OH", "lat": "39.0711", "lng": "-84.3389"}, {"name": "Malinta", "state": "OH", "lat": "41.3196", "lng": "-84.0353"}, {"name": "Miami Heights", "state": "OH", "lat": "39.1688", "lng": "-84.7149"}, {"name": "Coldstream", "state": "OH", "lat": "39.0479", "lng": "-84.3474"}, {"name": "Jamestown", "state": "OH", "lat": "39.6598", "lng": "-83.7423"}, {"name": "Candlewood Lake", "state": "OH", "lat": "40.6214", "lng": "-82.7764"}, {"name": "Cincinnati", "state": "OH", "lat": "39.1412", "lng": "-84.5060"}, {"name": "Mason", "state": "OH", "lat": "39.3571", "lng": "-84.3023"}, {"name": "Fostoria", "state": "OH", "lat": "41.1602", "lng": "-83.4120"}, {"name": "Adena", "state": "OH", "lat": "40.2166", "lng": "-80.8762"}, {"name": "Burgoon", "state": "OH", "lat": "41.2674", "lng": "-83.2508"}, {"name": "Wyoming", "state": "OH", "lat": "39.2296", "lng": "-84.4814"}, {"name": "Chesterville", "state": "OH", "lat": "40.4777", "lng": "-82.6818"}, {"name": "Cynthiana", "state": "OH", "lat": "39.1737", "lng": "-83.3484"}, {"name": "Mount Blanchard", "state": "OH", "lat": "40.8986", "lng": "-83.5569"}, {"name": "Jackson Center", "state": "OH", "lat": "40.4385", "lng": "-84.0405"}, {"name": "Lakewood", "state": "OH", "lat": "41.4824", "lng": "-81.8008"}, {"name": "Berlin Heights", "state": "OH", "lat": "41.3204", "lng": "-82.4905"}, {"name": "Gates Mills", "state": "OH", "lat": "41.5315", "lng": "-81.4100"}, {"name": "Syracuse", "state": "OH", "lat": "38.9984", "lng": "-81.9686"}, {"name": "Bridgeport", "state": "OH", "lat": "40.0673", "lng": "-80.7473"}, {"name": "Murray City", "state": "OH", "lat": "39.5097", "lng": "-82.1678"}, {"name": "West Liberty", "state": "OH", "lat": "40.2564", "lng": "-83.7586"}, {"name": "Mayfield Heights", "state": "OH", "lat": "41.5175", "lng": "-81.4534"}, {"name": "Oceola", "state": "OH", "lat": "40.8441", "lng": "-83.0947"}, {"name": "Dalton", "state": "OH", "lat": "40.7992", "lng": "-81.7038"}, {"name": "Amberley", "state": "OH", "lat": "39.2033", "lng": "-84.4283"}, {"name": "Lafferty", "state": "OH", "lat": "40.1142", "lng": "-81.0190"}, {"name": "Plymouth", "state": "OH", "lat": "40.9966", "lng": "-82.6672"}, {"name": "Gann", "state": "OH", "lat": "40.4693", "lng": "-82.1913"}, {"name": "Magnolia", "state": "OH", "lat": "40.6531", "lng": "-81.2917"}, {"name": "Greenville", "state": "OH", "lat": "40.1043", "lng": "-84.6209"}, {"name": "Beachwood", "state": "OH", "lat": "41.4759", "lng": "-81.5030"}, {"name": "Racine", "state": "OH", "lat": "38.9685", "lng": "-81.9112"}, {"name": "East Palestine", "state": "OH", "lat": "40.8392", "lng": "-80.5467"}, {"name": "Rose Farm", "state": "OH", "lat": "39.7359", "lng": "-82.0779"}, {"name": "Hunting Valley", "state": "OH", "lat": "41.4802", "lng": "-81.4108"}, {"name": "Holiday City", "state": "OH", "lat": "41.6182", "lng": "-84.5385"}, {"name": "Hanoverton", "state": "OH", "lat": "40.7547", "lng": "-80.9355"}, {"name": "Glouster", "state": "OH", "lat": "39.5023", "lng": "-82.0842"}, {"name": "Sciotodale", "state": "OH", "lat": "38.7539", "lng": "-82.8605"}, {"name": "Alexandria", "state": "OH", "lat": "40.0900", "lng": "-82.6121"}, {"name": "Elgin", "state": "OH", "lat": "40.7427", "lng": "-84.4761"}, {"name": "Beach City", "state": "OH", "lat": "40.6531", "lng": "-81.5795"}, {"name": "New Alexandria", "state": "OH", "lat": "40.2916", "lng": "-80.6750"}, {"name": "Rocky Ridge", "state": "OH", "lat": "41.5309", "lng": "-83.2126"}, {"name": "Mount Repose", "state": "OH", "lat": "39.1908", "lng": "-84.2198"}, {"name": "Lakeside", "state": "OH", "lat": "41.5408", "lng": "-82.7534"}, {"name": "Millbury", "state": "OH", "lat": "41.5648", "lng": "-83.4255"}, {"name": "Brunswick", "state": "OH", "lat": "41.2465", "lng": "-81.8198"}, {"name": "Tuscarawas", "state": "OH", "lat": "40.3934", "lng": "-81.4005"}, {"name": "Wilberforce", "state": "OH", "lat": "39.7151", "lng": "-83.8848"}, {"name": "Maineville", "state": "OH", "lat": "39.3126", "lng": "-84.1985"}, {"name": "Landen", "state": "OH", "lat": "39.3154", "lng": "-84.2768"}, {"name": "Byesville", "state": "OH", "lat": "39.9735", "lng": "-81.5459"}, {"name": "Bedford", "state": "OH", "lat": "41.3919", "lng": "-81.5359"}, {"name": "Valley View", "state": "OH", "lat": "41.3832", "lng": "-81.6067"}, {"name": "Lincoln Heights", "state": "OH", "lat": "39.2434", "lng": "-84.4568"}, {"name": "Van Buren", "state": "OH", "lat": "41.1391", "lng": "-83.6493"}, {"name": "New Hampshire", "state": "OH", "lat": "40.5540", "lng": "-83.9531"}, {"name": "Rarden", "state": "OH", "lat": "38.9233", "lng": "-83.2423"}, {"name": "Luckey", "state": "OH", "lat": "41.4525", "lng": "-83.4839"}, {"name": "Crown City", "state": "OH", "lat": "38.5901", "lng": "-82.2912"}, {"name": "New Weston", "state": "OH", "lat": "40.3370", "lng": "-84.6436"}, {"name": "Upper Arlington", "state": "OH", "lat": "40.0272", "lng": "-83.0704"}, {"name": "Celina", "state": "OH", "lat": "40.5551", "lng": "-84.5628"}, {"name": "Ballville", "state": "OH", "lat": "41.3269", "lng": "-83.1367"}, {"name": "Middleport", "state": "OH", "lat": "38.9948", "lng": "-82.0643"}, {"name": "Stockdale", "state": "OH", "lat": "38.9578", "lng": "-82.8574"}, {"name": "North Perry", "state": "OH", "lat": "41.8003", "lng": "-81.1241"}, {"name": "Sabina", "state": "OH", "lat": "39.4902", "lng": "-83.6336"}, {"name": "Shreve", "state": "OH", "lat": "40.6814", "lng": "-82.0217"}, {"name": "Wilkesville", "state": "OH", "lat": "39.0765", "lng": "-82.3271"}, {"name": "McComb", "state": "OH", "lat": "41.1068", "lng": "-83.7898"}, {"name": "Camp Dennison", "state": "OH", "lat": "39.1964", "lng": "-84.2893"}, {"name": "Hannibal", "state": "OH", "lat": "39.6719", "lng": "-80.8741"}, {"name": "Waynesfield", "state": "OH", "lat": "40.6024", "lng": "-83.9739"}, {"name": "Summerside", "state": "OH", "lat": "39.1187", "lng": "-84.2862"}, {"name": "Pitsburg", "state": "OH", "lat": "39.9871", "lng": "-84.4880"}, {"name": "Logan", "state": "OH", "lat": "39.5386", "lng": "-82.4063"}, {"name": "Scott", "state": "OH", "lat": "40.9890", "lng": "-84.5837"}, {"name": "Rushsylvania", "state": "OH", "lat": "40.4613", "lng": "-83.6712"}, {"name": "Octa", "state": "OH", "lat": "39.6132", "lng": "-83.6106"}, {"name": "Hunter", "state": "OH", "lat": "39.4947", "lng": "-84.2903"}, {"name": "Harrod", "state": "OH", "lat": "40.7074", "lng": "-83.9213"}, {"name": "Oxford", "state": "OH", "lat": "39.5061", "lng": "-84.7434"}, {"name": "West Carrollton", "state": "OH", "lat": "39.6700", "lng": "-84.2540"}, {"name": "Bryan", "state": "OH", "lat": "41.4706", "lng": "-84.5484"}, {"name": "Melmore", "state": "OH", "lat": "41.0261", "lng": "-83.1050"}, {"name": "Rutland", "state": "OH", "lat": "39.0410", "lng": "-82.1279"}, {"name": "Genoa", "state": "OH", "lat": "41.5200", "lng": "-83.3616"}, {"name": "Friendship", "state": "OH", "lat": "38.6980", "lng": "-83.1004"}, {"name": "Tuppers Plains", "state": "OH", "lat": "39.1726", "lng": "-81.8466"}, {"name": "Fruit Hill", "state": "OH", "lat": "39.0699", "lng": "-84.3670"}, {"name": "South Euclid", "state": "OH", "lat": "41.5239", "lng": "-81.5245"}, {"name": "Zaleski", "state": "OH", "lat": "39.2811", "lng": "-82.3950"}, {"name": "Berea", "state": "OH", "lat": "41.3696", "lng": "-81.8642"}, {"name": "Kinsman Center", "state": "OH", "lat": "41.4544", "lng": "-80.5854"}, {"name": "Donnelsville", "state": "OH", "lat": "39.9154", "lng": "-83.9429"}, {"name": "Perry", "state": "OH", "lat": "41.7637", "lng": "-81.1430"}, {"name": "Loveland Park", "state": "OH", "lat": "39.2944", "lng": "-84.2636"}, {"name": "Quincy", "state": "OH", "lat": "40.2956", "lng": "-83.9687"}, {"name": "Eaton Estates", "state": "OH", "lat": "41.3061", "lng": "-82.0114"}, {"name": "Shawnee Hills", "state": "OH", "lat": "40.1600", "lng": "-83.1355"}, {"name": "Grafton", "state": "OH", "lat": "41.2808", "lng": "-82.0368"}, {"name": "Norwich", "state": "OH", "lat": "39.9843", "lng": "-81.7924"}, {"name": "Antioch", "state": "OH", "lat": "39.6608", "lng": "-81.0668"}, {"name": "Chesterhill", "state": "OH", "lat": "39.4908", "lng": "-81.8667"}, {"name": "Barnesville", "state": "OH", "lat": "39.9888", "lng": "-81.1728"}, {"name": "Harrisville", "state": "OH", "lat": "40.1816", "lng": "-80.8869"}, {"name": "Mount Pleasant", "state": "OH", "lat": "40.1759", "lng": "-80.7996"}, {"name": "Hebron", "state": "OH", "lat": "39.9644", "lng": "-82.4898"}, {"name": "Groesbeck", "state": "OH", "lat": "39.2292", "lng": "-84.5969"}, {"name": "Seven Hills", "state": "OH", "lat": "41.3805", "lng": "-81.6737"}, {"name": "Pomeroy", "state": "OH", "lat": "39.0292", "lng": "-82.0340"}, {"name": "Arlington", "state": "OH", "lat": "40.8939", "lng": "-83.6529"}, {"name": "Sandusky", "state": "OH", "lat": "41.4437", "lng": "-82.7149"}, {"name": "St. Clairsville", "state": "OH", "lat": "40.0792", "lng": "-80.8997"}, {"name": "Gilboa", "state": "OH", "lat": "41.0187", "lng": "-83.9218"}, {"name": "La Rue", "state": "OH", "lat": "40.5780", "lng": "-83.3821"}, {"name": "Yankee Lake", "state": "OH", "lat": "41.2682", "lng": "-80.5680"}, {"name": "Salem Heights", "state": "OH", "lat": "39.0658", "lng": "-84.3840"}, {"name": "North Bend", "state": "OH", "lat": "39.1505", "lng": "-84.7398"}, {"name": "Elmore", "state": "OH", "lat": "41.4711", "lng": "-83.2915"}, {"name": "Fairlawn", "state": "OH", "lat": "41.1270", "lng": "-81.6215"}, {"name": "Wilson", "state": "OH", "lat": "39.8597", "lng": "-81.0689"}, {"name": "Coalton", "state": "OH", "lat": "39.1117", "lng": "-82.6108"}, {"name": "Rochester", "state": "OH", "lat": "41.1246", "lng": "-82.3058"}, {"name": "Geneva", "state": "OH", "lat": "41.8006", "lng": "-80.9462"}, {"name": "Kalida", "state": "OH", "lat": "40.9853", "lng": "-84.1947"}, {"name": "Sherwood", "state": "OH", "lat": "41.2889", "lng": "-84.5530"}, {"name": "Upper Sandusky", "state": "OH", "lat": "40.8298", "lng": "-83.2720"}, {"name": "South Bloomfield", "state": "OH", "lat": "39.7170", "lng": "-82.9930"}, {"name": "Grand Rapids", "state": "OH", "lat": "41.4077", "lng": "-83.8680"}, {"name": "Patterson", "state": "OH", "lat": "40.7823", "lng": "-83.5261"}, {"name": "Dayton", "state": "OH", "lat": "39.7797", "lng": "-84.1998"}, {"name": "Mount Healthy Heights", "state": "OH", "lat": "39.2701", "lng": "-84.5692"}, {"name": "Wright-Patterson AFB", "state": "OH", "lat": "39.8112", "lng": "-84.0574"}, {"name": "Brooklyn", "state": "OH", "lat": "41.4349", "lng": "-81.7498"}, {"name": "East Liberty", "state": "OH", "lat": "40.3339", "lng": "-83.5850"}, {"name": "Hollansburg", "state": "OH", "lat": "39.9985", "lng": "-84.7930"}, {"name": "Castalia", "state": "OH", "lat": "41.4011", "lng": "-82.8080"}, {"name": "Lewisburg", "state": "OH", "lat": "39.8508", "lng": "-84.5434"}, {"name": "Broadview Heights", "state": "OH", "lat": "41.3195", "lng": "-81.6782"}, {"name": "Berkey", "state": "OH", "lat": "41.7085", "lng": "-83.8384"}, {"name": "St. Bernard", "state": "OH", "lat": "39.1710", "lng": "-84.4956"}, {"name": "Waynesburg", "state": "OH", "lat": "40.6683", "lng": "-81.2598"}, {"name": "Skyline Acres", "state": "OH", "lat": "39.2276", "lng": "-84.5663"}, {"name": "Ney", "state": "OH", "lat": "41.3806", "lng": "-84.5211"}, {"name": "Ludlow Falls", "state": "OH", "lat": "39.9981", "lng": "-84.3392"}, {"name": "Jeffersonville", "state": "OH", "lat": "39.6522", "lng": "-83.5550"}, {"name": "Wayne", "state": "OH", "lat": "41.3010", "lng": "-83.4717"}, {"name": "University Heights", "state": "OH", "lat": "41.4948", "lng": "-81.5348"}, {"name": "Salineville", "state": "OH", "lat": "40.6207", "lng": "-80.8345"}, {"name": "Gratis", "state": "OH", "lat": "39.6484", "lng": "-84.5286"}, {"name": "New Vienna", "state": "OH", "lat": "39.3256", "lng": "-83.6937"}, {"name": "Roaming Shores", "state": "OH", "lat": "41.6366", "lng": "-80.8249"}, {"name": "Sardinia", "state": "OH", "lat": "39.0072", "lng": "-83.8022"}, {"name": "Andersonville", "state": "OH", "lat": "39.4338", "lng": "-83.0190"}, {"name": "Vincent", "state": "OH", "lat": "39.3749", "lng": "-81.6710"}, {"name": "Shiloh", "state": "OH", "lat": "40.9695", "lng": "-82.6016"}, {"name": "Lisbon", "state": "OH", "lat": "40.7752", "lng": "-80.7628"}, {"name": "Aberdeen", "state": "OH", "lat": "38.6714", "lng": "-83.7705"}, {"name": "Milledgeville", "state": "OH", "lat": "39.5934", "lng": "-83.5880"}, {"name": "Miamisburg", "state": "OH", "lat": "39.6323", "lng": "-84.2725"}, {"name": "Toledo", "state": "OH", "lat": "41.6639", "lng": "-83.5822"}, {"name": "Pleasant Run Farm", "state": "OH", "lat": "39.3017", "lng": "-84.5493"}, {"name": "Bluffton", "state": "OH", "lat": "40.8912", "lng": "-83.8887"}, {"name": "Pemberville", "state": "OH", "lat": "41.4096", "lng": "-83.4588"}, {"name": "Bedford Heights", "state": "OH", "lat": "41.4042", "lng": "-81.5053"}, {"name": "Lore City", "state": "OH", "lat": "39.9832", "lng": "-81.4601"}, {"name": "Nashville", "state": "OH", "lat": "40.5958", "lng": "-82.1128"}, {"name": "New Marshfield", "state": "OH", "lat": "39.3254", "lng": "-82.2166"}, {"name": "Willoughby", "state": "OH", "lat": "41.6460", "lng": "-81.4084"}, {"name": "Beulah Beach", "state": "OH", "lat": "41.3917", "lng": "-82.4428"}, {"name": "Fairborn", "state": "OH", "lat": "39.8010", "lng": "-84.0094"}, {"name": "Etna", "state": "OH", "lat": "39.9541", "lng": "-82.6880"}, {"name": "Broughton", "state": "OH", "lat": "41.0880", "lng": "-84.5351"}, {"name": "Sugarcreek", "state": "OH", "lat": "40.5076", "lng": "-81.6409"}, {"name": "Bucyrus", "state": "OH", "lat": "40.8054", "lng": "-82.9718"}, {"name": "Alvordton", "state": "OH", "lat": "41.6646", "lng": "-84.4346"}, {"name": "West Leipsic", "state": "OH", "lat": "41.1053", "lng": "-84.0011"}, {"name": "Sardis", "state": "OH", "lat": "39.6266", "lng": "-80.9059"}, {"name": "New Athens", "state": "OH", "lat": "40.1845", "lng": "-80.9948"}, {"name": "Avon Lake", "state": "OH", "lat": "41.4945", "lng": "-82.0160"}, {"name": "Baltimore", "state": "OH", "lat": "39.8460", "lng": "-82.6047"}, {"name": "Bourneville", "state": "OH", "lat": "39.2829", "lng": "-83.1596"}, {"name": "Wauseon", "state": "OH", "lat": "41.5532", "lng": "-84.1410"}, {"name": "Sulphur Springs", "state": "OH", "lat": "40.8722", "lng": "-82.8765"}, {"name": "Hamersville", "state": "OH", "lat": "38.9191", "lng": "-83.9854"}, {"name": "Olde West Chester", "state": "OH", "lat": "39.3353", "lng": "-84.4034"}, {"name": "Bolivar", "state": "OH", "lat": "40.6505", "lng": "-81.4555"}, {"name": "Bradner", "state": "OH", "lat": "41.3236", "lng": "-83.4362"}, {"name": "Mineral City", "state": "OH", "lat": "40.6018", "lng": "-81.3610"}, {"name": "Niles", "state": "OH", "lat": "41.1878", "lng": "-80.7531"}, {"name": "Carroll", "state": "OH", "lat": "39.8027", "lng": "-82.7063"}, {"name": "Williamsport", "state": "OH", "lat": "39.5824", "lng": "-83.1206"}, {"name": "Beaverdam", "state": "OH", "lat": "40.8328", "lng": "-83.9739"}, {"name": "Chesterland", "state": "OH", "lat": "41.5213", "lng": "-81.3363"}, {"name": "Montrose-Ghent", "state": "OH", "lat": "41.1538", "lng": "-81.6438"}, {"name": "Leesburg", "state": "OH", "lat": "39.3418", "lng": "-83.5520"}, {"name": "Choctaw Lake", "state": "OH", "lat": "39.9607", "lng": "-83.4878"}, {"name": "Ross", "state": "OH", "lat": "39.3146", "lng": "-84.6599"}, {"name": "Rosemount", "state": "OH", "lat": "38.7812", "lng": "-82.9664"}, {"name": "St. Henry", "state": "OH", "lat": "40.4208", "lng": "-84.6326"}, {"name": "Bridgetown", "state": "OH", "lat": "39.1551", "lng": "-84.6359"}, {"name": "Cygnet", "state": "OH", "lat": "41.2407", "lng": "-83.6438"}, {"name": "Pleasant City", "state": "OH", "lat": "39.9033", "lng": "-81.5437"}, {"name": "Albany", "state": "OH", "lat": "39.2245", "lng": "-82.1977"}, {"name": "Fort Loramie", "state": "OH", "lat": "40.3443", "lng": "-84.3696"}, {"name": "Granville South", "state": "OH", "lat": "40.0521", "lng": "-82.5415"}, {"name": "Kirby", "state": "OH", "lat": "40.8135", "lng": "-83.4194"}, {"name": "Plumwood", "state": "OH", "lat": "40.0087", "lng": "-83.4147"}, {"name": "West Union", "state": "OH", "lat": "38.7917", "lng": "-83.5441"}, {"name": "Morgandale", "state": "OH", "lat": "41.2670", "lng": "-80.7958"}, {"name": "Woodmere", "state": "OH", "lat": "41.4600", "lng": "-81.4798"}, {"name": "Monroeville", "state": "OH", "lat": "41.2440", "lng": "-82.7019"}, {"name": "Malvern", "state": "OH", "lat": "40.6896", "lng": "-81.1815"}, {"name": "Sugar Bush Knolls", "state": "OH", "lat": "41.2037", "lng": "-81.3471"}, {"name": "Casstown", "state": "OH", "lat": "40.0528", "lng": "-84.1285"}, {"name": "New Washington", "state": "OH", "lat": "40.9604", "lng": "-82.8547"}, {"name": "Gibsonburg", "state": "OH", "lat": "41.3875", "lng": "-83.3216"}, {"name": "Morrow", "state": "OH", "lat": "39.3500", "lng": "-84.1231"}, {"name": "Gambier", "state": "OH", "lat": "40.3764", "lng": "-82.3949"}, {"name": "Rushville", "state": "OH", "lat": "39.7643", "lng": "-82.4303"}, {"name": "Buchtel", "state": "OH", "lat": "39.4634", "lng": "-82.1810"}, {"name": "West Manchester", "state": "OH", "lat": "39.9034", "lng": "-84.6263"}, {"name": "Wapakoneta", "state": "OH", "lat": "40.5664", "lng": "-84.1915"}, {"name": "Elizabethtown", "state": "OH", "lat": "39.1621", "lng": "-84.8037"}, {"name": "Put-in-Bay", "state": "OH", "lat": "41.6526", "lng": "-82.8176"}, {"name": "Oak Harbor", "state": "OH", "lat": "41.5122", "lng": "-83.1430"}, {"name": "Sparta", "state": "OH", "lat": "40.3943", "lng": "-82.6995"}, {"name": "Kunkle", "state": "OH", "lat": "41.6359", "lng": "-84.4942"}, {"name": "Clarksburg", "state": "OH", "lat": "39.5059", "lng": "-83.1541"}, {"name": "Walnut Creek", "state": "OH", "lat": "40.5427", "lng": "-81.7213"}, {"name": "Plainfield", "state": "OH", "lat": "40.2050", "lng": "-81.7181"}, {"name": "Risingsun", "state": "OH", "lat": "41.2671", "lng": "-83.4268"}, {"name": "Perrysburg", "state": "OH", "lat": "41.5377", "lng": "-83.6413"}, {"name": "Minerva", "state": "OH", "lat": "40.7307", "lng": "-81.1023"}, {"name": "Fremont", "state": "OH", "lat": "41.3533", "lng": "-83.1146"}, {"name": "St. Martin", "state": "OH", "lat": "39.2117", "lng": "-83.8845"}, {"name": "Jacksonville", "state": "OH", "lat": "39.4762", "lng": "-82.0799"}, {"name": "North Baltimore", "state": "OH", "lat": "41.1799", "lng": "-83.6702"}, {"name": "Tiltonsville", "state": "OH", "lat": "40.1721", "lng": "-80.6973"}, {"name": "Sebring", "state": "OH", "lat": "40.9207", "lng": "-81.0231"}, {"name": "Attica", "state": "OH", "lat": "41.0634", "lng": "-82.8872"}, {"name": "Lordstown", "state": "OH", "lat": "41.1684", "lng": "-80.8590"}, {"name": "Girard", "state": "OH", "lat": "41.1666", "lng": "-80.6963"}, {"name": "Leavittsburg", "state": "OH", "lat": "41.2452", "lng": "-80.8789"}, {"name": "Atwater", "state": "OH", "lat": "41.0266", "lng": "-81.1622"}, {"name": "Ottawa Hills", "state": "OH", "lat": "41.6682", "lng": "-83.6433"}, {"name": "Huber Heights", "state": "OH", "lat": "39.8595", "lng": "-84.1130"}, {"name": "Uhrichsville", "state": "OH", "lat": "40.4005", "lng": "-81.3516"}, {"name": "Buckland", "state": "OH", "lat": "40.6235", "lng": "-84.2599"}, {"name": "Newark", "state": "OH", "lat": "40.0705", "lng": "-82.4251"}, {"name": "Miltonsburg", "state": "OH", "lat": "39.8313", "lng": "-81.1646"}, {"name": "Tallmadge", "state": "OH", "lat": "41.1023", "lng": "-81.4216"}, {"name": "Highland Holiday", "state": "OH", "lat": "39.1949", "lng": "-83.4703"}, {"name": "Anna", "state": "OH", "lat": "40.3958", "lng": "-84.1760"}, {"name": "Milton Center", "state": "OH", "lat": "41.3007", "lng": "-83.8298"}, {"name": "Benton Ridge", "state": "OH", "lat": "41.0042", "lng": "-83.7927"}, {"name": "Mount Carmel", "state": "OH", "lat": "39.0978", "lng": "-84.2995"}, {"name": "Johnstown", "state": "OH", "lat": "40.1500", "lng": "-82.6881"}, {"name": "Holgate", "state": "OH", "lat": "41.2493", "lng": "-84.1292"}, {"name": "Rock Creek", "state": "OH", "lat": "41.6604", "lng": "-80.8543"}, {"name": "Blue Ash", "state": "OH", "lat": "39.2478", "lng": "-84.3825"}, {"name": "Quaker City", "state": "OH", "lat": "39.9697", "lng": "-81.2973"}, {"name": "Darbydale", "state": "OH", "lat": "39.8545", "lng": "-83.1795"}, {"name": "Clinton", "state": "OH", "lat": "40.9284", "lng": "-81.6304"}, {"name": "Greenfield", "state": "OH", "lat": "39.3535", "lng": "-83.3884"}, {"name": "Fredericksburg", "state": "OH", "lat": "40.6771", "lng": "-81.8693"}, {"name": "Montpelier", "state": "OH", "lat": "41.5817", "lng": "-84.5968"}, {"name": "Sylvania", "state": "OH", "lat": "41.7100", "lng": "-83.7085"}, {"name": "Marble Cliff", "state": "OH", "lat": "39.9857", "lng": "-83.0614"}, {"name": "Thornville", "state": "OH", "lat": "39.8929", "lng": "-82.4141"}, {"name": "Ontario", "state": "OH", "lat": "40.7710", "lng": "-82.6105"}, {"name": "Mack", "state": "OH", "lat": "39.1501", "lng": "-84.6791"}, {"name": "Macksburg", "state": "OH", "lat": "39.6314", "lng": "-81.4562"}, {"name": "Chauncey", "state": "OH", "lat": "39.4005", "lng": "-82.1261"}, {"name": "Bloomville", "state": "OH", "lat": "41.0514", "lng": "-83.0136"}, {"name": "East Rochester", "state": "OH", "lat": "40.7495", "lng": "-81.0400"}, {"name": "Dola", "state": "OH", "lat": "40.7848", "lng": "-83.6988"}, {"name": "Blanchester", "state": "OH", "lat": "39.2934", "lng": "-83.9798"}, {"name": "McClure", "state": "OH", "lat": "41.3711", "lng": "-83.9415"}, {"name": "Bellefontaine", "state": "OH", "lat": "40.3627", "lng": "-83.7630"}, {"name": "Lewistown", "state": "OH", "lat": "40.4238", "lng": "-83.8846"}, {"name": "Pancoastburg", "state": "OH", "lat": "39.6239", "lng": "-83.2642"}, {"name": "West Alexandria", "state": "OH", "lat": "39.7451", "lng": "-84.5362"}, {"name": "Pleasant Run", "state": "OH", "lat": "39.2927", "lng": "-84.5756"}, {"name": "Withamsville", "state": "OH", "lat": "39.0628", "lng": "-84.2808"}, {"name": "Aquilla", "state": "OH", "lat": "41.5465", "lng": "-81.1730"}, {"name": "Edgewood", "state": "OH", "lat": "41.8784", "lng": "-80.7461"}, {"name": "Cedarville", "state": "OH", "lat": "39.7471", "lng": "-83.8109"}, {"name": "Thornport", "state": "OH", "lat": "39.9210", "lng": "-82.4271"}, {"name": "Huron", "state": "OH", "lat": "41.3913", "lng": "-82.5635"}, {"name": "Mayfield", "state": "OH", "lat": "41.5501", "lng": "-81.4368"}, {"name": "Athalia", "state": "OH", "lat": "38.5126", "lng": "-82.3093"}, {"name": "Potsdam", "state": "OH", "lat": "39.9637", "lng": "-84.4149"}, {"name": "Williamsdale", "state": "OH", "lat": "39.4421", "lng": "-84.5298"}, {"name": "Kansas", "state": "OH", "lat": "41.2452", "lng": "-83.2839"}, {"name": "Medina", "state": "OH", "lat": "41.1358", "lng": "-81.8694"}, {"name": "Hanover", "state": "OH", "lat": "40.0819", "lng": "-82.2761"}, {"name": "Summerfield", "state": "OH", "lat": "39.7969", "lng": "-81.3355"}, {"name": "Glenmoor", "state": "OH", "lat": "40.6639", "lng": "-80.6133"}, {"name": "Tedrow", "state": "OH", "lat": "41.6029", "lng": "-84.2043"}, {"name": "Heath", "state": "OH", "lat": "40.0241", "lng": "-82.4412"}, {"name": "Delta", "state": "OH", "lat": "41.5753", "lng": "-84.0076"}, {"name": "Lafayette", "state": "OH", "lat": "40.7589", "lng": "-83.9499"}, {"name": "Brookfield Center", "state": "OH", "lat": "41.2386", "lng": "-80.5558"}, {"name": "White Oak", "state": "OH", "lat": "39.2104", "lng": "-84.6059"}, {"name": "Fayetteville", "state": "OH", "lat": "39.1848", "lng": "-83.9317"}, {"name": "Buffalo", "state": "OH", "lat": "39.9169", "lng": "-81.5204"}, {"name": "Mount Sterling", "state": "OH", "lat": "39.7134", "lng": "-83.2734"}, {"name": "Reynoldsburg", "state": "OH", "lat": "39.9587", "lng": "-82.7943"}, {"name": "Celeryville", "state": "OH", "lat": "41.0287", "lng": "-82.7273"}, {"name": "Marshallville", "state": "OH", "lat": "40.8999", "lng": "-81.7328"}, {"name": "Amelia", "state": "OH", "lat": "39.0229", "lng": "-84.2184"}, {"name": "Ironton", "state": "OH", "lat": "38.5319", "lng": "-82.6777"}, {"name": "Waterford", "state": "OH", "lat": "39.5407", "lng": "-81.6424"}, {"name": "Millersport", "state": "OH", "lat": "39.8982", "lng": "-82.5390"}, {"name": "Covedale", "state": "OH", "lat": "39.1267", "lng": "-84.6362"}, {"name": "Rawson", "state": "OH", "lat": "40.9569", "lng": "-83.7850"}, {"name": "Dunlap", "state": "OH", "lat": "39.2908", "lng": "-84.6303"}, {"name": "Felicity", "state": "OH", "lat": "38.8390", "lng": "-84.0985"}, {"name": "New Miami", "state": "OH", "lat": "39.4319", "lng": "-84.5399"}, {"name": "Derby", "state": "OH", "lat": "39.7640", "lng": "-83.2068"}, {"name": "Gnadenhutten", "state": "OH", "lat": "40.3594", "lng": "-81.4293"}, {"name": "Wetherington", "state": "OH", "lat": "39.3633", "lng": "-84.3767"}, {"name": "Hills and Dales", "state": "OH", "lat": "40.8290", "lng": "-81.4440"}, {"name": "Salesville", "state": "OH", "lat": "39.9741", "lng": "-81.3366"}, {"name": "Delshire", "state": "OH", "lat": "39.0885", "lng": "-84.5950"}, {"name": "Moreland Hills", "state": "OH", "lat": "41.4423", "lng": "-81.4294"}, {"name": "Holiday Valley", "state": "OH", "lat": "39.8536", "lng": "-83.9620"}, {"name": "Edison", "state": "OH", "lat": "40.5583", "lng": "-82.8632"}, {"name": "Whitehouse", "state": "OH", "lat": "41.5215", "lng": "-83.7957"}, {"name": "Farmersville", "state": "OH", "lat": "39.6787", "lng": "-84.4275"}, {"name": "Richmond", "state": "OH", "lat": "40.4329", "lng": "-80.7720"}, {"name": "Plainville", "state": "OH", "lat": "39.1440", "lng": "-84.3594"}, {"name": "Collins", "state": "OH", "lat": "41.2508", "lng": "-82.4915"}, {"name": "Chatfield", "state": "OH", "lat": "40.9511", "lng": "-82.9420"}, {"name": "Robertsville", "state": "OH", "lat": "40.7619", "lng": "-81.1940"}, {"name": "Maplewood Park", "state": "OH", "lat": "41.1391", "lng": "-80.5798"}, {"name": "Newtonsville", "state": "OH", "lat": "39.1810", "lng": "-84.0896"}, {"name": "Martinsville", "state": "OH", "lat": "39.3224", "lng": "-83.8109"}, {"name": "Martins Ferry", "state": "OH", "lat": "40.1014", "lng": "-80.7253"}, {"name": "Fulton", "state": "OH", "lat": "40.4630", "lng": "-82.8283"}, {"name": "Bexley", "state": "OH", "lat": "39.9650", "lng": "-82.9343"}, {"name": "Ashland", "state": "OH", "lat": "40.8669", "lng": "-82.3157"}, {"name": "Brecksville", "state": "OH", "lat": "41.3079", "lng": "-81.6193"}, {"name": "Conneaut", "state": "OH", "lat": "41.9278", "lng": "-80.5685"}, {"name": "Lima", "state": "OH", "lat": "40.7410", "lng": "-84.1121"}, {"name": "Springdale", "state": "OH", "lat": "39.2909", "lng": "-84.4760"}, {"name": "Hudson", "state": "OH", "lat": "41.2399", "lng": "-81.4408"}, {"name": "New Carlisle", "state": "OH", "lat": "39.9446", "lng": "-84.0257"}, {"name": "Covington", "state": "OH", "lat": "40.1174", "lng": "-84.3508"}, {"name": "Butler", "state": "OH", "lat": "40.5896", "lng": "-82.4211"}, {"name": "Cleves", "state": "OH", "lat": "39.1632", "lng": "-84.7463"}, {"name": "Strongsville", "state": "OH", "lat": "41.3128", "lng": "-81.8313"}, {"name": "Fayette", "state": "OH", "lat": "41.6727", "lng": "-84.3284"}, {"name": "Northwood", "state": "OH", "lat": "41.6089", "lng": "-83.4836"}, {"name": "Payne", "state": "OH", "lat": "41.0797", "lng": "-84.7272"}, {"name": "Kettering", "state": "OH", "lat": "39.6957", "lng": "-84.1496"}, {"name": "Stafford", "state": "OH", "lat": "39.7124", "lng": "-81.2765"}, {"name": "Green Springs", "state": "OH", "lat": "41.2570", "lng": "-83.0529"}, {"name": "North Fairfield", "state": "OH", "lat": "41.1045", "lng": "-82.6138"}, {"name": "Brookside", "state": "OH", "lat": "40.0708", "lng": "-80.7606"}, {"name": "Oak Hill", "state": "OH", "lat": "38.8962", "lng": "-82.5691"}, {"name": "Williamsburg", "state": "OH", "lat": "39.0555", "lng": "-84.0477"}, {"name": "Forest", "state": "OH", "lat": "40.8052", "lng": "-83.5115"}, {"name": "Canfield", "state": "OH", "lat": "41.0315", "lng": "-80.7671"}, {"name": "Mingo Junction", "state": "OH", "lat": "40.3244", "lng": "-80.6174"}, {"name": "Mount Vernon", "state": "OH", "lat": "40.3854", "lng": "-82.4732"}, {"name": "Fairport Harbor", "state": "OH", "lat": "41.7476", "lng": "-81.2731"}, {"name": "Mitiwanga", "state": "OH", "lat": "41.3813", "lng": "-82.4660"}, {"name": "Monfort Heights", "state": "OH", "lat": "39.1823", "lng": "-84.6075"}, {"name": "St. Louisville", "state": "OH", "lat": "40.1711", "lng": "-82.4179"}, {"name": "Park Layne", "state": "OH", "lat": "39.8881", "lng": "-84.0394"}, {"name": "Solon", "state": "OH", "lat": "41.3864", "lng": "-81.4401"}, {"name": "Cridersville", "state": "OH", "lat": "40.6509", "lng": "-84.1427"}, {"name": "Elida", "state": "OH", "lat": "40.7867", "lng": "-84.1995"}, {"name": "Portage", "state": "OH", "lat": "41.3232", "lng": "-83.6468"}, {"name": "East Cleveland", "state": "OH", "lat": "41.5318", "lng": "-81.5795"}, {"name": "Goshen", "state": "OH", "lat": "39.2325", "lng": "-84.1532"}, {"name": "West Lafayette", "state": "OH", "lat": "40.2761", "lng": "-81.7518"}, {"name": "Zanesfield", "state": "OH", "lat": "40.3387", "lng": "-83.6779"}, {"name": "Raymond", "state": "OH", "lat": "40.3350", "lng": "-83.4634"}, {"name": "Arcanum", "state": "OH", "lat": "39.9923", "lng": "-84.5543"}, {"name": "Bainbridge", "state": "OH", "lat": "39.2265", "lng": "-83.2695"}, {"name": "Worthington", "state": "OH", "lat": "40.0949", "lng": "-83.0210"}, {"name": "Union City", "state": "OH", "lat": "40.1996", "lng": "-84.7943"}, {"name": "Deer Park", "state": "OH", "lat": "39.2036", "lng": "-84.3975"}, {"name": "Stony Prairie", "state": "OH", "lat": "41.3521", "lng": "-83.1521"}, {"name": "Harrisburg", "state": "OH", "lat": "39.8107", "lng": "-83.1686"}, {"name": "Remington", "state": "OH", "lat": "39.2290", "lng": "-84.3220"}, {"name": "Chickasaw", "state": "OH", "lat": "40.4367", "lng": "-84.4936"}, {"name": "New Burlington", "state": "OH", "lat": "39.2623", "lng": "-84.5518"}, {"name": "Piketon", "state": "OH", "lat": "39.0649", "lng": "-82.9985"}, {"name": "Kelleys Island", "state": "OH", "lat": "41.6033", "lng": "-82.7029"}, {"name": "Powhatan Point", "state": "OH", "lat": "39.8625", "lng": "-80.8098"}, {"name": "Botkins", "state": "OH", "lat": "40.4588", "lng": "-84.1782"}, {"name": "Trimble", "state": "OH", "lat": "39.4862", "lng": "-82.0808"}, {"name": "Bladensburg", "state": "OH", "lat": "40.2851", "lng": "-82.2837"}, {"name": "Miller City", "state": "OH", "lat": "41.1035", "lng": "-84.1303"}, {"name": "Flushing", "state": "OH", "lat": "40.1481", "lng": "-81.0644"}, {"name": "Belmore", "state": "OH", "lat": "41.1549", "lng": "-83.9419"}, {"name": "Frazeysburg", "state": "OH", "lat": "40.1182", "lng": "-82.1171"}, {"name": "Wadsworth", "state": "OH", "lat": "41.0279", "lng": "-81.7324"}, {"name": "Lucasville", "state": "OH", "lat": "38.8783", "lng": "-82.9934"}, {"name": "Vandalia", "state": "OH", "lat": "39.8791", "lng": "-84.1930"}, {"name": "Cherry Grove", "state": "OH", "lat": "39.0802", "lng": "-84.3220"}, {"name": "Lynchburg", "state": "OH", "lat": "39.2401", "lng": "-83.7883"}, {"name": "New Philadelphia", "state": "OH", "lat": "40.4860", "lng": "-81.4402"}, {"name": "Cadiz", "state": "OH", "lat": "40.2644", "lng": "-80.9980"}, {"name": "Nelsonville", "state": "OH", "lat": "39.4559", "lng": "-82.2219"}, {"name": "Loveland", "state": "OH", "lat": "39.2679", "lng": "-84.2731"}, {"name": "Vickery", "state": "OH", "lat": "41.3769", "lng": "-82.9415"}, {"name": "Calcutta", "state": "OH", "lat": "40.6847", "lng": "-80.5624"}, {"name": "Radnor", "state": "OH", "lat": "40.3852", "lng": "-83.1459"}, {"name": "Midvale", "state": "OH", "lat": "40.4357", "lng": "-81.3698"}, {"name": "Cherry Fork", "state": "OH", "lat": "38.8872", "lng": "-83.6126"}, {"name": "Leetonia", "state": "OH", "lat": "40.8786", "lng": "-80.7623"}, {"name": "Palestine", "state": "OH", "lat": "40.0501", "lng": "-84.7444"}, {"name": "Norton", "state": "OH", "lat": "41.0294", "lng": "-81.6461"}, {"name": "Georgetown", "state": "OH", "lat": "38.8683", "lng": "-83.8992"}, {"name": "Loudonville", "state": "OH", "lat": "40.6342", "lng": "-82.2328"}, {"name": "Galion", "state": "OH", "lat": "40.7384", "lng": "-82.7791"}, {"name": "Tippecanoe", "state": "OH", "lat": "40.2737", "lng": "-81.2812"}, {"name": "Bay View", "state": "OH", "lat": "41.4680", "lng": "-82.8250"}, {"name": "Hartville", "state": "OH", "lat": "40.9618", "lng": "-81.3349"}, {"name": "Holland", "state": "OH", "lat": "41.6192", "lng": "-83.7083"}, {"name": "McGuffey", "state": "OH", "lat": "40.6926", "lng": "-83.7860"}, {"name": "Pigeon Creek", "state": "OH", "lat": "41.1101", "lng": "-81.6723"}, {"name": "Five Points", "state": "OH", "lat": "39.5595", "lng": "-84.1867"}, {"name": "Lyndhurst", "state": "OH", "lat": "41.5172", "lng": "-81.4922"}, {"name": "Xenia", "state": "OH", "lat": "39.6829", "lng": "-83.9413"}, {"name": "Minster", "state": "OH", "lat": "40.3949", "lng": "-84.3788"}, {"name": "La Croft", "state": "OH", "lat": "40.6469", "lng": "-80.5998"}, {"name": "Centerburg", "state": "OH", "lat": "40.3039", "lng": "-82.6979"}, {"name": "Seville", "state": "OH", "lat": "41.0208", "lng": "-81.8671"}, {"name": "Cecil", "state": "OH", "lat": "41.2190", "lng": "-84.6018"}, {"name": "North Madison", "state": "OH", "lat": "41.8298", "lng": "-81.0511"}, {"name": "Wilmot", "state": "OH", "lat": "40.6558", "lng": "-81.6343"}, {"name": "Hayesville", "state": "OH", "lat": "40.7752", "lng": "-82.2596"}, {"name": "Montgomery", "state": "OH", "lat": "39.2494", "lng": "-84.3457"}, {"name": "Pleasant Hills", "state": "OH", "lat": "39.2362", "lng": "-84.5234"}, {"name": "Westlake", "state": "OH", "lat": "41.4524", "lng": "-81.9295"}, {"name": "Glandorf", "state": "OH", "lat": "41.0279", "lng": "-84.0791"}, {"name": "Pleasant Hill", "state": "OH", "lat": "40.0506", "lng": "-84.3462"}, {"name": "Wayne Lakes", "state": "OH", "lat": "40.0216", "lng": "-84.6625"}, {"name": "Mantua", "state": "OH", "lat": "41.2819", "lng": "-81.2221"}, {"name": "Germantown", "state": "OH", "lat": "39.6324", "lng": "-84.3645"}, {"name": "Batesville", "state": "OH", "lat": "39.9154", "lng": "-81.2821"}, {"name": "Mariemont", "state": "OH", "lat": "39.1429", "lng": "-84.3783"}, {"name": "Rio Grande", "state": "OH", "lat": "38.8797", "lng": "-82.3790"}, {"name": "Beallsville", "state": "OH", "lat": "39.8489", "lng": "-81.0354"}, {"name": "Bascom", "state": "OH", "lat": "41.1290", "lng": "-83.2869"}, {"name": "Clarktown", "state": "OH", "lat": "38.8498", "lng": "-82.9085"}, {"name": "Hamler", "state": "OH", "lat": "41.2281", "lng": "-84.0355"}, {"name": "Manchester", "state": "OH", "lat": "38.6902", "lng": "-83.6053"}, {"name": "Craig Beach", "state": "OH", "lat": "41.1160", "lng": "-80.9828"}, {"name": "Bolindale", "state": "OH", "lat": "41.2088", "lng": "-80.7785"}, {"name": "New Richmond", "state": "OH", "lat": "38.9620", "lng": "-84.2779"}, {"name": "Tiro", "state": "OH", "lat": "40.9062", "lng": "-82.7690"}, {"name": "College Corner", "state": "OH", "lat": "39.5682", "lng": "-84.8109"}, {"name": "Shelby", "state": "OH", "lat": "40.8847", "lng": "-82.6578"}, {"name": "Hockingport", "state": "OH", "lat": "39.1907", "lng": "-81.7495"}, {"name": "Wooster", "state": "OH", "lat": "40.8166", "lng": "-81.9334"}, {"name": "Boston Heights", "state": "OH", "lat": "41.2539", "lng": "-81.5090"}, {"name": "Pheasant Run", "state": "OH", "lat": "41.2072", "lng": "-82.1481"}, {"name": "Clarington", "state": "OH", "lat": "39.7763", "lng": "-80.8647"}, {"name": "Holloway", "state": "OH", "lat": "40.1621", "lng": "-81.1313"}, {"name": "Wilmington", "state": "OH", "lat": "39.4387", "lng": "-83.8184"}, {"name": "Austinburg", "state": "OH", "lat": "41.7692", "lng": "-80.8556"}, {"name": "Ripley", "state": "OH", "lat": "38.7325", "lng": "-83.8346"}, {"name": "Warrensville Heights", "state": "OH", "lat": "41.4363", "lng": "-81.5222"}, {"name": "Navarre", "state": "OH", "lat": "40.7259", "lng": "-81.5130"}, {"name": "Spencerville", "state": "OH", "lat": "40.7079", "lng": "-84.3526"}, {"name": "Harbor Hills", "state": "OH", "lat": "39.9366", "lng": "-82.4343"}, {"name": "Andover", "state": "OH", "lat": "41.6065", "lng": "-80.5687"}, {"name": "Mechanicsburg", "state": "OH", "lat": "40.0735", "lng": "-83.5564"}, {"name": "Austintown", "state": "OH", "lat": "41.0932", "lng": "-80.7405"}, {"name": "Geneva-on-the-Lake", "state": "OH", "lat": "41.8562", "lng": "-80.9492"}, {"name": "Tarlton", "state": "OH", "lat": "39.5543", "lng": "-82.7782"}, {"name": "Frankfort", "state": "OH", "lat": "39.4069", "lng": "-83.1842"}, {"name": "Dundee", "state": "OH", "lat": "40.5868", "lng": "-81.6069"}, {"name": "Steubenville", "state": "OH", "lat": "40.3653", "lng": "-80.6520"}, {"name": "Melrose", "state": "OH", "lat": "41.0887", "lng": "-84.4201"}, {"name": "Warren", "state": "OH", "lat": "41.2390", "lng": "-80.8174"}, {"name": "Wheelersburg", "state": "OH", "lat": "38.7383", "lng": "-82.8420"}, {"name": "Good Hope", "state": "OH", "lat": "39.4467", "lng": "-83.3594"}, {"name": "Richwood", "state": "OH", "lat": "40.4276", "lng": "-83.2955"}, {"name": "Avon", "state": "OH", "lat": "41.4485", "lng": "-82.0187"}, {"name": "Beechwood Trails", "state": "OH", "lat": "40.0252", "lng": "-82.6463"}, {"name": "Stratton", "state": "OH", "lat": "40.5255", "lng": "-80.6315"}, {"name": "Highland", "state": "OH", "lat": "39.3439", "lng": "-83.6001"}, {"name": "Lower Salem", "state": "OH", "lat": "39.5635", "lng": "-81.3942"}, {"name": "Defiance", "state": "OH", "lat": "41.2810", "lng": "-84.3659"}, {"name": "Batavia", "state": "OH", "lat": "39.0815", "lng": "-84.1718"}, {"name": "Valley City", "state": "OH", "lat": "41.2354", "lng": "-81.9357"}, {"name": "Wickliffe", "state": "OH", "lat": "41.6072", "lng": "-81.4690"}, {"name": "McArthur", "state": "OH", "lat": "39.2466", "lng": "-82.4787"}, {"name": "Midland", "state": "OH", "lat": "39.3068", "lng": "-83.9105"}, {"name": "Brecon", "state": "OH", "lat": "39.2798", "lng": "-84.3525"}, {"name": "Nellie", "state": "OH", "lat": "40.3385", "lng": "-82.0714"}, {"name": "Carbon Hill", "state": "OH", "lat": "39.5020", "lng": "-82.2426"}, {"name": "Rossmoyne", "state": "OH", "lat": "39.2144", "lng": "-84.3886"}, {"name": "Richfield", "state": "OH", "lat": "41.2354", "lng": "-81.6421"}, {"name": "Huntsville", "state": "OH", "lat": "40.4424", "lng": "-83.8045"}, {"name": "Waite Hill", "state": "OH", "lat": "41.6125", "lng": "-81.3859"}, {"name": "Painesville", "state": "OH", "lat": "41.7240", "lng": "-81.2536"}, {"name": "Mulberry", "state": "OH", "lat": "39.1975", "lng": "-84.2511"}, {"name": "Napoleon", "state": "OH", "lat": "41.3978", "lng": "-84.1244"}, {"name": "Kirtland Hills", "state": "OH", "lat": "41.6362", "lng": "-81.3193"}, {"name": "Freeport", "state": "OH", "lat": "40.2109", "lng": "-81.2686"}, {"name": "Bowling Green", "state": "OH", "lat": "41.3773", "lng": "-83.6501"}, {"name": "Portage Lakes", "state": "OH", "lat": "41.0034", "lng": "-81.5347"}, {"name": "Eaton", "state": "OH", "lat": "39.7506", "lng": "-84.6342"}, {"name": "Fort Seneca", "state": "OH", "lat": "41.2044", "lng": "-83.1679"}, {"name": "Cuyahoga Falls", "state": "OH", "lat": "41.1641", "lng": "-81.5207"}, {"name": "Bettsville", "state": "OH", "lat": "41.2440", "lng": "-83.2338"}, {"name": "Urbancrest", "state": "OH", "lat": "39.9015", "lng": "-83.0859"}, {"name": "Richmond Dale", "state": "OH", "lat": "39.2042", "lng": "-82.8122"}, {"name": "East Sparta", "state": "OH", "lat": "40.6637", "lng": "-81.3628"}, {"name": "Mentor-on-the-Lake", "state": "OH", "lat": "41.7135", "lng": "-81.3650"}, {"name": "Bailey Lakes", "state": "OH", "lat": "40.9492", "lng": "-82.3571"}, {"name": "Hubbard", "state": "OH", "lat": "41.1595", "lng": "-80.5672"}, {"name": "Valley Hi", "state": "OH", "lat": "40.3163", "lng": "-83.6759"}, {"name": "Rittman", "state": "OH", "lat": "40.9737", "lng": "-81.7846"}, {"name": "McDermott", "state": "OH", "lat": "38.8344", "lng": "-83.0583"}, {"name": "Archbold", "state": "OH", "lat": "41.5165", "lng": "-84.3036"}, {"name": "Utica", "state": "OH", "lat": "40.2335", "lng": "-82.4410"}, {"name": "Powell", "state": "OH", "lat": "40.1678", "lng": "-83.0817"}, {"name": "South Solon", "state": "OH", "lat": "39.7374", "lng": "-83.6127"}, {"name": "South Amherst", "state": "OH", "lat": "41.3515", "lng": "-82.2394"}, {"name": "Elyria", "state": "OH", "lat": "41.3761", "lng": "-82.1063"}, {"name": "Connorville", "state": "OH", "lat": "40.1938", "lng": "-80.7176"}, {"name": "Sunbury", "state": "OH", "lat": "40.2485", "lng": "-82.8803"}, {"name": "Fresno", "state": "OH", "lat": "40.3308", "lng": "-81.7386"}, {"name": "Glenwillow", "state": "OH", "lat": "41.3606", "lng": "-81.4728"}, {"name": "Lake Seneca", "state": "OH", "lat": "41.6695", "lng": "-84.6516"}, {"name": "Middle Point", "state": "OH", "lat": "40.8559", "lng": "-84.4463"}, {"name": "Fairview Park", "state": "OH", "lat": "41.4419", "lng": "-81.8530"}, {"name": "Otway", "state": "OH", "lat": "38.8650", "lng": "-83.1886"}, {"name": "Ashley", "state": "OH", "lat": "40.4098", "lng": "-82.9516"}, {"name": "Ridgeway", "state": "OH", "lat": "40.5125", "lng": "-83.5688"}, {"name": "Philo", "state": "OH", "lat": "39.8608", "lng": "-81.9099"}, {"name": "North Randall", "state": "OH", "lat": "41.4327", "lng": "-81.5289"}, {"name": "Hamilton", "state": "OH", "lat": "39.3938", "lng": "-84.5652"}, {"name": "Milford Center", "state": "OH", "lat": "40.1791", "lng": "-83.4381"}, {"name": "Brimfield", "state": "OH", "lat": "41.0941", "lng": "-81.3483"}, {"name": "Savannah", "state": "OH", "lat": "40.9669", "lng": "-82.3661"}, {"name": "Wren", "state": "OH", "lat": "40.8006", "lng": "-84.7746"}, {"name": "Pleasantville", "state": "OH", "lat": "39.8097", "lng": "-82.5223"}, {"name": "Ashville", "state": "OH", "lat": "39.7239", "lng": "-82.9576"}, {"name": "Jerry City", "state": "OH", "lat": "41.2537", "lng": "-83.6023"}, {"name": "Addyston", "state": "OH", "lat": "39.1370", "lng": "-84.7103"}, {"name": "Winchester", "state": "OH", "lat": "38.9436", "lng": "-83.6540"}, {"name": "Garfield Heights", "state": "OH", "lat": "41.4199", "lng": "-81.6038"}, {"name": "Fultonham", "state": "OH", "lat": "39.8557", "lng": "-82.1424"}, {"name": "Eldorado", "state": "OH", "lat": "39.9043", "lng": "-84.6752"}, {"name": "Clyde", "state": "OH", "lat": "41.3045", "lng": "-82.9781"}, {"name": "Ada", "state": "OH", "lat": "40.7680", "lng": "-83.8252"}, {"name": "East Springfield", "state": "OH", "lat": "40.4473", "lng": "-80.8601"}, {"name": "Grand River", "state": "OH", "lat": "41.7418", "lng": "-81.2846"}, {"name": "Jewett", "state": "OH", "lat": "40.3681", "lng": "-81.0031"}, {"name": "Iberia", "state": "OH", "lat": "40.6747", "lng": "-82.8403"}, {"name": "New Bloomington", "state": "OH", "lat": "40.5837", "lng": "-83.3125"}, {"name": "Woodville", "state": "OH", "lat": "41.4510", "lng": "-83.3640"}, {"name": "Valleyview", "state": "OH", "lat": "39.9643", "lng": "-83.0731"}, {"name": "Brady Lake", "state": "OH", "lat": "41.1623", "lng": "-81.3142"}, {"name": "Neffs", "state": "OH", "lat": "40.0320", "lng": "-80.8171"}, {"name": "Willoughby Hills", "state": "OH", "lat": "41.5873", "lng": "-81.4333"}, {"name": "Cleveland", "state": "OH", "lat": "41.4767", "lng": "-81.6805"}, {"name": "Empire", "state": "OH", "lat": "40.5117", "lng": "-80.6261"}, {"name": "Delaware", "state": "OH", "lat": "40.2866", "lng": "-83.0747"}, {"name": "Ithaca", "state": "OH", "lat": "39.9378", "lng": "-84.5533"}, {"name": "Twinsburg Heights", "state": "OH", "lat": "41.3064", "lng": "-81.4579"}, {"name": "Circleville", "state": "OH", "lat": "39.6063", "lng": "-82.9334"}, {"name": "Marne", "state": "OH", "lat": "40.0725", "lng": "-82.3091"}, {"name": "Neville", "state": "OH", "lat": "38.8123", "lng": "-84.2115"}, {"name": "Shaker Heights", "state": "OH", "lat": "41.4744", "lng": "-81.5496"}, {"name": "Alliance", "state": "OH", "lat": "40.9107", "lng": "-81.1189"}, {"name": "Lincoln Village", "state": "OH", "lat": "39.9532", "lng": "-83.1314"}, {"name": "Clifton", "state": "OH", "lat": "39.7972", "lng": "-83.8257"}, {"name": "Camden", "state": "OH", "lat": "39.6374", "lng": "-84.6445"}, {"name": "Four Bridges", "state": "OH", "lat": "39.3828", "lng": "-84.3542"}, {"name": "St. Marys", "state": "OH", "lat": "40.5475", "lng": "-84.3931"}, {"name": "Rudolph", "state": "OH", "lat": "41.2966", "lng": "-83.6641"}, {"name": "West Farmington", "state": "OH", "lat": "41.3910", "lng": "-80.9740"}, {"name": "Cleveland Heights", "state": "OH", "lat": "41.5112", "lng": "-81.5636"}, {"name": "Continental", "state": "OH", "lat": "41.1001", "lng": "-84.2728"}, {"name": "Monroe", "state": "OH", "lat": "39.4461", "lng": "-84.3666"}, {"name": "Brice", "state": "OH", "lat": "39.9173", "lng": "-82.8319"}, {"name": "Findlay", "state": "OH", "lat": "41.0467", "lng": "-83.6379"}, {"name": "Apple Valley", "state": "OH", "lat": "40.4389", "lng": "-82.3481"}, {"name": "Newtown", "state": "OH", "lat": "39.1241", "lng": "-84.3514"}, {"name": "Port Jefferson", "state": "OH", "lat": "40.3304", "lng": "-84.0925"}, {"name": "North Lewisburg", "state": "OH", "lat": "40.2205", "lng": "-83.5581"}, {"name": "Kingston", "state": "OH", "lat": "39.4723", "lng": "-82.9120"}, {"name": "Waynesville", "state": "OH", "lat": "39.5329", "lng": "-84.0903"}, {"name": "Weston", "state": "OH", "lat": "41.3464", "lng": "-83.7948"}, {"name": "Christiansburg", "state": "OH", "lat": "40.0567", "lng": "-84.0254"}, {"name": "Mutual", "state": "OH", "lat": "40.0794", "lng": "-83.6368"}, {"name": "Jacksonburg", "state": "OH", "lat": "39.5383", "lng": "-84.5030"}, {"name": "Paulding", "state": "OH", "lat": "41.1424", "lng": "-84.5824"}, {"name": "Bentonville", "state": "OH", "lat": "38.7455", "lng": "-83.6103"}, {"name": "Westminster", "state": "OH", "lat": "40.6990", "lng": "-83.9795"}, {"name": "Jeromesville", "state": "OH", "lat": "40.8037", "lng": "-82.1965"}, {"name": "Scio", "state": "OH", "lat": "40.3990", "lng": "-81.0882"}, {"name": "Bellbrook", "state": "OH", "lat": "39.6384", "lng": "-84.0864"}, {"name": "Marlboro", "state": "OH", "lat": "40.9504", "lng": "-81.2166"}, {"name": "Silverton", "state": "OH", "lat": "39.1883", "lng": "-84.4010"}, {"name": "Wightmans Grove", "state": "OH", "lat": "41.4241", "lng": "-83.0466"}, {"name": "Fairfield Beach", "state": "OH", "lat": "39.9183", "lng": "-82.4791"}]