[{"name": "Wister", "state": "OK", "lat": "34.9699", "lng": "-94.7205"}, {"name": "Caney", "state": "OK", "lat": "34.2356", "lng": "-96.2170"}, {"name": "Council Hill", "state": "OK", "lat": "35.5559", "lng": "-95.6525"}, {"name": "Remy", "state": "OK", "lat": "35.4578", "lng": "-94.4984"}, {"name": "Fargo", "state": "OK", "lat": "36.3741", "lng": "-99.6219"}, {"name": "Glencoe", "state": "OK", "lat": "36.2313", "lng": "-96.9302"}, {"name": "Boynton", "state": "OK", "lat": "35.6494", "lng": "-95.6544"}, {"name": "Tatums", "state": "OK", "lat": "34.4779", "lng": "-97.4661"}, {"name": "Fairfax", "state": "OK", "lat": "36.5698", "lng": "-96.7080"}, {"name": "The Village", "state": "OK", "lat": "35.5706", "lng": "-97.5567"}, {"name": "Scraper", "state": "OK", "lat": "35.9642", "lng": "-94.8912"}, {"name": "Lehigh", "state": "OK", "lat": "34.4708", "lng": "-96.2209"}, {"name": "Blue", "state": "OK", "lat": "33.9899", "lng": "-96.2304"}, {"name": "Panama", "state": "OK", "lat": "35.1715", "lng": "-94.6707"}, {"name": "Liberty", "state": "OK", "lat": "35.8602", "lng": "-95.9753"}, {"name": "Achille", "state": "OK", "lat": "33.8347", "lng": "-96.3901"}, {"name": "Disney", "state": "OK", "lat": "36.4770", "lng": "-95.0195"}, {"name": "Luther", "state": "OK", "lat": "35.6680", "lng": "-97.1905"}, {"name": "Old Green", "state": "OK", "lat": "35.9845", "lng": "-94.6036"}, {"name": "Welch", "state": "OK", "lat": "36.8739", "lng": "-95.0947"}, {"name": "Byng", "state": "OK", "lat": "34.8659", "lng": "-96.6678"}, {"name": "Waynoka", "state": "OK", "lat": "36.5849", "lng": "-98.8784"}, {"name": "Hoot Owl", "state": "OK", "lat": "36.3600", "lng": "-95.1214"}, {"name": "Indiahoma", "state": "OK", "lat": "34.6197", "lng": "-98.7522"}, {"name": "Brushy", "state": "OK", "lat": "35.5578", "lng": "-94.7434"}, {"name": "Springer", "state": "OK", "lat": "34.2909", "lng": "-97.1255"}, {"name": "Mooreland", "state": "OK", "lat": "36.4379", "lng": "-99.2045"}, {"name": "Carmen", "state": "OK", "lat": "36.5791", "lng": "-98.4578"}, {"name": "Wann", "state": "OK", "lat": "36.9146", "lng": "-95.8047"}, {"name": "Cushing", "state": "OK", "lat": "35.9797", "lng": "-96.7603"}, {"name": "Gate", "state": "OK", "lat": "36.8517", "lng": "-100.0552"}, {"name": "Albany", "state": "OK", "lat": "33.8769", "lng": "-96.1600"}, {"name": "Warr Acres", "state": "OK", "lat": "35.5284", "lng": "-97.6182"}, {"name": "Keota", "state": "OK", "lat": "35.2569", "lng": "-94.9225"}, {"name": "Hollister", "state": "OK", "lat": "34.3413", "lng": "-98.8706"}, {"name": "Cement", "state": "OK", "lat": "34.9362", "lng": "-98.1363"}, {"name": "Shattuck", "state": "OK", "lat": "36.2650", "lng": "-99.8774"}, {"name": "Tonkawa", "state": "OK", "lat": "36.6788", "lng": "-97.3281"}, {"name": "Copan", "state": "OK", "lat": "36.9008", "lng": "-95.9254"}, {"name": "Lindsay", "state": "OK", "lat": "34.8392", "lng": "-97.6105"}, {"name": "Zeb", "state": "OK", "lat": "35.8061", "lng": "-95.0438"}, {"name": "Helena", "state": "OK", "lat": "36.5466", "lng": "-98.2714"}, {"name": "Shawnee", "state": "OK", "lat": "35.3525", "lng": "-96.9647"}, {"name": "Christie", "state": "OK", "lat": "35.9674", "lng": "-94.6549"}, {"name": "Beggs", "state": "OK", "lat": "35.7769", "lng": "-96.0279"}, {"name": "Kenwood", "state": "OK", "lat": "36.3013", "lng": "-94.9979"}, {"name": "Broken Arrow", "state": "OK", "lat": "36.0365", "lng": "-95.7809"}, {"name": "Tenkiller", "state": "OK", "lat": "35.7975", "lng": "-94.8656"}, {"name": "Lambert", "state": "OK", "lat": "36.6832", "lng": "-98.4237"}, {"name": "Dickson", "state": "OK", "lat": "34.1876", "lng": "-96.9970"}, {"name": "Alex", "state": "OK", "lat": "34.9227", "lng": "-97.7763"}, {"name": "Rocky", "state": "OK", "lat": "35.1560", "lng": "-99.0594"}, {"name": "Del City", "state": "OK", "lat": "35.4483", "lng": "-97.4408"}, {"name": "Mead", "state": "OK", "lat": "34.0008", "lng": "-96.5110"}, {"name": "McCord", "state": "OK", "lat": "36.6798", "lng": "-97.0346"}, {"name": "Smith Village", "state": "OK", "lat": "35.4508", "lng": "-97.4570"}, {"name": "Vinita", "state": "OK", "lat": "36.6364", "lng": "-95.1769"}, {"name": "Pensacola", "state": "OK", "lat": "36.4556", "lng": "-95.1292"}, {"name": "Cooperton", "state": "OK", "lat": "34.8662", "lng": "-98.8759"}, {"name": "Hooker", "state": "OK", "lat": "36.8610", "lng": "-101.2161"}, {"name": "Nichols Hills", "state": "OK", "lat": "35.5468", "lng": "-97.5444"}, {"name": "Strong City", "state": "OK", "lat": "35.6699", "lng": "-99.6003"}, {"name": "Ponca City", "state": "OK", "lat": "36.7235", "lng": "-97.0679"}, {"name": "Grainola", "state": "OK", "lat": "36.9379", "lng": "-96.6488"}, {"name": "Greasy", "state": "OK", "lat": "35.6821", "lng": "-94.7177"}, {"name": "Sand Hill", "state": "OK", "lat": "35.6341", "lng": "-95.2013"}, {"name": "Clarita", "state": "OK", "lat": "34.4826", "lng": "-96.4367"}, {"name": "Perkins", "state": "OK", "lat": "35.9780", "lng": "-97.0299"}, {"name": "Langston", "state": "OK", "lat": "35.9324", "lng": "-97.2630"}, {"name": "Enid", "state": "OK", "lat": "36.4061", "lng": "-97.8701"}, {"name": "Agra", "state": "OK", "lat": "35.8950", "lng": "-96.8702"}, {"name": "Ravia", "state": "OK", "lat": "34.2407", "lng": "-96.7566"}, {"name": "Sulphur", "state": "OK", "lat": "34.4977", "lng": "-96.9899"}, {"name": "Shady Point", "state": "OK", "lat": "35.1278", "lng": "-94.6687"}, {"name": "Sycamore", "state": "OK", "lat": "36.3940", "lng": "-94.7160"}, {"name": "Calera", "state": "OK", "lat": "33.9313", "lng": "-96.4299"}, {"name": "Bethany", "state": "OK", "lat": "35.5072", "lng": "-97.6417"}, {"name": "Eldon", "state": "OK", "lat": "35.9305", "lng": "-94.8179"}, {"name": "Kinta", "state": "OK", "lat": "35.1193", "lng": "-95.2378"}, {"name": "Oilton", "state": "OK", "lat": "36.0821", "lng": "-96.5819"}, {"name": "Renfrow", "state": "OK", "lat": "36.9248", "lng": "-97.6571"}, {"name": "Sugden", "state": "OK", "lat": "34.0826", "lng": "-97.9788"}, {"name": "Kremlin", "state": "OK", "lat": "36.5466", "lng": "-97.8324"}, {"name": "Davidson", "state": "OK", "lat": "34.2421", "lng": "-99.0781"}, {"name": "Headrick", "state": "OK", "lat": "34.6268", "lng": "-99.1373"}, {"name": "Tushka", "state": "OK", "lat": "34.3178", "lng": "-96.1676"}, {"name": "Park Hill", "state": "OK", "lat": "35.8546", "lng": "-94.9559"}, {"name": "Hanna", "state": "OK", "lat": "35.2043", "lng": "-95.8893"}, {"name": "Grove", "state": "OK", "lat": "36.5929", "lng": "-94.7878"}, {"name": "Madill", "state": "OK", "lat": "34.0867", "lng": "-96.7742"}, {"name": "Hardesty", "state": "OK", "lat": "36.6147", "lng": "-101.1936"}, {"name": "Valliant", "state": "OK", "lat": "34.0043", "lng": "-95.0895"}, {"name": "Dover", "state": "OK", "lat": "35.9814", "lng": "-97.9106"}, {"name": "Chewey", "state": "OK", "lat": "36.0905", "lng": "-94.7385"}, {"name": "Le Flore", "state": "OK", "lat": "34.8985", "lng": "-94.9759"}, {"name": "Cloud Creek", "state": "OK", "lat": "36.2712", "lng": "-94.7900"}, {"name": "Connerville", "state": "OK", "lat": "34.4436", "lng": "-96.6359"}, {"name": "Meno", "state": "OK", "lat": "36.3882", "lng": "-98.1779"}, {"name": "Gideon", "state": "OK", "lat": "36.0088", "lng": "-95.0360"}, {"name": "Boley", "state": "OK", "lat": "35.4903", "lng": "-96.4793"}, {"name": "Guthrie", "state": "OK", "lat": "35.8424", "lng": "-97.4354"}, {"name": "Idabel", "state": "OK", "lat": "33.9042", "lng": "-94.8294"}, {"name": "St. Louis", "state": "OK", "lat": "35.0812", "lng": "-96.8598"}, {"name": "Terlton", "state": "OK", "lat": "36.1857", "lng": "-96.4904"}, {"name": "Rentiesville", "state": "OK", "lat": "35.5331", "lng": "-95.4849"}, {"name": "Geary", "state": "OK", "lat": "35.5927", "lng": "-98.2913"}, {"name": "Blackwell", "state": "OK", "lat": "36.8011", "lng": "-97.3009"}, {"name": "Braman", "state": "OK", "lat": "36.9237", "lng": "-97.3352"}, {"name": "Erin Springs", "state": "OK", "lat": "34.8113", "lng": "-97.6055"}, {"name": "Whitefield", "state": "OK", "lat": "35.2546", "lng": "-95.2391"}, {"name": "Foss", "state": "OK", "lat": "35.4500", "lng": "-99.1707"}, {"name": "Poteau", "state": "OK", "lat": "35.0430", "lng": "-94.6357"}, {"name": "Webbers Falls", "state": "OK", "lat": "35.5120", "lng": "-95.1602"}, {"name": "Lamar", "state": "OK", "lat": "35.0941", "lng": "-96.1238"}, {"name": "Sperry", "state": "OK", "lat": "36.2978", "lng": "-95.9917"}, {"name": "Bray", "state": "OK", "lat": "34.6160", "lng": "-97.8207"}, {"name": "Dripping Springs", "state": "OK", "lat": "36.1710", "lng": "-94.6852"}, {"name": "Ardmore", "state": "OK", "lat": "34.1943", "lng": "-97.1253"}, {"name": "Deer Lick", "state": "OK", "lat": "36.4595", "lng": "-94.7468"}, {"name": "Tupelo", "state": "OK", "lat": "34.6024", "lng": "-96.4204"}, {"name": "Westport", "state": "OK", "lat": "36.1953", "lng": "-96.3355"}, {"name": "Hulbert", "state": "OK", "lat": "35.9315", "lng": "-95.1436"}, {"name": "Nescatunga", "state": "OK", "lat": "36.7543", "lng": "-98.1560"}, {"name": "Stringtown", "state": "OK", "lat": "34.4696", "lng": "-96.0548"}, {"name": "Atoka", "state": "OK", "lat": "34.3857", "lng": "-96.1313"}, {"name": "Stillwater", "state": "OK", "lat": "36.1315", "lng": "-97.0740"}, {"name": "Pocola", "state": "OK", "lat": "35.2456", "lng": "-94.4774"}, {"name": "Commerce", "state": "OK", "lat": "36.9316", "lng": "-94.8706"}, {"name": "Kingfisher", "state": "OK", "lat": "35.8439", "lng": "-97.9380"}, {"name": "Wagoner", "state": "OK", "lat": "35.9641", "lng": "-95.3791"}, {"name": "Colcord", "state": "OK", "lat": "36.2647", "lng": "-94.6921"}, {"name": "Turley", "state": "OK", "lat": "36.2473", "lng": "-95.9654"}, {"name": "Davenport", "state": "OK", "lat": "35.7093", "lng": "-96.7643"}, {"name": "Savanna", "state": "OK", "lat": "34.8353", "lng": "-95.8357"}, {"name": "Thackerville", "state": "OK", "lat": "33.7935", "lng": "-97.1426"}, {"name": "Allen", "state": "OK", "lat": "34.8774", "lng": "-96.4130"}, {"name": "Quapaw", "state": "OK", "lat": "36.9581", "lng": "-94.7813"}, {"name": "Tecumseh", "state": "OK", "lat": "35.2639", "lng": "-96.9338"}, {"name": "Wardville", "state": "OK", "lat": "34.6550", "lng": "-96.0309"}, {"name": "Nardin", "state": "OK", "lat": "36.8041", "lng": "-97.4499"}, {"name": "Roland", "state": "OK", "lat": "35.4147", "lng": "-94.5137"}, {"name": "Brooksville", "state": "OK", "lat": "35.2103", "lng": "-96.9609"}, {"name": "Bearden", "state": "OK", "lat": "35.3568", "lng": "-96.3852"}, {"name": "Sayre", "state": "OK", "lat": "35.2974", "lng": "-99.6284"}, {"name": "Okmulgee", "state": "OK", "lat": "35.6137", "lng": "-96.0068"}, {"name": "Spencer", "state": "OK", "lat": "35.5108", "lng": "-97.3715"}, {"name": "Elmore City", "state": "OK", "lat": "34.6299", "lng": "-97.3909"}, {"name": "Olustee", "state": "OK", "lat": "34.5476", "lng": "-99.4241"}, {"name": "Drowning Creek", "state": "OK", "lat": "36.4778", "lng": "-94.8942"}, {"name": "Wanette", "state": "OK", "lat": "34.9627", "lng": "-97.0319"}, {"name": "Tishomingo", "state": "OK", "lat": "34.2387", "lng": "-96.6806"}, {"name": "Mazie", "state": "OK", "lat": "36.1425", "lng": "-95.3303"}, {"name": "Lyons Switch", "state": "OK", "lat": "35.7794", "lng": "-94.6933"}, {"name": "Mounds", "state": "OK", "lat": "35.8790", "lng": "-96.0682"}, {"name": "Okeene", "state": "OK", "lat": "36.1171", "lng": "-98.3165"}, {"name": "Newcastle", "state": "OK", "lat": "35.2404", "lng": "-97.5998"}, {"name": "Holdenville", "state": "OK", "lat": "35.0836", "lng": "-96.4004"}, {"name": "Cimarron City", "state": "OK", "lat": "35.8887", "lng": "-97.6022"}, {"name": "Hominy", "state": "OK", "lat": "36.4220", "lng": "-96.3929"}, {"name": "Orlando", "state": "OK", "lat": "36.1359", "lng": "-97.3651"}, {"name": "Choctaw", "state": "OK", "lat": "35.4800", "lng": "-97.2666"}, {"name": "Indianola", "state": "OK", "lat": "35.1635", "lng": "-95.7761"}, {"name": "Norman", "state": "OK", "lat": "35.2335", "lng": "-97.3471"}, {"name": "Pump Back", "state": "OK", "lat": "36.2707", "lng": "-95.1178"}, {"name": "Jenks", "state": "OK", "lat": "35.9981", "lng": "-95.9737"}, {"name": "Corn", "state": "OK", "lat": "35.3791", "lng": "-98.7816"}, {"name": "Millerton", "state": "OK", "lat": "33.9832", "lng": "-95.0177"}, {"name": "Seiling", "state": "OK", "lat": "36.1548", "lng": "-98.9296"}, {"name": "Valley Brook", "state": "OK", "lat": "35.4027", "lng": "-97.4814"}, {"name": "Rosedale", "state": "OK", "lat": "34.9188", "lng": "-97.1855"}, {"name": "Etowah", "state": "OK", "lat": "35.1291", "lng": "-97.1640"}, {"name": "Forgan", "state": "OK", "lat": "36.9068", "lng": "-100.5377"}, {"name": "Marshall", "state": "OK", "lat": "36.1555", "lng": "-97.6257"}, {"name": "Lucien", "state": "OK", "lat": "36.2747", "lng": "-97.4551"}, {"name": "Haskell", "state": "OK", "lat": "35.8187", "lng": "-95.6805"}, {"name": "Addington", "state": "OK", "lat": "34.2431", "lng": "-97.9661"}, {"name": "Goltry", "state": "OK", "lat": "36.5319", "lng": "-98.1514"}, {"name": "New Cordell", "state": "OK", "lat": "35.2973", "lng": "-98.9816"}, {"name": "Drummond", "state": "OK", "lat": "36.3012", "lng": "-98.0358"}, {"name": "Bernice", "state": "OK", "lat": "36.6220", "lng": "-94.9108"}, {"name": "Elm Grove", "state": "OK", "lat": "35.7925", "lng": "-94.5630"}, {"name": "Gould", "state": "OK", "lat": "34.6694", "lng": "-99.7737"}, {"name": "Moore", "state": "OK", "lat": "35.3293", "lng": "-97.4757"}, {"name": "Zena", "state": "OK", "lat": "36.5130", "lng": "-94.8454"}, {"name": "Texhoma", "state": "OK", "lat": "36.5053", "lng": "-101.7876"}, {"name": "Pauls Valley", "state": "OK", "lat": "34.7236", "lng": "-97.2291"}, {"name": "Nicut", "state": "OK", "lat": "35.5986", "lng": "-94.5626"}, {"name": "Waurika", "state": "OK", "lat": "34.1846", "lng": "-98.0244"}, {"name": "Felt", "state": "OK", "lat": "36.5633", "lng": "-102.7950"}, {"name": "Catoosa", "state": "OK", "lat": "36.1832", "lng": "-95.7663"}, {"name": "Devol", "state": "OK", "lat": "34.1954", "lng": "-98.5881"}, {"name": "Jones", "state": "OK", "lat": "35.5662", "lng": "-97.2901"}, {"name": "Loyal", "state": "OK", "lat": "35.9727", "lng": "-98.1184"}, {"name": "Elk City", "state": "OK", "lat": "35.3849", "lng": "-99.4333"}, {"name": "Amorita", "state": "OK", "lat": "36.9240", "lng": "-98.2936"}, {"name": "Blanchard", "state": "OK", "lat": "35.1523", "lng": "-97.6612"}, {"name": "Marble City", "state": "OK", "lat": "35.5824", "lng": "-94.8186"}, {"name": "Tagg Flats", "state": "OK", "lat": "36.3387", "lng": "-94.9037"}, {"name": "Arnett", "state": "OK", "lat": "36.1349", "lng": "-99.7711"}, {"name": "Henryetta", "state": "OK", "lat": "35.4421", "lng": "-95.9847"}, {"name": "Burlington", "state": "OK", "lat": "36.9001", "lng": "-98.4234"}, {"name": "Fairland", "state": "OK", "lat": "36.7506", "lng": "-94.8484"}, {"name": "Fort Towson", "state": "OK", "lat": "34.0244", "lng": "-95.2972"}, {"name": "Yale", "state": "OK", "lat": "36.1150", "lng": "-96.7009"}, {"name": "Fletcher", "state": "OK", "lat": "34.8224", "lng": "-98.2391"}, {"name": "Foraker", "state": "OK", "lat": "36.8721", "lng": "-96.5692"}, {"name": "Sequoyah", "state": "OK", "lat": "36.3797", "lng": "-95.5969"}, {"name": "Crescent", "state": "OK", "lat": "35.9523", "lng": "-97.5940"}, {"name": "Wellston", "state": "OK", "lat": "35.6861", "lng": "-97.0616"}, {"name": "Camargo", "state": "OK", "lat": "36.0179", "lng": "-99.2883"}, {"name": "Lone Wolf", "state": "OK", "lat": "34.9904", "lng": "-99.2457"}, {"name": "Spiro", "state": "OK", "lat": "35.2412", "lng": "-94.6229"}, {"name": "Fort Coffee", "state": "OK", "lat": "35.2942", "lng": "-94.5726"}, {"name": "Oaks", "state": "OK", "lat": "36.1695", "lng": "-94.8526"}, {"name": "Aline", "state": "OK", "lat": "36.5096", "lng": "-98.4486"}, {"name": "Apache", "state": "OK", "lat": "34.8938", "lng": "-98.3581"}, {"name": "Pin Oak Acres", "state": "OK", "lat": "36.1226", "lng": "-95.2889"}, {"name": "Hitchita", "state": "OK", "lat": "35.5198", "lng": "-95.7519"}, {"name": "Wetumka", "state": "OK", "lat": "35.2410", "lng": "-96.2389"}, {"name": "Box", "state": "OK", "lat": "35.5784", "lng": "-94.9718"}, {"name": "Arcadia", "state": "OK", "lat": "35.6655", "lng": "-97.3255"}, {"name": "Canadian", "state": "OK", "lat": "35.1741", "lng": "-95.6496"}, {"name": "Kemp", "state": "OK", "lat": "33.7694", "lng": "-96.3544"}, {"name": "Healdton", "state": "OK", "lat": "34.2335", "lng": "-97.4868"}, {"name": "Sand Springs", "state": "OK", "lat": "36.1343", "lng": "-96.1283"}, {"name": "Fairfield", "state": "OK", "lat": "35.8407", "lng": "-94.6062"}, {"name": "Haworth", "state": "OK", "lat": "33.8404", "lng": "-94.6571"}, {"name": "Hinton", "state": "OK", "lat": "35.4797", "lng": "-98.3588"}, {"name": "Dodge", "state": "OK", "lat": "36.5789", "lng": "-94.6385"}, {"name": "Osage", "state": "OK", "lat": "36.2949", "lng": "-96.4179"}, {"name": "Chickasha", "state": "OK", "lat": "35.0410", "lng": "-97.9472"}, {"name": "Burbank", "state": "OK", "lat": "36.6964", "lng": "-96.7294"}, {"name": "Bessie", "state": "OK", "lat": "35.3855", "lng": "-98.9894"}, {"name": "Dennis", "state": "OK", "lat": "36.5433", "lng": "-94.8693"}, {"name": "Pink", "state": "OK", "lat": "35.2327", "lng": "-97.1002"}, {"name": "Ralston", "state": "OK", "lat": "36.5036", "lng": "-96.7374"}, {"name": "Coleman", "state": "OK", "lat": "34.2635", "lng": "-96.4194"}, {"name": "May", "state": "OK", "lat": "36.6174", "lng": "-99.7484"}, {"name": "Longtown", "state": "OK", "lat": "35.2405", "lng": "-95.5183"}, {"name": "Latta", "state": "OK", "lat": "34.7532", "lng": "-96.7088"}, {"name": "Randlett", "state": "OK", "lat": "34.1773", "lng": "-98.4639"}, {"name": "Grandview", "state": "OK", "lat": "35.9556", "lng": "-95.0047"}, {"name": "Wynnewood", "state": "OK", "lat": "34.6442", "lng": "-97.1627"}, {"name": "Johnson", "state": "OK", "lat": "35.4056", "lng": "-96.8418"}, {"name": "Alderson", "state": "OK", "lat": "34.9008", "lng": "-95.6900"}, {"name": "Avant", "state": "OK", "lat": "36.4886", "lng": "-96.0599"}, {"name": "Cole", "state": "OK", "lat": "35.0992", "lng": "-97.5663"}, {"name": "South Coffeyville", "state": "OK", "lat": "36.9934", "lng": "-95.6219"}, {"name": "Greenfield", "state": "OK", "lat": "35.7289", "lng": "-98.3776"}, {"name": "Willow", "state": "OK", "lat": "35.0514", "lng": "-99.5099"}, {"name": "Dacoma", "state": "OK", "lat": "36.6596", "lng": "-98.5635"}, {"name": "Turpin", "state": "OK", "lat": "36.8705", "lng": "-100.8825"}, {"name": "Cheyenne", "state": "OK", "lat": "35.6102", "lng": "-99.6781"}, {"name": "Meridian", "state": "OK", "lat": "35.8440", "lng": "-97.2456"}, {"name": "Ketchum", "state": "OK", "lat": "36.5259", "lng": "-95.0386"}, {"name": "Edmond", "state": "OK", "lat": "35.6689", "lng": "-97.4159"}, {"name": "Steely Hollow", "state": "OK", "lat": "35.9887", "lng": "-94.9578"}, {"name": "Nicoma Park", "state": "OK", "lat": "35.4913", "lng": "-97.3254"}, {"name": "Hickory", "state": "OK", "lat": "34.5570", "lng": "-96.8580"}, {"name": "Bradley", "state": "OK", "lat": "34.8780", "lng": "-97.7087"}, {"name": "Carlisle", "state": "OK", "lat": "35.5042", "lng": "-95.0323"}, {"name": "Milburn", "state": "OK", "lat": "34.2401", "lng": "-96.5520"}, {"name": "Watts", "state": "OK", "lat": "36.1073", "lng": "-94.5717"}, {"name": "Swink", "state": "OK", "lat": "34.0169", "lng": "-95.2022"}, {"name": "Carney", "state": "OK", "lat": "35.8065", "lng": "-97.0153"}, {"name": "New Woodville", "state": "OK", "lat": "33.9687", "lng": "-96.6550"}, {"name": "Bennington", "state": "OK", "lat": "34.0038", "lng": "-96.0375"}, {"name": "Tuttle", "state": "OK", "lat": "35.3071", "lng": "-97.7560"}, {"name": "Cartwright", "state": "OK", "lat": "33.8555", "lng": "-96.5610"}, {"name": "Eakly", "state": "OK", "lat": "35.3056", "lng": "-98.5561"}, {"name": "Redbird", "state": "OK", "lat": "35.8871", "lng": "-95.5872"}, {"name": "Calumet", "state": "OK", "lat": "35.6014", "lng": "-98.1247"}, {"name": "Dewar", "state": "OK", "lat": "35.4583", "lng": "-95.9476"}, {"name": "Weatherford", "state": "OK", "lat": "35.5384", "lng": "-98.6872"}, {"name": "Canton", "state": "OK", "lat": "36.0550", "lng": "-98.5884"}, {"name": "Phillips", "state": "OK", "lat": "34.5041", "lng": "-96.2231"}, {"name": "Jefferson", "state": "OK", "lat": "36.7203", "lng": "-97.7909"}, {"name": "Marland", "state": "OK", "lat": "36.5611", "lng": "-97.1529"}, {"name": "Boise City", "state": "OK", "lat": "36.7314", "lng": "-102.5098"}, {"name": "Minco", "state": "OK", "lat": "35.3174", "lng": "-97.9517"}, {"name": "Sour John", "state": "OK", "lat": "35.6206", "lng": "-95.1433"}, {"name": "Rocky Mountain", "state": "OK", "lat": "35.7936", "lng": "-94.7780"}, {"name": "Empire City", "state": "OK", "lat": "34.4736", "lng": "-98.0563"}, {"name": "Krebs", "state": "OK", "lat": "34.9300", "lng": "-95.7200"}, {"name": "Fairview", "state": "OK", "lat": "36.2705", "lng": "-98.4771"}, {"name": "Bison", "state": "OK", "lat": "36.1960", "lng": "-97.8979"}, {"name": "Keyes", "state": "OK", "lat": "36.8077", "lng": "-102.2518"}, {"name": "Comanche", "state": "OK", "lat": "34.3594", "lng": "-97.9479"}, {"name": "Talihina", "state": "OK", "lat": "34.7522", "lng": "-95.0409"}, {"name": "Mill Creek", "state": "OK", "lat": "34.4021", "lng": "-96.8251"}, {"name": "Lake Aluma", "state": "OK", "lat": "35.5334", "lng": "-97.4484"}, {"name": "Shidler", "state": "OK", "lat": "36.7809", "lng": "-96.6596"}, {"name": "Gage", "state": "OK", "lat": "36.3182", "lng": "-99.7577"}, {"name": "Lost City", "state": "OK", "lat": "36.0006", "lng": "-95.1223"}, {"name": "Fitzhugh", "state": "OK", "lat": "34.6581", "lng": "-96.7665"}, {"name": "Forest Park", "state": "OK", "lat": "35.5095", "lng": "-97.4469"}, {"name": "Clayton", "state": "OK", "lat": "34.5857", "lng": "-95.3561"}, {"name": "Marietta", "state": "OK", "lat": "33.9355", "lng": "-97.1242"}, {"name": "Taloga", "state": "OK", "lat": "36.0403", "lng": "-98.9641"}, {"name": "Lawton", "state": "OK", "lat": "34.6176", "lng": "-98.4203"}, {"name": "Tuskahoma", "state": "OK", "lat": "34.6272", "lng": "-95.2779"}, {"name": "Colony", "state": "OK", "lat": "35.3486", "lng": "-98.6713"}, {"name": "Prue", "state": "OK", "lat": "36.2497", "lng": "-96.2667"}, {"name": "Barnsdall", "state": "OK", "lat": "36.5607", "lng": "-96.1627"}, {"name": "Breckenridge", "state": "OK", "lat": "36.4622", "lng": "-97.7273"}, {"name": "Manitou", "state": "OK", "lat": "34.5071", "lng": "-98.9809"}, {"name": "Isabella", "state": "OK", "lat": "36.2354", "lng": "-98.3354"}, {"name": "Ringwood", "state": "OK", "lat": "36.3819", "lng": "-98.2411"}, {"name": "Geronimo", "state": "OK", "lat": "34.4852", "lng": "-98.3893"}, {"name": "Canute", "state": "OK", "lat": "35.4220", "lng": "-99.2776"}, {"name": "Red Oak", "state": "OK", "lat": "34.9508", "lng": "-95.0814"}, {"name": "Alva", "state": "OK", "lat": "36.7893", "lng": "-98.6648"}, {"name": "White Water", "state": "OK", "lat": "36.5017", "lng": "-94.7289"}, {"name": "Oklahoma City", "state": "OK", "lat": "35.4676", "lng": "-97.5137"}, {"name": "Elgin", "state": "OK", "lat": "34.7848", "lng": "-98.3010"}, {"name": "Sweetwater", "state": "OK", "lat": "35.4222", "lng": "-99.9116"}, {"name": "Smithville", "state": "OK", "lat": "34.4689", "lng": "-94.6462"}, {"name": "Beaver", "state": "OK", "lat": "36.8151", "lng": "-100.5235"}, {"name": "Garvin", "state": "OK", "lat": "33.9559", "lng": "-94.9348"}, {"name": "Oakwood", "state": "OK", "lat": "35.9315", "lng": "-98.7031"}, {"name": "Sterling", "state": "OK", "lat": "34.7498", "lng": "-98.1729"}, {"name": "Noble", "state": "OK", "lat": "35.1385", "lng": "-97.3710"}, {"name": "Sportsmen Acres", "state": "OK", "lat": "36.2458", "lng": "-95.2515"}, {"name": "Paden", "state": "OK", "lat": "35.5076", "lng": "-96.5665"}, {"name": "Reydon", "state": "OK", "lat": "35.6502", "lng": "-99.9239"}, {"name": "Mountain View", "state": "OK", "lat": "35.0994", "lng": "-98.7502"}, {"name": "Lahoma", "state": "OK", "lat": "36.3878", "lng": "-98.0898"}, {"name": "Briggs", "state": "OK", "lat": "35.9210", "lng": "-94.9000"}, {"name": "Zion", "state": "OK", "lat": "35.7853", "lng": "-94.6378"}, {"name": "Bartlesville", "state": "OK", "lat": "36.7357", "lng": "-95.9452"}, {"name": "Arapaho", "state": "OK", "lat": "35.5779", "lng": "-98.9593"}, {"name": "Tahlequah", "state": "OK", "lat": "35.9116", "lng": "-94.9773"}, {"name": "Tryon", "state": "OK", "lat": "35.8815", "lng": "-96.9655"}, {"name": "Lebanon", "state": "OK", "lat": "33.9737", "lng": "-96.9177"}, {"name": "Sentinel", "state": "OK", "lat": "35.1571", "lng": "-99.1736"}, {"name": "Drumright", "state": "OK", "lat": "35.9893", "lng": "-96.5990"}, {"name": "Locust Grove", "state": "OK", "lat": "36.1978", "lng": "-95.1685"}, {"name": "North Miami", "state": "OK", "lat": "36.9199", "lng": "-94.8797"}, {"name": "Bull Hollow", "state": "OK", "lat": "36.3046", "lng": "-94.9008"}, {"name": "Rush Springs", "state": "OK", "lat": "34.7792", "lng": "-97.9572"}, {"name": "Porter", "state": "OK", "lat": "35.8683", "lng": "-95.5202"}, {"name": "Optima", "state": "OK", "lat": "36.7620", "lng": "-101.3497"}, {"name": "Jennings", "state": "OK", "lat": "36.1823", "lng": "-96.5689"}, {"name": "Francis", "state": "OK", "lat": "34.8742", "lng": "-96.5926"}, {"name": "Cowlington", "state": "OK", "lat": "35.3106", "lng": "-94.7879"}, {"name": "Gregory", "state": "OK", "lat": "36.1697", "lng": "-95.5742"}, {"name": "Amber", "state": "OK", "lat": "35.1602", "lng": "-97.8821"}, {"name": "Maramec", "state": "OK", "lat": "36.2419", "lng": "-96.6806"}, {"name": "Bromide", "state": "OK", "lat": "34.4180", "lng": "-96.4949"}, {"name": "Morrison", "state": "OK", "lat": "36.2919", "lng": "-97.0327"}, {"name": "Leach", "state": "OK", "lat": "36.1979", "lng": "-94.9099"}, {"name": "Kenefic", "state": "OK", "lat": "34.1501", "lng": "-96.3642"}, {"name": "Gore", "state": "OK", "lat": "35.5417", "lng": "-95.1129"}, {"name": "Pond Creek", "state": "OK", "lat": "36.6675", "lng": "-97.8029"}, {"name": "Fairmont", "state": "OK", "lat": "36.3552", "lng": "-97.7045"}, {"name": "Tipton", "state": "OK", "lat": "34.5020", "lng": "-99.1383"}, {"name": "Laverne", "state": "OK", "lat": "36.7052", "lng": "-99.8970"}, {"name": "Fort Supply", "state": "OK", "lat": "36.5722", "lng": "-99.5736"}, {"name": "McCurtain", "state": "OK", "lat": "35.1509", "lng": "-94.9669"}, {"name": "Collinsville", "state": "OK", "lat": "36.3720", "lng": "-95.8607"}, {"name": "Salem", "state": "OK", "lat": "35.7611", "lng": "-94.5755"}, {"name": "Porum", "state": "OK", "lat": "35.3568", "lng": "-95.2634"}, {"name": "Anadarko", "state": "OK", "lat": "35.0652", "lng": "-98.2441"}, {"name": "Deer Creek", "state": "OK", "lat": "36.8067", "lng": "-97.5193"}, {"name": "Twin Oaks", "state": "OK", "lat": "36.1927", "lng": "-94.8217"}, {"name": "Lookeba", "state": "OK", "lat": "35.3630", "lng": "-98.3638"}, {"name": "Carnegie", "state": "OK", "lat": "35.1023", "lng": "-98.5995"}, {"name": "Verdigris", "state": "OK", "lat": "36.2534", "lng": "-95.6604"}, {"name": "Platter", "state": "OK", "lat": "33.9066", "lng": "-96.5337"}, {"name": "Bluejacket", "state": "OK", "lat": "36.8007", "lng": "-95.0741"}, {"name": "Gans", "state": "OK", "lat": "35.3874", "lng": "-94.6950"}, {"name": "Rosston", "state": "OK", "lat": "36.8128", "lng": "-99.9328"}, {"name": "Douglas", "state": "OK", "lat": "36.2604", "lng": "-97.6675"}, {"name": "Cameron", "state": "OK", "lat": "35.1351", "lng": "-94.5360"}, {"name": "Foster", "state": "OK", "lat": "34.5941", "lng": "-97.4928"}, {"name": "Vera", "state": "OK", "lat": "36.4513", "lng": "-95.8907"}, {"name": "Strang", "state": "OK", "lat": "36.4122", "lng": "-95.1345"}, {"name": "Whitesboro", "state": "OK", "lat": "34.6965", "lng": "-94.8790"}, {"name": "Bridgeport", "state": "OK", "lat": "35.5476", "lng": "-98.3775"}, {"name": "Kiowa", "state": "OK", "lat": "34.7223", "lng": "-95.9018"}, {"name": "Centrahoma", "state": "OK", "lat": "34.6104", "lng": "-96.3437"}, {"name": "Wilburton", "state": "OK", "lat": "34.9183", "lng": "-95.3047"}, {"name": "Pryor Creek", "state": "OK", "lat": "36.2998", "lng": "-95.3102"}, {"name": "Mannford", "state": "OK", "lat": "36.1295", "lng": "-96.3347"}, {"name": "Mangum", "state": "OK", "lat": "34.8783", "lng": "-99.5040"}, {"name": "Tamaha", "state": "OK", "lat": "35.4060", "lng": "-95.0181"}, {"name": "Coweta", "state": "OK", "lat": "35.9680", "lng": "-95.6543"}, {"name": "Waukomis", "state": "OK", "lat": "36.2833", "lng": "-97.9038"}, {"name": "Sawyer", "state": "OK", "lat": "34.0205", "lng": "-95.3774"}, {"name": "Bokoshe", "state": "OK", "lat": "35.1908", "lng": "-94.7902"}, {"name": "Moffett", "state": "OK", "lat": "35.4039", "lng": "-94.4553"}, {"name": "Seminole", "state": "OK", "lat": "35.2346", "lng": "-96.6500"}, {"name": "Gotebo", "state": "OK", "lat": "35.0711", "lng": "-98.8744"}, {"name": "Ramona", "state": "OK", "lat": "36.5321", "lng": "-95.9260"}, {"name": "Burns Flat", "state": "OK", "lat": "35.3548", "lng": "-99.1751"}, {"name": "Hoffman", "state": "OK", "lat": "35.4889", "lng": "-95.8449"}, {"name": "Macomb", "state": "OK", "lat": "35.1479", "lng": "-97.0087"}, {"name": "Depew", "state": "OK", "lat": "35.8009", "lng": "-96.5076"}, {"name": "Roosevelt", "state": "OK", "lat": "34.8477", "lng": "-99.0227"}, {"name": "Meeker", "state": "OK", "lat": "35.4852", "lng": "-96.8951"}, {"name": "Copeland", "state": "OK", "lat": "36.6570", "lng": "-94.8204"}, {"name": "Hugo", "state": "OK", "lat": "34.0121", "lng": "-95.5119"}, {"name": "Okay", "state": "OK", "lat": "35.8540", "lng": "-95.3143"}, {"name": "Langley", "state": "OK", "lat": "36.4707", "lng": "-95.0539"}, {"name": "Short", "state": "OK", "lat": "35.5664", "lng": "-94.4936"}, {"name": "Marlow", "state": "OK", "lat": "34.6297", "lng": "-97.9579"}, {"name": "Crowder", "state": "OK", "lat": "35.1157", "lng": "-95.6787"}, {"name": "Horntown", "state": "OK", "lat": "35.0869", "lng": "-96.2476"}, {"name": "Foyil", "state": "OK", "lat": "36.4309", "lng": "-95.5215"}, {"name": "Tullahassee", "state": "OK", "lat": "35.8418", "lng": "-95.4387"}, {"name": "Hendrix", "state": "OK", "lat": "33.7753", "lng": "-96.4071"}, {"name": "Valley Park", "state": "OK", "lat": "36.2818", "lng": "-95.7330"}, {"name": "Haileyville", "state": "OK", "lat": "34.8542", "lng": "-95.5784"}, {"name": "Hunter", "state": "OK", "lat": "36.5637", "lng": "-97.6625"}, {"name": "Leedey", "state": "OK", "lat": "35.8689", "lng": "-99.3450"}, {"name": "Asher", "state": "OK", "lat": "34.9884", "lng": "-96.9254"}, {"name": "Fort Cobb", "state": "OK", "lat": "35.1041", "lng": "-98.4417"}, {"name": "Wewoka", "state": "OK", "lat": "35.1441", "lng": "-96.4967"}, {"name": "Friendship", "state": "OK", "lat": "34.6978", "lng": "-99.2287"}, {"name": "Medford", "state": "OK", "lat": "36.8038", "lng": "-97.7379"}, {"name": "Taft", "state": "OK", "lat": "35.7607", "lng": "-95.5455"}, {"name": "Pawnee", "state": "OK", "lat": "36.3363", "lng": "-96.8019"}, {"name": "New Eucha", "state": "OK", "lat": "36.3912", "lng": "-94.8522"}, {"name": "Cleo Springs", "state": "OK", "lat": "36.4045", "lng": "-98.4401"}, {"name": "Perry", "state": "OK", "lat": "36.2844", "lng": "-97.3088"}, {"name": "Wapanucka", "state": "OK", "lat": "34.3736", "lng": "-96.4253"}, {"name": "Ringling", "state": "OK", "lat": "34.1784", "lng": "-97.5920"}, {"name": "Heavener", "state": "OK", "lat": "34.8919", "lng": "-94.6075"}, {"name": "Old Eucha", "state": "OK", "lat": "36.3551", "lng": "-94.9379"}, {"name": "Castle", "state": "OK", "lat": "35.4752", "lng": "-96.3835"}, {"name": "Limestone", "state": "OK", "lat": "36.3143", "lng": "-95.7477"}, {"name": "Jet", "state": "OK", "lat": "36.6663", "lng": "-98.1816"}, {"name": "Ochelata", "state": "OK", "lat": "36.6011", "lng": "-95.9808"}, {"name": "Piedmont", "state": "OK", "lat": "35.6784", "lng": "-97.7528"}, {"name": "Teresita", "state": "OK", "lat": "36.1230", "lng": "-94.9803"}, {"name": "Rocky Ford", "state": "OK", "lat": "36.1749", "lng": "-94.9113"}, {"name": "Midwest City", "state": "OK", "lat": "35.4630", "lng": "-97.3709"}, {"name": "Vian", "state": "OK", "lat": "35.5018", "lng": "-94.9698"}, {"name": "Narcissa", "state": "OK", "lat": "36.8010", "lng": "-94.9278"}, {"name": "Hallett", "state": "OK", "lat": "36.2316", "lng": "-96.5678"}, {"name": "Goodwell", "state": "OK", "lat": "36.5943", "lng": "-101.6326"}, {"name": "Kenton", "state": "OK", "lat": "36.9064", "lng": "-102.9652"}, {"name": "Wilson", "state": "OK", "lat": "34.1685", "lng": "-97.4260"}, {"name": "Blanco", "state": "OK", "lat": "34.7507", "lng": "-95.7736"}, {"name": "Cherokee", "state": "OK", "lat": "36.7547", "lng": "-98.3551"}, {"name": "Notchietown", "state": "OK", "lat": "35.5857", "lng": "-95.0901"}, {"name": "Kaw City", "state": "OK", "lat": "36.7682", "lng": "-96.8629"}, {"name": "Spavinaw", "state": "OK", "lat": "36.3926", "lng": "-95.0502"}, {"name": "Oologah", "state": "OK", "lat": "36.4436", "lng": "-95.7085"}, {"name": "Wainwright", "state": "OK", "lat": "35.6134", "lng": "-95.5657"}, {"name": "Chester", "state": "OK", "lat": "36.2165", "lng": "-98.9208"}, {"name": "Pinhook Corner", "state": "OK", "lat": "35.5314", "lng": "-94.8910"}, {"name": "Lotsee", "state": "OK", "lat": "36.1334", "lng": "-96.2091"}, {"name": "Thomas", "state": "OK", "lat": "35.7476", "lng": "-98.7494"}, {"name": "Gene Autry", "state": "OK", "lat": "34.3151", "lng": "-97.0384"}, {"name": "Blackgum", "state": "OK", "lat": "35.6112", "lng": "-94.9900"}, {"name": "Duncan", "state": "OK", "lat": "34.5425", "lng": "-97.9190"}, {"name": "Justice", "state": "OK", "lat": "36.2909", "lng": "-95.5635"}, {"name": "Wayne", "state": "OK", "lat": "34.9171", "lng": "-97.3166"}, {"name": "Rose", "state": "OK", "lat": "36.2123", "lng": "-95.0382"}, {"name": "Woodall", "state": "OK", "lat": "35.8246", "lng": "-95.0823"}, {"name": "Soper", "state": "OK", "lat": "34.0322", "lng": "-95.6963"}, {"name": "Yeager", "state": "OK", "lat": "35.1567", "lng": "-96.3400"}, {"name": "Talala", "state": "OK", "lat": "36.5294", "lng": "-95.7011"}, {"name": "Iron Post", "state": "OK", "lat": "36.1557", "lng": "-95.1351"}, {"name": "Dustin", "state": "OK", "lat": "35.2712", "lng": "-96.0320"}, {"name": "Sasakwa", "state": "OK", "lat": "34.9468", "lng": "-96.5253"}, {"name": "Prague", "state": "OK", "lat": "35.4997", "lng": "-96.6999"}, {"name": "Byron", "state": "OK", "lat": "36.9014", "lng": "-98.2946"}, {"name": "Webb City", "state": "OK", "lat": "36.8074", "lng": "-96.7119"}, {"name": "Westville", "state": "OK", "lat": "35.9904", "lng": "-94.5743"}, {"name": "Slaughterville", "state": "OK", "lat": "35.0910", "lng": "-97.2879"}, {"name": "Goldsby", "state": "OK", "lat": "35.1304", "lng": "-97.4779"}, {"name": "Stigler", "state": "OK", "lat": "35.2566", "lng": "-95.1185"}, {"name": "Roff", "state": "OK", "lat": "34.6288", "lng": "-96.8411"}, {"name": "Bell", "state": "OK", "lat": "35.7544", "lng": "-94.5349"}, {"name": "Panola", "state": "OK", "lat": "34.9273", "lng": "-95.2099"}, {"name": "Leon", "state": "OK", "lat": "33.8774", "lng": "-97.4291"}, {"name": "Yukon", "state": "OK", "lat": "35.5201", "lng": "-97.7638"}, {"name": "Dibble", "state": "OK", "lat": "35.0151", "lng": "-97.6275"}, {"name": "Peavine", "state": "OK", "lat": "35.8903", "lng": "-94.6064"}, {"name": "Belfonte", "state": "OK", "lat": "35.5368", "lng": "-94.5507"}, {"name": "Stilwell", "state": "OK", "lat": "35.8151", "lng": "-94.6312"}, {"name": "Konawa", "state": "OK", "lat": "34.9582", "lng": "-96.7535"}, {"name": "Hitchcock", "state": "OK", "lat": "35.9676", "lng": "-98.3497"}, {"name": "Okemah", "state": "OK", "lat": "35.4297", "lng": "-96.3005"}, {"name": "Coyle", "state": "OK", "lat": "35.9538", "lng": "-97.2388"}, {"name": "Okarche", "state": "OK", "lat": "35.7189", "lng": "-97.9757"}, {"name": "Badger Lee", "state": "OK", "lat": "35.4724", "lng": "-94.8151"}, {"name": "Nowata", "state": "OK", "lat": "36.6990", "lng": "-95.6379"}, {"name": "Fort Gibson", "state": "OK", "lat": "35.7766", "lng": "-95.2599"}, {"name": "Texola", "state": "OK", "lat": "35.2222", "lng": "-99.9927"}, {"name": "Shamrock", "state": "OK", "lat": "35.9114", "lng": "-96.5772"}, {"name": "Monroe", "state": "OK", "lat": "34.9937", "lng": "-94.5155"}, {"name": "Salina", "state": "OK", "lat": "36.2907", "lng": "-95.1519"}, {"name": "Grant", "state": "OK", "lat": "33.9387", "lng": "-95.5155"}, {"name": "Cayuga", "state": "OK", "lat": "36.6253", "lng": "-94.6542"}, {"name": "Terral", "state": "OK", "lat": "33.8966", "lng": "-97.9383"}, {"name": "Arpelar", "state": "OK", "lat": "34.9356", "lng": "-95.9589"}, {"name": "Keys", "state": "OK", "lat": "35.8056", "lng": "-94.9425"}, {"name": "Blair", "state": "OK", "lat": "34.7800", "lng": "-99.3329"}, {"name": "Longdale", "state": "OK", "lat": "36.1337", "lng": "-98.5509"}, {"name": "Stoney Point", "state": "OK", "lat": "35.5847", "lng": "-94.6635"}, {"name": "Howe", "state": "OK", "lat": "34.9500", "lng": "-94.6408"}, {"name": "Hastings", "state": "OK", "lat": "34.2242", "lng": "-98.1087"}, {"name": "Woodward", "state": "OK", "lat": "36.4246", "lng": "-99.4057"}, {"name": "Altus", "state": "OK", "lat": "34.6566", "lng": "-99.3051"}, {"name": "Putnam", "state": "OK", "lat": "35.8559", "lng": "-98.9679"}, {"name": "Cornish", "state": "OK", "lat": "34.1637", "lng": "-97.5967"}, {"name": "Clearview", "state": "OK", "lat": "35.3971", "lng": "-96.1908"}, {"name": "Pawhuska", "state": "OK", "lat": "36.6687", "lng": "-96.3312"}, {"name": "Evening Shade", "state": "OK", "lat": "35.6195", "lng": "-94.9103"}, {"name": "Mustang", "state": "OK", "lat": "35.3917", "lng": "-97.7246"}, {"name": "Brent", "state": "OK", "lat": "35.3640", "lng": "-94.7880"}, {"name": "Cashion", "state": "OK", "lat": "35.8039", "lng": "-97.6753"}, {"name": "Welling", "state": "OK", "lat": "35.8561", "lng": "-94.8457"}, {"name": "Temple", "state": "OK", "lat": "34.2730", "lng": "-98.2352"}, {"name": "East Duke", "state": "OK", "lat": "34.6628", "lng": "-99.5696"}, {"name": "Blackburn", "state": "OK", "lat": "36.3731", "lng": "-96.5965"}, {"name": "Bokchito", "state": "OK", "lat": "34.0179", "lng": "-96.1416"}, {"name": "Stonewall", "state": "OK", "lat": "34.6515", "lng": "-96.5256"}, {"name": "Stuart", "state": "OK", "lat": "34.9010", "lng": "-96.0995"}, {"name": "Clinton", "state": "OK", "lat": "35.5058", "lng": "-98.9724"}, {"name": "Fallis", "state": "OK", "lat": "35.7498", "lng": "-97.1183"}, {"name": "Katie", "state": "OK", "lat": "34.5833", "lng": "-97.3388"}, {"name": "IXL", "state": "OK", "lat": "35.5227", "lng": "-96.3881"}, {"name": "Pittsburg", "state": "OK", "lat": "34.7116", "lng": "-95.8502"}, {"name": "Long", "state": "OK", "lat": "35.4993", "lng": "-94.5470"}, {"name": "Hammon", "state": "OK", "lat": "35.6323", "lng": "-99.3832"}, {"name": "Woodlawn Park", "state": "OK", "lat": "35.5096", "lng": "-97.6499"}, {"name": "Paoli", "state": "OK", "lat": "34.8261", "lng": "-97.2618"}, {"name": "Erick", "state": "OK", "lat": "35.2154", "lng": "-99.8686"}, {"name": "Adair", "state": "OK", "lat": "36.4366", "lng": "-95.2727"}, {"name": "Velma", "state": "OK", "lat": "34.4547", "lng": "-97.6617"}, {"name": "Chelsea", "state": "OK", "lat": "36.5323", "lng": "-95.4355"}, {"name": "Purcell", "state": "OK", "lat": "35.0180", "lng": "-97.3747"}, {"name": "Armstrong", "state": "OK", "lat": "34.0528", "lng": "-96.3446"}, {"name": "Wynona", "state": "OK", "lat": "36.5458", "lng": "-96.3267"}, {"name": "Fair Oaks", "state": "OK", "lat": "36.1441", "lng": "-95.6959"}, {"name": "Bridge Creek", "state": "OK", "lat": "35.2392", "lng": "-97.7305"}, {"name": "Ratliff City", "state": "OK", "lat": "34.4492", "lng": "-97.5155"}, {"name": "Dale", "state": "OK", "lat": "35.3842", "lng": "-97.0435"}, {"name": "Gowen", "state": "OK", "lat": "34.8781", "lng": "-95.4742"}, {"name": "Cherry Tree", "state": "OK", "lat": "35.7454", "lng": "-94.6428"}, {"name": "Garber", "state": "OK", "lat": "36.4365", "lng": "-97.5810"}, {"name": "Kansas", "state": "OK", "lat": "36.2058", "lng": "-94.7890"}, {"name": "Pettit", "state": "OK", "lat": "35.7656", "lng": "-94.9692"}, {"name": "Lane", "state": "OK", "lat": "34.2997", "lng": "-95.9894"}, {"name": "Watonga", "state": "OK", "lat": "35.8661", "lng": "-98.4166"}, {"name": "Verden", "state": "OK", "lat": "35.0831", "lng": "-98.0872"}, {"name": "Vici", "state": "OK", "lat": "36.1486", "lng": "-99.2994"}, {"name": "Inola", "state": "OK", "lat": "36.1315", "lng": "-95.5373"}, {"name": "Summit", "state": "OK", "lat": "35.6678", "lng": "-95.4218"}, {"name": "White Oak", "state": "OK", "lat": "36.6098", "lng": "-95.2763"}, {"name": "Nash", "state": "OK", "lat": "36.6648", "lng": "-98.0521"}, {"name": "Buffalo", "state": "OK", "lat": "36.8373", "lng": "-99.6464"}, {"name": "Albion", "state": "OK", "lat": "34.6623", "lng": "-95.0993"}, {"name": "Delaware", "state": "OK", "lat": "36.7789", "lng": "-95.6426"}, {"name": "Slick", "state": "OK", "lat": "35.7775", "lng": "-96.2667"}, {"name": "Bowlegs", "state": "OK", "lat": "35.1474", "lng": "-96.6691"}, {"name": "Bixby", "state": "OK", "lat": "35.9454", "lng": "-95.8773"}, {"name": "Afton", "state": "OK", "lat": "36.6964", "lng": "-94.9580"}, {"name": "Hennessey", "state": "OK", "lat": "36.1056", "lng": "-97.8989"}, {"name": "Redbird Smith", "state": "OK", "lat": "35.5615", "lng": "-95.0298"}, {"name": "Proctor", "state": "OK", "lat": "35.9759", "lng": "-94.7511"}, {"name": "Tulsa", "state": "OK", "lat": "36.1284", "lng": "-95.9043"}, {"name": "McLoud", "state": "OK", "lat": "35.4070", "lng": "-97.1014"}, {"name": "Stroud", "state": "OK", "lat": "35.7680", "lng": "-96.6473"}, {"name": "Oak Grove", "state": "OK", "lat": "36.2056", "lng": "-96.3384"}, {"name": "Flint Creek", "state": "OK", "lat": "36.1764", "lng": "-94.7438"}, {"name": "Ryan", "state": "OK", "lat": "34.0213", "lng": "-97.9540"}, {"name": "Glenpool", "state": "OK", "lat": "35.9484", "lng": "-96.0052"}, {"name": "Duchess Landing", "state": "OK", "lat": "35.3985", "lng": "-95.4165"}, {"name": "Carter", "state": "OK", "lat": "35.2175", "lng": "-99.5038"}, {"name": "Titanic", "state": "OK", "lat": "35.8889", "lng": "-94.7434"}, {"name": "Bethel Acres", "state": "OK", "lat": "35.3048", "lng": "-97.0370"}, {"name": "Kendrick", "state": "OK", "lat": "35.7853", "lng": "-96.7754"}, {"name": "Chouteau", "state": "OK", "lat": "36.1882", "lng": "-95.3363"}, {"name": "Hobart", "state": "OK", "lat": "35.0246", "lng": "-99.0875"}, {"name": "Peggs", "state": "OK", "lat": "36.0673", "lng": "-95.0718"}, {"name": "Calvin", "state": "OK", "lat": "34.9672", "lng": "-96.2530"}, {"name": "Rattan", "state": "OK", "lat": "34.2004", "lng": "-95.4131"}, {"name": "Ashland", "state": "OK", "lat": "34.7668", "lng": "-96.0706"}, {"name": "Central High", "state": "OK", "lat": "34.6170", "lng": "-98.0892"}, {"name": "New Alluwe", "state": "OK", "lat": "36.6099", "lng": "-95.4888"}, {"name": "Maysville", "state": "OK", "lat": "34.8544", "lng": "-97.3878"}, {"name": "Lima", "state": "OK", "lat": "35.1738", "lng": "-96.5985"}, {"name": "Guymon", "state": "OK", "lat": "36.6900", "lng": "-101.4776"}, {"name": "Covington", "state": "OK", "lat": "36.3076", "lng": "-97.5864"}, {"name": "Butler", "state": "OK", "lat": "35.5953", "lng": "-99.1808"}, {"name": "Binger", "state": "OK", "lat": "35.3105", "lng": "-98.3434"}, {"name": "Hydro", "state": "OK", "lat": "35.5486", "lng": "-98.5791"}, {"name": "Dougherty", "state": "OK", "lat": "34.4005", "lng": "-97.0514"}, {"name": "Muldrow", "state": "OK", "lat": "35.4040", "lng": "-94.5969"}, {"name": "Loco", "state": "OK", "lat": "34.3295", "lng": "-97.6806"}, {"name": "Wright City", "state": "OK", "lat": "34.0647", "lng": "-95.0075"}, {"name": "Newkirk", "state": "OK", "lat": "36.8816", "lng": "-97.0554"}, {"name": "Texanna", "state": "OK", "lat": "35.3572", "lng": "-95.5047"}, {"name": "Capron", "state": "OK", "lat": "36.8967", "lng": "-98.5777"}, {"name": "Grandfield", "state": "OK", "lat": "34.2304", "lng": "-98.6877"}, {"name": "Owasso", "state": "OK", "lat": "36.2882", "lng": "-95.8328"}, {"name": "Spaulding", "state": "OK", "lat": "35.0132", "lng": "-96.4406"}, {"name": "Billings", "state": "OK", "lat": "36.5313", "lng": "-97.4342"}, {"name": "Stidham", "state": "OK", "lat": "35.3686", "lng": "-95.7008"}, {"name": "Muskogee", "state": "OK", "lat": "35.7430", "lng": "-95.3566"}, {"name": "Grayson", "state": "OK", "lat": "35.5053", "lng": "-95.8718"}, {"name": "Union City", "state": "OK", "lat": "35.4015", "lng": "-97.9047"}, {"name": "Tyrone", "state": "OK", "lat": "36.9556", "lng": "-101.0679"}, {"name": "Silo", "state": "OK", "lat": "34.0358", "lng": "-96.4746"}, {"name": "Cedar Crest", "state": "OK", "lat": "36.1215", "lng": "-95.1663"}, {"name": "Washington", "state": "OK", "lat": "35.0582", "lng": "-97.4922"}, {"name": "Skedee", "state": "OK", "lat": "36.3803", "lng": "-96.7040"}, {"name": "Pocasset", "state": "OK", "lat": "35.1780", "lng": "-97.9592"}, {"name": "Hollis", "state": "OK", "lat": "34.6895", "lng": "-99.9154"}, {"name": "Morris", "state": "OK", "lat": "35.6152", "lng": "-95.8624"}, {"name": "Fanshawe", "state": "OK", "lat": "34.9733", "lng": "-94.8560"}, {"name": "Warner", "state": "OK", "lat": "35.4902", "lng": "-95.3085"}, {"name": "Lexington", "state": "OK", "lat": "35.0179", "lng": "-97.3345"}, {"name": "El Reno", "state": "OK", "lat": "35.5430", "lng": "-97.9660"}, {"name": "Cromwell", "state": "OK", "lat": "35.3636", "lng": "-96.4571"}, {"name": "Ninnekah", "state": "OK", "lat": "34.9641", "lng": "-97.9447"}, {"name": "Loveland", "state": "OK", "lat": "34.3045", "lng": "-98.7708"}, {"name": "Wyandotte", "state": "OK", "lat": "36.7925", "lng": "-94.7231"}, {"name": "Davis", "state": "OK", "lat": "34.4577", "lng": "-97.1655"}, {"name": "Kildare", "state": "OK", "lat": "36.8083", "lng": "-97.0499"}, {"name": "Piney", "state": "OK", "lat": "35.8875", "lng": "-94.5536"}, {"name": "Snyder", "state": "OK", "lat": "34.6552", "lng": "-98.9533"}, {"name": "Sharon", "state": "OK", "lat": "36.2755", "lng": "-99.3381"}, {"name": "Peoria", "state": "OK", "lat": "36.9152", "lng": "-94.6698"}, {"name": "Lamont", "state": "OK", "lat": "36.6912", "lng": "-97.5582"}, {"name": "Big Cabin", "state": "OK", "lat": "36.5402", "lng": "-95.2221"}, {"name": "Dotyville", "state": "OK", "lat": "36.8514", "lng": "-94.9097"}, {"name": "Knowles", "state": "OK", "lat": "36.8731", "lng": "-100.1931"}, {"name": "Dwight Mission", "state": "OK", "lat": "35.5466", "lng": "-94.8594"}, {"name": "Flute Springs", "state": "OK", "lat": "35.6231", "lng": "-94.8044"}, {"name": "Braggs", "state": "OK", "lat": "35.6631", "lng": "-95.1985"}, {"name": "Checotah", "state": "OK", "lat": "35.4821", "lng": "-95.5224"}, {"name": "Eufaula", "state": "OK", "lat": "35.2922", "lng": "-95.5862"}, {"name": "Oktaha", "state": "OK", "lat": "35.5776", "lng": "-95.4778"}, {"name": "Martha", "state": "OK", "lat": "34.7262", "lng": "-99.3867"}, {"name": "Weleetka", "state": "OK", "lat": "35.3420", "lng": "-96.1354"}, {"name": "Cedar Valley", "state": "OK", "lat": "35.8703", "lng": "-97.5245"}, {"name": "Frederick", "state": "OK", "lat": "34.3709", "lng": "-99.0010"}, {"name": "Atwood", "state": "OK", "lat": "34.9549", "lng": "-96.3367"}, {"name": "Schulter", "state": "OK", "lat": "35.5110", "lng": "-95.9567"}, {"name": "Custer City", "state": "OK", "lat": "35.6637", "lng": "-98.8869"}, {"name": "Claremore", "state": "OK", "lat": "36.3143", "lng": "-95.6101"}, {"name": "Manchester", "state": "OK", "lat": "36.9944", "lng": "-98.0351"}, {"name": "Snake Creek", "state": "OK", "lat": "36.1786", "lng": "-95.0937"}, {"name": "Coalgate", "state": "OK", "lat": "34.5323", "lng": "-96.2208"}, {"name": "Durant", "state": "OK", "lat": "33.9957", "lng": "-96.3938"}, {"name": "Cyril", "state": "OK", "lat": "34.8986", "lng": "-98.2031"}, {"name": "Jay", "state": "OK", "lat": "36.4273", "lng": "-94.7954"}, {"name": "Sparks", "state": "OK", "lat": "35.6113", "lng": "-96.8191"}, {"name": "Cache", "state": "OK", "lat": "34.6297", "lng": "-98.6181"}, {"name": "Colbert", "state": "OK", "lat": "33.8578", "lng": "-96.5043"}, {"name": "Mulhall", "state": "OK", "lat": "36.0917", "lng": "-97.3615"}, {"name": "Hartshorne", "state": "OK", "lat": "34.8389", "lng": "-95.5585"}, {"name": "Kiefer", "state": "OK", "lat": "35.9439", "lng": "-96.0527"}, {"name": "Brush Creek", "state": "OK", "lat": "36.4164", "lng": "-94.7842"}, {"name": "Gerty", "state": "OK", "lat": "34.8357", "lng": "-96.2890"}, {"name": "Ripley", "state": "OK", "lat": "36.0169", "lng": "-96.9046"}, {"name": "Rock Island", "state": "OK", "lat": "35.1831", "lng": "-94.4811"}, {"name": "Eagletown", "state": "OK", "lat": "34.0417", "lng": "-94.5700"}, {"name": "Wauhillau", "state": "OK", "lat": "35.8682", "lng": "-94.7623"}, {"name": "Lone Grove", "state": "OK", "lat": "34.1809", "lng": "-97.2559"}, {"name": "Cleora", "state": "OK", "lat": "36.5737", "lng": "-94.9480"}, {"name": "Gracemont", "state": "OK", "lat": "35.1878", "lng": "-98.2570"}, {"name": "Simms", "state": "OK", "lat": "35.3987", "lng": "-95.1647"}, {"name": "Mountain Park", "state": "OK", "lat": "34.6988", "lng": "-98.9523"}, {"name": "Red Rock", "state": "OK", "lat": "36.4601", "lng": "-97.1796"}, {"name": "Ames", "state": "OK", "lat": "36.2471", "lng": "-98.1867"}, {"name": "Bee", "state": "OK", "lat": "34.1251", "lng": "-96.5687"}, {"name": "River Bottom", "state": "OK", "lat": "35.6358", "lng": "-95.2379"}, {"name": "Bristow", "state": "OK", "lat": "35.8338", "lng": "-96.3941"}, {"name": "Norge", "state": "OK", "lat": "34.9892", "lng": "-97.9941"}, {"name": "Sapulpa", "state": "OK", "lat": "36.0089", "lng": "-96.0983"}, {"name": "Paradise Hill", "state": "OK", "lat": "35.6135", "lng": "-95.0703"}, {"name": "West Siloam Springs", "state": "OK", "lat": "36.1755", "lng": "-94.5941"}, {"name": "Wickliffe", "state": "OK", "lat": "36.2954", "lng": "-95.1063"}, {"name": "Shady Grove", "state": "OK", "lat": "35.9485", "lng": "-95.0952"}, {"name": "Oakland", "state": "OK", "lat": "34.0975", "lng": "-96.7978"}, {"name": "Kellyville", "state": "OK", "lat": "35.9481", "lng": "-96.2137"}, {"name": "Elmer", "state": "OK", "lat": "34.4810", "lng": "-99.3519"}, {"name": "Faxon", "state": "OK", "lat": "34.4603", "lng": "-98.5793"}, {"name": "Warwick", "state": "OK", "lat": "35.6882", "lng": "-97.0016"}, {"name": "Antlers", "state": "OK", "lat": "34.2325", "lng": "-95.6214"}, {"name": "North Enid", "state": "OK", "lat": "36.4457", "lng": "-97.8634"}, {"name": "Caddo", "state": "OK", "lat": "34.1288", "lng": "-96.2678"}, {"name": "Broken Bow", "state": "OK", "lat": "34.0276", "lng": "-94.7419"}, {"name": "West Peavine", "state": "OK", "lat": "35.9133", "lng": "-94.6481"}, {"name": "Maud", "state": "OK", "lat": "35.1335", "lng": "-96.7782"}, {"name": "Boswell", "state": "OK", "lat": "34.0281", "lng": "-95.8685"}, {"name": "Murphy", "state": "OK", "lat": "36.1336", "lng": "-95.2409"}, {"name": "Hillsdale", "state": "OK", "lat": "36.5634", "lng": "-97.9927"}, {"name": "Burneyville", "state": "OK", "lat": "33.9055", "lng": "-97.2913"}, {"name": "Sallisaw", "state": "OK", "lat": "35.4605", "lng": "-94.8070"}, {"name": "Lenapah", "state": "OK", "lat": "36.8515", "lng": "-95.6356"}, {"name": "Akins", "state": "OK", "lat": "35.5043", "lng": "-94.6700"}, {"name": "Mulberry", "state": "OK", "lat": "35.8631", "lng": "-94.7014"}, {"name": "Chattanooga", "state": "OK", "lat": "34.4243", "lng": "-98.6541"}, {"name": "Winchester", "state": "OK", "lat": "35.7906", "lng": "-95.9983"}, {"name": "Dill City", "state": "OK", "lat": "35.2820", "lng": "-99.1335"}, {"name": "Oakhurst", "state": "OK", "lat": "36.0827", "lng": "-96.0641"}, {"name": "Eldorado", "state": "OK", "lat": "34.4730", "lng": "-99.6498"}, {"name": "Ada", "state": "OK", "lat": "34.7686", "lng": "-96.6689"}, {"name": "Wakita", "state": "OK", "lat": "36.8818", "lng": "-97.9238"}, {"name": "Skiatook", "state": "OK", "lat": "36.3693", "lng": "-95.9815"}, {"name": "Miami", "state": "OK", "lat": "36.8877", "lng": "-94.8718"}, {"name": "Tribbey", "state": "OK", "lat": "35.0992", "lng": "-97.0937"}, {"name": "Cleveland", "state": "OK", "lat": "36.3002", "lng": "-96.4630"}, {"name": "Ballou", "state": "OK", "lat": "36.1421", "lng": "-95.1998"}, {"name": "Byars", "state": "OK", "lat": "34.8724", "lng": "-97.0541"}, {"name": "Earlsboro", "state": "OK", "lat": "35.3277", "lng": "-96.8014"}, {"name": "Carlton Landing", "state": "OK", "lat": "35.2046", "lng": "-95.5448"}, {"name": "Tiawah", "state": "OK", "lat": "36.2483", "lng": "-95.5362"}, {"name": "Lequire", "state": "OK", "lat": "35.1098", "lng": "-95.1065"}, {"name": "Freedom", "state": "OK", "lat": "36.7680", "lng": "-99.1130"}, {"name": "Arkoma", "state": "OK", "lat": "35.3374", "lng": "-94.4438"}, {"name": "Carrier", "state": "OK", "lat": "36.4786", "lng": "-98.0172"}, {"name": "Quinton", "state": "OK", "lat": "35.1249", "lng": "-95.3676"}, {"name": "Stratford", "state": "OK", "lat": "34.7952", "lng": "-96.9602"}, {"name": "McAlester", "state": "OK", "lat": "34.9262", "lng": "-95.7698"}, {"name": "Bushyhead", "state": "OK", "lat": "36.4596", "lng": "-95.5164"}, {"name": "Harrah", "state": "OK", "lat": "35.4796", "lng": "-97.1866"}, {"name": "Chandler", "state": "OK", "lat": "35.7237", "lng": "-96.8951"}, {"name": "Medicine Park", "state": "OK", "lat": "34.7294", "lng": "-98.4846"}, {"name": "Kingston", "state": "OK", "lat": "33.9979", "lng": "-96.6952"}, {"name": "Lawrence Creek", "state": "OK", "lat": "36.0838", "lng": "-96.4268"}, {"name": "Dry Creek", "state": "OK", "lat": "35.7275", "lng": "-94.8703"}, {"name": "Walters", "state": "OK", "lat": "34.3612", "lng": "-98.3563"}, {"name": "Mutual", "state": "OK", "lat": "36.2304", "lng": "-99.1679"}, {"name": "Granite", "state": "OK", "lat": "34.9561", "lng": "-99.3703"}, {"name": "Mannsville", "state": "OK", "lat": "34.1857", "lng": "-96.8974"}, {"name": "Grand Lake Towne", "state": "OK", "lat": "36.5048", "lng": "-95.0258"}, {"name": "Dewey", "state": "OK", "lat": "36.7915", "lng": "-95.9328"}]