[{"name": "Crawfordsville", "state": "OR", "lat": "44.3561", "lng": "-122.8650"}, {"name": "Irrigon", "state": "OR", "lat": "45.8959", "lng": "-119.4883"}, {"name": "Aurora", "state": "OR", "lat": "45.2286", "lng": "-122.7572"}, {"name": "Myrtle Creek", "state": "OR", "lat": "43.0227", "lng": "-123.2811"}, {"name": "Alpine", "state": "OR", "lat": "44.3307", "lng": "-123.3625"}, {"name": "McMinnville", "state": "OR", "lat": "45.2110", "lng": "-123.1918"}, {"name": "Mosier", "state": "OR", "lat": "45.6850", "lng": "-121.3952"}, {"name": "Dayville", "state": "OR", "lat": "44.4667", "lng": "-119.5322"}, {"name": "Fossil", "state": "OR", "lat": "44.9981", "lng": "-120.2146"}, {"name": "Mitchell", "state": "OR", "lat": "44.5703", "lng": "-120.1537"}, {"name": "Brownsville", "state": "OR", "lat": "44.3923", "lng": "-122.9833"}, {"name": "Culver", "state": "OR", "lat": "44.5232", "lng": "-121.2110"}, {"name": "Odell", "state": "OR", "lat": "45.6354", "lng": "-121.5522"}, {"name": "Wallowa", "state": "OR", "lat": "45.5704", "lng": "-117.5286"}, {"name": "Neskowin", "state": "OR", "lat": "45.1208", "lng": "-123.9766"}, {"name": "St. Paul", "state": "OR", "lat": "45.2123", "lng": "-122.9772"}, {"name": "Hillsboro", "state": "OR", "lat": "45.5272", "lng": "-122.9360"}, {"name": "Eagle Crest", "state": "OR", "lat": "44.2614", "lng": "-121.2995"}, {"name": "Umapine", "state": "OR", "lat": "45.9760", "lng": "-118.5010"}, {"name": "Heppner", "state": "OR", "lat": "45.3547", "lng": "-119.5560"}, {"name": "Green", "state": "OR", "lat": "43.1509", "lng": "-123.3854"}, {"name": "Island City", "state": "OR", "lat": "45.3358", "lng": "-118.0492"}, {"name": "Tillamook", "state": "OR", "lat": "45.4562", "lng": "-123.8331"}, {"name": "Lyons", "state": "OR", "lat": "44.7776", "lng": "-122.6098"}, {"name": "Rockaway Beach", "state": "OR", "lat": "45.6186", "lng": "-123.9399"}, {"name": "Damascus", "state": "OR", "lat": "45.4239", "lng": "-122.4470"}, {"name": "Eugene", "state": "OR", "lat": "44.0563", "lng": "-123.1173"}, {"name": "Selma", "state": "OR", "lat": "42.2797", "lng": "-123.6151"}, {"name": "Pilot Rock", "state": "OR", "lat": "45.4961", "lng": "-118.8332"}, {"name": "Gold Beach", "state": "OR", "lat": "42.3974", "lng": "-124.4171"}, {"name": "Takilma", "state": "OR", "lat": "42.0409", "lng": "-123.6223"}, {"name": "Detroit", "state": "OR", "lat": "44.7338", "lng": "-122.1512"}, {"name": "Newport", "state": "OR", "lat": "44.6231", "lng": "-124.0524"}, {"name": "Imbler", "state": "OR", "lat": "45.4622", "lng": "-117.9631"}, {"name": "Canyon City", "state": "OR", "lat": "44.3930", "lng": "-118.9494"}, {"name": "Hood River", "state": "OR", "lat": "45.7092", "lng": "-121.5258"}, {"name": "Milton-Freewater", "state": "OR", "lat": "45.9348", "lng": "-118.3913"}, {"name": "Independence", "state": "OR", "lat": "44.8551", "lng": "-123.1948"}, {"name": "Gardiner", "state": "OR", "lat": "43.7329", "lng": "-124.1068"}, {"name": "Beatty", "state": "OR", "lat": "42.4419", "lng": "-121.2716"}, {"name": "Black Butte Ranch", "state": "OR", "lat": "44.3578", "lng": "-121.6589"}, {"name": "Lostine", "state": "OR", "lat": "45.4866", "lng": "-117.4294"}, {"name": "Kings Valley", "state": "OR", "lat": "44.6980", "lng": "-123.4265"}, {"name": "North Powder", "state": "OR", "lat": "45.0300", "lng": "-117.9205"}, {"name": "Pronghorn", "state": "OR", "lat": "44.1881", "lng": "-121.1817"}, {"name": "Cloverdale", "state": "OR", "lat": "45.2006", "lng": "-123.8842"}, {"name": "Haines", "state": "OR", "lat": "44.9123", "lng": "-117.9396"}, {"name": "Bethany", "state": "OR", "lat": "45.5613", "lng": "-122.8370"}, {"name": "Powers", "state": "OR", "lat": "42.8860", "lng": "-124.0735"}, {"name": "Days Creek", "state": "OR", "lat": "42.9704", "lng": "-123.1658"}, {"name": "Garden Home-Whitford", "state": "OR", "lat": "45.4642", "lng": "-122.7589"}, {"name": "Depoe Bay", "state": "OR", "lat": "44.8091", "lng": "-124.0599"}, {"name": "Sodaville", "state": "OR", "lat": "44.4831", "lng": "-122.8691"}, {"name": "Enterprise", "state": "OR", "lat": "45.4258", "lng": "-117.2789"}, {"name": "Rowena", "state": "OR", "lat": "45.6701", "lng": "-121.2749"}, {"name": "Pistol River", "state": "OR", "lat": "42.2838", "lng": "-124.3991"}, {"name": "Hines", "state": "OR", "lat": "43.5568", "lng": "-119.0804"}, {"name": "Silver Lake", "state": "OR", "lat": "43.1264", "lng": "-121.0495"}, {"name": "Barlow", "state": "OR", "lat": "45.2523", "lng": "-122.7224"}, {"name": "Lexington", "state": "OR", "lat": "45.4462", "lng": "-119.6879"}, {"name": "Yoncalla", "state": "OR", "lat": "43.6004", "lng": "-123.2876"}, {"name": "Lookingglass", "state": "OR", "lat": "43.1848", "lng": "-123.4999"}, {"name": "Dillard", "state": "OR", "lat": "43.1082", "lng": "-123.4262"}, {"name": "Hebo", "state": "OR", "lat": "45.2260", "lng": "-123.8586"}, {"name": "Glasgow", "state": "OR", "lat": "43.4371", "lng": "-124.1961"}, {"name": "Seventh Mountain", "state": "OR", "lat": "44.0050", "lng": "-121.3825"}, {"name": "Bunker Hill", "state": "OR", "lat": "43.3502", "lng": "-124.2082"}, {"name": "Boardman", "state": "OR", "lat": "45.8372", "lng": "-119.6957"}, {"name": "Baker City", "state": "OR", "lat": "44.7749", "lng": "-117.8320"}, {"name": "Deschutes River Woods", "state": "OR", "lat": "43.9887", "lng": "-121.3608"}, {"name": "Long Creek", "state": "OR", "lat": "44.7142", "lng": "-119.1042"}, {"name": "Happy Valley", "state": "OR", "lat": "45.4382", "lng": "-122.5143"}, {"name": "Union", "state": "OR", "lat": "45.2089", "lng": "-117.8679"}, {"name": "Westport", "state": "OR", "lat": "46.1303", "lng": "-123.3715"}, {"name": "Junction City", "state": "OR", "lat": "44.2069", "lng": "-123.2102"}, {"name": "Wood Village", "state": "OR", "lat": "45.5358", "lng": "-122.4205"}, {"name": "Sheridan", "state": "OR", "lat": "45.0956", "lng": "-123.3973"}, {"name": "Neahkahnie", "state": "OR", "lat": "45.7324", "lng": "-123.9399"}, {"name": "West Scio", "state": "OR", "lat": "44.7098", "lng": "-122.8812"}, {"name": "Gervais", "state": "OR", "lat": "45.1078", "lng": "-122.8962"}, {"name": "Wamic", "state": "OR", "lat": "45.2256", "lng": "-121.2927"}, {"name": "Parkdale", "state": "OR", "lat": "45.5131", "lng": "-121.5921"}, {"name": "Altamont", "state": "OR", "lat": "42.1980", "lng": "-121.7249"}, {"name": "Burns", "state": "OR", "lat": "43.5882", "lng": "-119.0614"}, {"name": "Nesika Beach", "state": "OR", "lat": "42.5045", "lng": "-124.4065"}, {"name": "Seaside", "state": "OR", "lat": "45.9888", "lng": "-123.9215"}, {"name": "Tetherow", "state": "OR", "lat": "44.0389", "lng": "-121.3665"}, {"name": "Donald", "state": "OR", "lat": "45.2227", "lng": "-122.8388"}, {"name": "Bandon", "state": "OR", "lat": "43.1141", "lng": "-124.4158"}, {"name": "Troutdale", "state": "OR", "lat": "45.5372", "lng": "-122.3955"}, {"name": "John Day", "state": "OR", "lat": "44.4181", "lng": "-118.9535"}, {"name": "Warm Springs", "state": "OR", "lat": "44.7669", "lng": "-121.2899"}, {"name": "Cascade Locks", "state": "OR", "lat": "45.6763", "lng": "-121.8719"}, {"name": "Molalla", "state": "OR", "lat": "45.1502", "lng": "-122.5844"}, {"name": "Labish Village", "state": "OR", "lat": "45.0191", "lng": "-122.9736"}, {"name": "Joseph", "state": "OR", "lat": "45.3526", "lng": "-117.2303"}, {"name": "Barview", "state": "OR", "lat": "43.3470", "lng": "-124.3073"}, {"name": "Oatfield", "state": "OR", "lat": "45.4127", "lng": "-122.5942"}, {"name": "Chenoweth", "state": "OR", "lat": "45.6207", "lng": "-121.2363"}, {"name": "Foots Creek", "state": "OR", "lat": "42.3845", "lng": "-123.1408"}, {"name": "Seneca", "state": "OR", "lat": "44.1352", "lng": "-118.9762"}, {"name": "Yachats", "state": "OR", "lat": "44.3126", "lng": "-124.1022"}, {"name": "Phoenix", "state": "OR", "lat": "42.2748", "lng": "-122.8151"}, {"name": "Bay City", "state": "OR", "lat": "45.5216", "lng": "-123.8858"}, {"name": "Rainier", "state": "OR", "lat": "46.0768", "lng": "-122.9405"}, {"name": "Cedar Hills", "state": "OR", "lat": "45.5047", "lng": "-122.8052"}, {"name": "Marion", "state": "OR", "lat": "44.7513", "lng": "-122.9277"}, {"name": "Alsea", "state": "OR", "lat": "44.3818", "lng": "-123.5958"}, {"name": "Brookings", "state": "OR", "lat": "42.0697", "lng": "-124.3002"}, {"name": "Tangent", "state": "OR", "lat": "44.5477", "lng": "-123.1109"}, {"name": "Durham", "state": "OR", "lat": "45.3941", "lng": "-122.7580"}, {"name": "Langlois", "state": "OR", "lat": "42.9258", "lng": "-124.4533"}, {"name": "Brogan", "state": "OR", "lat": "44.2476", "lng": "-117.5187"}, {"name": "Cayuse", "state": "OR", "lat": "45.6765", "lng": "-118.5736"}, {"name": "Corvallis", "state": "OR", "lat": "44.5696", "lng": "-123.2781"}, {"name": "Athena", "state": "OR", "lat": "45.8132", "lng": "-118.4924"}, {"name": "Wimer", "state": "OR", "lat": "42.5446", "lng": "-123.1480"}, {"name": "Coquille", "state": "OR", "lat": "43.1801", "lng": "-124.1841"}, {"name": "Shedd", "state": "OR", "lat": "44.4579", "lng": "-123.1119"}, {"name": "Gladstone", "state": "OR", "lat": "45.3864", "lng": "-122.5933"}, {"name": "West Slope", "state": "OR", "lat": "45.4962", "lng": "-122.7731"}, {"name": "Gaston", "state": "OR", "lat": "45.4357", "lng": "-123.1435"}, {"name": "Winston", "state": "OR", "lat": "43.1200", "lng": "-123.4242"}, {"name": "Pacific City", "state": "OR", "lat": "45.2054", "lng": "-123.9536"}, {"name": "Richland", "state": "OR", "lat": "44.7683", "lng": "-117.1663"}, {"name": "Grants Pass", "state": "OR", "lat": "42.4333", "lng": "-123.3316"}, {"name": "Springfield", "state": "OR", "lat": "44.0538", "lng": "-122.9810"}, {"name": "West Haven-Sylvan", "state": "OR", "lat": "45.5164", "lng": "-122.7654"}, {"name": "Tumalo", "state": "OR", "lat": "44.1561", "lng": "-121.3280"}, {"name": "Prineville", "state": "OR", "lat": "44.2980", "lng": "-120.8616"}, {"name": "Tualatin", "state": "OR", "lat": "45.3772", "lng": "-122.7746"}, {"name": "Cornelius", "state": "OR", "lat": "45.5189", "lng": "-123.0516"}, {"name": "Mount Hood", "state": "OR", "lat": "45.5339", "lng": "-121.5662"}, {"name": "Juntura", "state": "OR", "lat": "43.7487", "lng": "-118.0789"}, {"name": "Chiloquin", "state": "OR", "lat": "42.5764", "lng": "-121.8677"}, {"name": "Mount Hood Village", "state": "OR", "lat": "45.3433", "lng": "-121.9832"}, {"name": "North Plains", "state": "OR", "lat": "45.5974", "lng": "-122.9946"}, {"name": "Keizer", "state": "OR", "lat": "45.0029", "lng": "-123.0241"}, {"name": "Ruch", "state": "OR", "lat": "42.2314", "lng": "-123.0403"}, {"name": "Brooks", "state": "OR", "lat": "45.0508", "lng": "-122.9575"}, {"name": "Ontario", "state": "OR", "lat": "44.0259", "lng": "-116.9760"}, {"name": "Blodgett", "state": "OR", "lat": "44.5970", "lng": "-123.5209"}, {"name": "Merrill", "state": "OR", "lat": "42.0260", "lng": "-121.6008"}, {"name": "Cottage Grove", "state": "OR", "lat": "43.7961", "lng": "-123.0573"}, {"name": "Lonerock", "state": "OR", "lat": "45.0888", "lng": "-119.8840"}, {"name": "Coburg", "state": "OR", "lat": "44.1393", "lng": "-123.0588"}, {"name": "Williams", "state": "OR", "lat": "42.2194", "lng": "-123.2922"}, {"name": "Kirkpatrick", "state": "OR", "lat": "45.6796", "lng": "-118.6499"}, {"name": "Wallowa Lake", "state": "OR", "lat": "45.3041", "lng": "-117.2117"}, {"name": "Klamath Falls", "state": "OR", "lat": "42.2191", "lng": "-121.7754"}, {"name": "Prospect", "state": "OR", "lat": "42.7526", "lng": "-122.4757"}, {"name": "Turner", "state": "OR", "lat": "44.8489", "lng": "-122.9517"}, {"name": "Jefferson", "state": "OR", "lat": "44.7170", "lng": "-123.0068"}, {"name": "Aumsville", "state": "OR", "lat": "44.8462", "lng": "-122.8700"}, {"name": "Merlin", "state": "OR", "lat": "42.5204", "lng": "-123.4252"}, {"name": "Helix", "state": "OR", "lat": "45.8506", "lng": "-118.6590"}, {"name": "Woodburn", "state": "OR", "lat": "45.1476", "lng": "-122.8584"}, {"name": "Fairview", "state": "OR", "lat": "45.5471", "lng": "-122.4391"}, {"name": "Metolius", "state": "OR", "lat": "44.5874", "lng": "-121.1760"}, {"name": "Roseburg", "state": "OR", "lat": "43.2232", "lng": "-123.3518"}, {"name": "Gold Hill", "state": "OR", "lat": "42.4358", "lng": "-123.0526"}, {"name": "Wasco", "state": "OR", "lat": "45.5916", "lng": "-120.6975"}, {"name": "Deer Island", "state": "OR", "lat": "45.9329", "lng": "-122.8497"}, {"name": "Riddle", "state": "OR", "lat": "42.9542", "lng": "-123.3646"}, {"name": "Canyonville", "state": "OR", "lat": "42.9274", "lng": "-123.2781"}, {"name": "Kerby", "state": "OR", "lat": "42.2046", "lng": "-123.6489"}, {"name": "Rockcreek", "state": "OR", "lat": "45.5525", "lng": "-122.8757"}, {"name": "Cedar Mill", "state": "OR", "lat": "45.5355", "lng": "-122.8006"}, {"name": "Elgin", "state": "OR", "lat": "45.5643", "lng": "-117.9212"}, {"name": "King City", "state": "OR", "lat": "45.4010", "lng": "-122.8068"}, {"name": "Mehama", "state": "OR", "lat": "44.7914", "lng": "-122.6305"}, {"name": "Four Corners", "state": "OR", "lat": "44.9292", "lng": "-122.9731"}, {"name": "Beaver", "state": "OR", "lat": "45.2780", "lng": "-123.8221"}, {"name": "O'Brien", "state": "OR", "lat": "42.0702", "lng": "-123.7077"}, {"name": "Millersburg", "state": "OR", "lat": "44.6779", "lng": "-123.0691"}, {"name": "Oceanside", "state": "OR", "lat": "45.4549", "lng": "-123.9610"}, {"name": "Camp Sherman", "state": "OR", "lat": "44.4492", "lng": "-121.6496"}, {"name": "Drain", "state": "OR", "lat": "43.6620", "lng": "-123.3142"}, {"name": "Gates", "state": "OR", "lat": "44.7561", "lng": "-122.4201"}, {"name": "Nyssa", "state": "OR", "lat": "43.8776", "lng": "-116.9951"}, {"name": "Halfway", "state": "OR", "lat": "44.8780", "lng": "-117.1096"}, {"name": "Adams", "state": "OR", "lat": "45.7663", "lng": "-118.5642"}, {"name": "Rogue River", "state": "OR", "lat": "42.4355", "lng": "-123.1683"}, {"name": "Lebanon", "state": "OR", "lat": "44.5317", "lng": "-122.9070"}, {"name": "Waldport", "state": "OR", "lat": "44.4173", "lng": "-124.0664"}, {"name": "Dunes City", "state": "OR", "lat": "43.9079", "lng": "-124.0985"}, {"name": "Yamhill", "state": "OR", "lat": "45.3412", "lng": "-123.1850"}, {"name": "Veneta", "state": "OR", "lat": "44.0471", "lng": "-123.3514"}, {"name": "Crabtree", "state": "OR", "lat": "44.6377", "lng": "-122.9059"}, {"name": "Sublimity", "state": "OR", "lat": "44.8293", "lng": "-122.7924"}, {"name": "Sunriver", "state": "OR", "lat": "43.8816", "lng": "-121.4368"}, {"name": "Philomath", "state": "OR", "lat": "44.5423", "lng": "-123.3598"}, {"name": "Gresham", "state": "OR", "lat": "45.5023", "lng": "-122.4413"}, {"name": "Lakeview", "state": "OR", "lat": "42.1918", "lng": "-120.3527"}, {"name": "Three Rivers", "state": "OR", "lat": "43.8366", "lng": "-121.4646"}, {"name": "South Lebanon", "state": "OR", "lat": "44.5055", "lng": "-122.8960"}, {"name": "Beavercreek", "state": "OR", "lat": "45.2756", "lng": "-122.5136"}, {"name": "Salem", "state": "OR", "lat": "44.9232", "lng": "-123.0245"}, {"name": "Bull Mountain", "state": "OR", "lat": "45.4126", "lng": "-122.8322"}, {"name": "Summit", "state": "OR", "lat": "44.6360", "lng": "-123.5768"}, {"name": "Annex", "state": "OR", "lat": "44.2346", "lng": "-116.9922"}, {"name": "Oakridge", "state": "OR", "lat": "43.7450", "lng": "-122.4637"}, {"name": "Government Camp", "state": "OR", "lat": "45.3023", "lng": "-121.7526"}, {"name": "Stanfield", "state": "OR", "lat": "45.7849", "lng": "-119.2190"}, {"name": "Cascadia", "state": "OR", "lat": "44.3930", "lng": "-122.5026"}, {"name": "Vernonia", "state": "OR", "lat": "45.8611", "lng": "-123.1834"}, {"name": "Halsey", "state": "OR", "lat": "44.3829", "lng": "-123.1095"}, {"name": "Garibaldi", "state": "OR", "lat": "45.5607", "lng": "-123.9111"}, {"name": "Cave Junction", "state": "OR", "lat": "42.1672", "lng": "-123.6473"}, {"name": "Oak Hills", "state": "OR", "lat": "45.5403", "lng": "-122.8413"}, {"name": "Warrenton", "state": "OR", "lat": "46.1685", "lng": "-123.9302"}, {"name": "Bellfountain", "state": "OR", "lat": "44.3654", "lng": "-123.3559"}, {"name": "Plush", "state": "OR", "lat": "42.4052", "lng": "-119.8993"}, {"name": "Terrebonne", "state": "OR", "lat": "44.3533", "lng": "-121.1808"}, {"name": "Vale", "state": "OR", "lat": "43.9840", "lng": "-117.2418"}, {"name": "Summerville", "state": "OR", "lat": "45.4898", "lng": "-118.0041"}, {"name": "Clatskanie", "state": "OR", "lat": "46.1047", "lng": "-123.2045"}, {"name": "Canby", "state": "OR", "lat": "45.2653", "lng": "-122.6866"}, {"name": "Falls City", "state": "OR", "lat": "44.8648", "lng": "-123.4372"}, {"name": "Florence", "state": "OR", "lat": "43.9913", "lng": "-124.1062"}, {"name": "Moro", "state": "OR", "lat": "45.4838", "lng": "-120.7333"}, {"name": "Oregon City", "state": "OR", "lat": "45.3414", "lng": "-122.5927"}, {"name": "Biggs Junction", "state": "OR", "lat": "45.6640", "lng": "-120.8389"}, {"name": "Gopher Flats", "state": "OR", "lat": "45.6658", "lng": "-118.7225"}, {"name": "Ione", "state": "OR", "lat": "45.5030", "lng": "-119.8207"}, {"name": "Johnson City", "state": "OR", "lat": "45.4045", "lng": "-122.5795"}, {"name": "Willamina", "state": "OR", "lat": "45.0788", "lng": "-123.4843"}, {"name": "West Linn", "state": "OR", "lat": "45.3669", "lng": "-122.6399"}, {"name": "Redwood", "state": "OR", "lat": "42.4219", "lng": "-123.3915"}, {"name": "Cape Meares", "state": "OR", "lat": "45.5153", "lng": "-123.9536"}, {"name": "Banks", "state": "OR", "lat": "45.6148", "lng": "-123.1065"}, {"name": "Gearhart", "state": "OR", "lat": "46.0289", "lng": "-123.9174"}, {"name": "Mission", "state": "OR", "lat": "45.6586", "lng": "-118.6654"}, {"name": "Glide", "state": "OR", "lat": "43.3029", "lng": "-123.0665"}, {"name": "Butte Falls", "state": "OR", "lat": "42.5414", "lng": "-122.5692"}, {"name": "Lowell", "state": "OR", "lat": "43.9209", "lng": "-122.7819"}, {"name": "La Pine", "state": "OR", "lat": "43.6866", "lng": "-121.4856"}, {"name": "White City", "state": "OR", "lat": "42.4317", "lng": "-122.8322"}, {"name": "Lincoln Beach", "state": "OR", "lat": "44.8746", "lng": "-124.0310"}, {"name": "Medford", "state": "OR", "lat": "42.3372", "lng": "-122.8537"}, {"name": "Idaville", "state": "OR", "lat": "45.5097", "lng": "-123.8633"}, {"name": "Portland", "state": "OR", "lat": "45.5371", "lng": "-122.6500"}, {"name": "Cannon Beach", "state": "OR", "lat": "45.8882", "lng": "-123.9602"}, {"name": "Eola", "state": "OR", "lat": "44.9313", "lng": "-123.1195"}, {"name": "Sutherlin", "state": "OR", "lat": "43.3884", "lng": "-123.3231"}, {"name": "Pine Grove", "state": "OR", "lat": "45.1136", "lng": "-121.3553"}, {"name": "Arlington", "state": "OR", "lat": "45.7207", "lng": "-120.1888"}, {"name": "Tri-City", "state": "OR", "lat": "42.9893", "lng": "-123.2999"}, {"name": "Forest Grove", "state": "OR", "lat": "45.5244", "lng": "-123.1101"}, {"name": "Prescott", "state": "OR", "lat": "46.0486", "lng": "-122.8879"}, {"name": "North Bend", "state": "OR", "lat": "43.4075", "lng": "-124.2364"}, {"name": "Jeffers Gardens", "state": "OR", "lat": "46.1518", "lng": "-123.8520"}, {"name": "Hermiston", "state": "OR", "lat": "45.8322", "lng": "-119.2860"}, {"name": "Sherwood", "state": "OR", "lat": "45.3598", "lng": "-122.8430"}, {"name": "Dayton", "state": "OR", "lat": "45.2198", "lng": "-123.0781"}, {"name": "Condon", "state": "OR", "lat": "45.2366", "lng": "-120.1859"}, {"name": "Bend", "state": "OR", "lat": "44.0562", "lng": "-121.3087"}, {"name": "Umatilla", "state": "OR", "lat": "45.9120", "lng": "-119.3145"}, {"name": "Hayesville", "state": "OR", "lat": "44.9793", "lng": "-122.9739"}, {"name": "Toledo", "state": "OR", "lat": "44.6196", "lng": "-123.9339"}, {"name": "Lacomb", "state": "OR", "lat": "44.5844", "lng": "-122.7417"}, {"name": "Paisley", "state": "OR", "lat": "42.6926", "lng": "-120.5452"}, {"name": "Scotts Mills", "state": "OR", "lat": "45.0410", "lng": "-122.6689"}, {"name": "Spray", "state": "OR", "lat": "44.8331", "lng": "-119.7940"}, {"name": "Butteville", "state": "OR", "lat": "45.2562", "lng": "-122.8357"}, {"name": "Prairie City", "state": "OR", "lat": "44.4611", "lng": "-118.7094"}, {"name": "Elkton", "state": "OR", "lat": "43.6378", "lng": "-123.5687"}, {"name": "Pendleton", "state": "OR", "lat": "45.6755", "lng": "-118.8209"}, {"name": "New Pine Creek", "state": "OR", "lat": "42.0014", "lng": "-120.3043"}, {"name": "Wheeler", "state": "OR", "lat": "45.6874", "lng": "-123.8870"}, {"name": "Jordan Valley", "state": "OR", "lat": "42.9794", "lng": "-117.0574"}, {"name": "Monroe", "state": "OR", "lat": "44.3168", "lng": "-123.2989"}, {"name": "Albany", "state": "OR", "lat": "44.6275", "lng": "-123.0966"}, {"name": "Newberg", "state": "OR", "lat": "45.3075", "lng": "-122.9601"}, {"name": "Creswell", "state": "OR", "lat": "43.9212", "lng": "-123.0160"}, {"name": "Ukiah", "state": "OR", "lat": "45.1344", "lng": "-118.9330"}, {"name": "Pine Hollow", "state": "OR", "lat": "45.2420", "lng": "-121.2910"}, {"name": "Harper", "state": "OR", "lat": "43.8570", "lng": "-117.6265"}, {"name": "Aloha", "state": "OR", "lat": "45.4920", "lng": "-122.8726"}, {"name": "Raleigh Hills", "state": "OR", "lat": "45.4852", "lng": "-122.7567"}, {"name": "Jacksonville", "state": "OR", "lat": "42.3127", "lng": "-122.9692"}, {"name": "Central Point", "state": "OR", "lat": "42.3765", "lng": "-122.9110"}, {"name": "Adair Village", "state": "OR", "lat": "44.6706", "lng": "-123.2158"}, {"name": "Shady Cove", "state": "OR", "lat": "42.6115", "lng": "-122.8178"}, {"name": "Myrtle Point", "state": "OR", "lat": "43.0617", "lng": "-124.1326"}, {"name": "Beaverton", "state": "OR", "lat": "45.4779", "lng": "-122.8168"}, {"name": "Carlton", "state": "OR", "lat": "45.2945", "lng": "-123.1753"}, {"name": "Westfir", "state": "OR", "lat": "43.7580", "lng": "-122.5091"}, {"name": "Bayside Gardens", "state": "OR", "lat": "45.7143", "lng": "-123.9166"}, {"name": "Grass Valley", "state": "OR", "lat": "45.3591", "lng": "-120.7841"}, {"name": "Crane", "state": "OR", "lat": "43.4179", "lng": "-118.5874"}, {"name": "Lake Oswego", "state": "OR", "lat": "45.4129", "lng": "-122.7003"}, {"name": "Malin", "state": "OR", "lat": "42.0133", "lng": "-121.4098"}, {"name": "Coos Bay", "state": "OR", "lat": "43.3789", "lng": "-124.2330"}, {"name": "Rivergrove", "state": "OR", "lat": "45.3850", "lng": "-122.7328"}, {"name": "Fair Oaks", "state": "OR", "lat": "43.4109", "lng": "-123.2194"}, {"name": "Columbia City", "state": "OR", "lat": "45.8950", "lng": "-122.8115"}, {"name": "Monmouth", "state": "OR", "lat": "44.8505", "lng": "-123.2283"}, {"name": "Estacada", "state": "OR", "lat": "45.2987", "lng": "-122.3338"}, {"name": "Lafayette", "state": "OR", "lat": "45.2462", "lng": "-123.1116"}, {"name": "Tutuilla", "state": "OR", "lat": "45.6142", "lng": "-118.7065"}, {"name": "Netarts", "state": "OR", "lat": "45.4356", "lng": "-123.9344"}, {"name": "Oak Grove", "state": "OR", "lat": "45.4156", "lng": "-122.6348"}, {"name": "Harbor", "state": "OR", "lat": "42.0385", "lng": "-124.2516"}, {"name": "Rose Lodge", "state": "OR", "lat": "45.0187", "lng": "-123.8881"}, {"name": "Talent", "state": "OR", "lat": "42.2404", "lng": "-122.7807"}, {"name": "Rufus", "state": "OR", "lat": "45.6919", "lng": "-120.7434"}, {"name": "Tigard", "state": "OR", "lat": "45.4237", "lng": "-122.7845"}, {"name": "Metzger", "state": "OR", "lat": "45.4491", "lng": "-122.7623"}, {"name": "Dufur", "state": "OR", "lat": "45.4530", "lng": "-121.1289"}, {"name": "Astoria", "state": "OR", "lat": "46.1856", "lng": "-123.8053"}, {"name": "Trail", "state": "OR", "lat": "42.6568", "lng": "-122.8135"}, {"name": "Stafford", "state": "OR", "lat": "45.3786", "lng": "-122.6822"}, {"name": "Mount Vernon", "state": "OR", "lat": "44.4169", "lng": "-119.1132"}, {"name": "Siletz", "state": "OR", "lat": "44.7219", "lng": "-123.9187"}, {"name": "Antelope", "state": "OR", "lat": "44.9113", "lng": "-120.7236"}, {"name": "St. Helens", "state": "OR", "lat": "45.8572", "lng": "-122.8163"}, {"name": "Warren", "state": "OR", "lat": "45.8133", "lng": "-122.8797"}, {"name": "Maywood Park", "state": "OR", "lat": "45.5524", "lng": "-122.5617"}, {"name": "Fort Hill", "state": "OR", "lat": "45.0670", "lng": "-123.5606"}, {"name": "Harrisburg", "state": "OR", "lat": "44.2718", "lng": "-123.1656"}, {"name": "Wilsonville", "state": "OR", "lat": "45.3107", "lng": "-122.7706"}, {"name": "Mill City", "state": "OR", "lat": "44.7519", "lng": "-122.4779"}, {"name": "Huntington", "state": "OR", "lat": "44.3502", "lng": "-117.2668"}, {"name": "Sandy", "state": "OR", "lat": "45.3986", "lng": "-122.2692"}, {"name": "Silverton", "state": "OR", "lat": "45.0030", "lng": "-122.7808"}, {"name": "Eagle Point", "state": "OR", "lat": "42.4677", "lng": "-122.8016"}, {"name": "Greenhorn", "state": "OR", "lat": "44.7087", "lng": "-118.4968"}, {"name": "Waterloo", "state": "OR", "lat": "44.4948", "lng": "-122.8243"}, {"name": "Adrian", "state": "OR", "lat": "43.7408", "lng": "-117.0709"}, {"name": "Echo", "state": "OR", "lat": "45.7431", "lng": "-119.1920"}, {"name": "Sweet Home", "state": "OR", "lat": "44.4023", "lng": "-122.7028"}, {"name": "Peoria", "state": "OR", "lat": "44.4507", "lng": "-123.2043"}, {"name": "New Hope", "state": "OR", "lat": "42.3693", "lng": "-123.3590"}, {"name": "Shaniko", "state": "OR", "lat": "45.0037", "lng": "-120.7521"}, {"name": "Sumpter", "state": "OR", "lat": "44.7435", "lng": "-118.1975"}, {"name": "Dallas", "state": "OR", "lat": "44.9222", "lng": "-123.3131"}, {"name": "Bonanza", "state": "OR", "lat": "42.2003", "lng": "-121.4066"}, {"name": "Milwaukie", "state": "OR", "lat": "45.4447", "lng": "-122.6221"}, {"name": "Manzanita", "state": "OR", "lat": "45.7165", "lng": "-123.9352"}, {"name": "Jennings Lodge", "state": "OR", "lat": "45.3926", "lng": "-122.6153"}, {"name": "Glendale", "state": "OR", "lat": "42.7381", "lng": "-123.4294"}, {"name": "Idanha", "state": "OR", "lat": "44.7049", "lng": "-122.0878"}, {"name": "Stayton", "state": "OR", "lat": "44.8031", "lng": "-122.7982"}, {"name": "Madras", "state": "OR", "lat": "44.6425", "lng": "-121.1316"}, {"name": "Dundee", "state": "OR", "lat": "45.2759", "lng": "-123.0072"}, {"name": "Melrose", "state": "OR", "lat": "43.2529", "lng": "-123.4574"}, {"name": "Rickreall", "state": "OR", "lat": "44.9319", "lng": "-123.2344"}, {"name": "Roseburg North", "state": "OR", "lat": "43.2653", "lng": "-123.3025"}, {"name": "Nehalem", "state": "OR", "lat": "45.7196", "lng": "-123.8941"}, {"name": "Grand Ronde", "state": "OR", "lat": "45.0739", "lng": "-123.6211"}, {"name": "Tygh Valley", "state": "OR", "lat": "45.2418", "lng": "-121.1693"}, {"name": "Reedsport", "state": "OR", "lat": "43.6983", "lng": "-124.1122"}, {"name": "Oakland", "state": "OR", "lat": "43.4234", "lng": "-123.2968"}, {"name": "Lakeside", "state": "OR", "lat": "43.5794", "lng": "-124.1732"}, {"name": "La Grande", "state": "OR", "lat": "45.3242", "lng": "-118.0865"}, {"name": "Hubbard", "state": "OR", "lat": "45.1819", "lng": "-122.8072"}, {"name": "Unity", "state": "OR", "lat": "44.4490", "lng": "-118.1880"}, {"name": "The Dalles", "state": "OR", "lat": "45.6053", "lng": "-121.1820"}, {"name": "Winchester Bay", "state": "OR", "lat": "43.6729", "lng": "-124.1828"}, {"name": "Sisters", "state": "OR", "lat": "44.2920", "lng": "-121.5534"}, {"name": "Scappoose", "state": "OR", "lat": "45.7565", "lng": "-122.8770"}, {"name": "Riverside", "state": "OR", "lat": "45.6768", "lng": "-118.7368"}, {"name": "Lincoln City", "state": "OR", "lat": "44.9750", "lng": "-124.0073"}, {"name": "Holley", "state": "OR", "lat": "44.3490", "lng": "-122.7856"}, {"name": "Cove", "state": "OR", "lat": "45.2964", "lng": "-117.8102"}, {"name": "Maupin", "state": "OR", "lat": "45.1731", "lng": "-121.0882"}, {"name": "Port Orford", "state": "OR", "lat": "42.7497", "lng": "-124.4973"}, {"name": "Redmond", "state": "OR", "lat": "44.2631", "lng": "-121.1798"}, {"name": "Amity", "state": "OR", "lat": "45.1155", "lng": "-123.2034"}, {"name": "Monument", "state": "OR", "lat": "44.8209", "lng": "-119.4208"}, {"name": "Weston", "state": "OR", "lat": "45.8166", "lng": "-118.4258"}, {"name": "Mulino", "state": "OR", "lat": "45.2235", "lng": "-122.5616"}, {"name": "Granite", "state": "OR", "lat": "44.8100", "lng": "-118.4187"}, {"name": "Scio", "state": "OR", "lat": "44.7046", "lng": "-122.8509"}, {"name": "Mount Angel", "state": "OR", "lat": "45.0694", "lng": "-122.7970"}, {"name": "Ashland", "state": "OR", "lat": "42.1905", "lng": "-122.6992"}]