[{"name": "Cheyney University", "state": "PA", "lat": "39.9343", "lng": "-75.5306"}, {"name": "Collegeville", "state": "PA", "lat": "40.1873", "lng": "-75.4581"}, {"name": "Saylorsburg", "state": "PA", "lat": "40.8998", "lng": "-75.3179"}, {"name": "Macungie", "state": "PA", "lat": "40.5165", "lng": "-75.5545"}, {"name": "Houserville", "state": "PA", "lat": "40.8266", "lng": "-77.8226"}, {"name": "Green Tree", "state": "PA", "lat": "40.4170", "lng": "-80.0544"}, {"name": "Toftrees", "state": "PA", "lat": "40.8249", "lng": "-77.8850"}, {"name": "Avondale", "state": "PA", "lat": "39.8248", "lng": "-75.7819"}, {"name": "Forest Hills", "state": "PA", "lat": "40.4252", "lng": "-79.8545"}, {"name": "Mahaffey", "state": "PA", "lat": "40.8745", "lng": "-78.7274"}, {"name": "Meshoppen", "state": "PA", "lat": "41.6119", "lng": "-76.0458"}, {"name": "Brownsville", "state": "PA", "lat": "40.0188", "lng": "-79.8910"}, {"name": "Chinchilla", "state": "PA", "lat": "41.4846", "lng": "-75.6660"}, {"name": "New Kingstown", "state": "PA", "lat": "40.2311", "lng": "-77.0727"}, {"name": "Tremont", "state": "PA", "lat": "40.6302", "lng": "-76.3912"}, {"name": "Brookville", "state": "PA", "lat": "41.1615", "lng": "-79.0827"}, {"name": "Granville", "state": "PA", "lat": "40.5549", "lng": "-77.6168"}, {"name": "Elverson", "state": "PA", "lat": "40.1559", "lng": "-75.8304"}, {"name": "Bechtelsville", "state": "PA", "lat": "40.3711", "lng": "-75.6306"}, {"name": "Stevens", "state": "PA", "lat": "40.2141", "lng": "-76.1605"}, {"name": "Bloomsburg", "state": "PA", "lat": "41.0026", "lng": "-76.4561"}, {"name": "Hawthorn", "state": "PA", "lat": "41.0210", "lng": "-79.2782"}, {"name": "Matamoras", "state": "PA", "lat": "41.3666", "lng": "-74.6997"}, {"name": "Luzerne", "state": "PA", "lat": "41.2867", "lng": "-75.8967"}, {"name": "McVeytown", "state": "PA", "lat": "40.4981", "lng": "-77.7415"}, {"name": "Avonia", "state": "PA", "lat": "42.0469", "lng": "-80.2765"}, {"name": "Brockway", "state": "PA", "lat": "41.2469", "lng": "-78.7929"}, {"name": "Watsontown", "state": "PA", "lat": "41.0850", "lng": "-76.8646"}, {"name": "Birdsboro", "state": "PA", "lat": "40.2620", "lng": "-75.8099"}, {"name": "Smithfield", "state": "PA", "lat": "39.8023", "lng": "-79.8089"}, {"name": "Clarence", "state": "PA", "lat": "41.0484", "lng": "-77.9460"}, {"name": "Berwick", "state": "PA", "lat": "41.0555", "lng": "-76.2492"}, {"name": "Fivepointville", "state": "PA", "lat": "40.1828", "lng": "-76.0553"}, {"name": "Rosslyn Farms", "state": "PA", "lat": "40.4224", "lng": "-80.0886"}, {"name": "Delmont", "state": "PA", "lat": "40.4145", "lng": "-79.5729"}, {"name": "Lower Burrell", "state": "PA", "lat": "40.5818", "lng": "-79.7141"}, {"name": "Foundryville", "state": "PA", "lat": "41.0775", "lng": "-76.2355"}, {"name": "Shippenville", "state": "PA", "lat": "41.2528", "lng": "-79.4633"}, {"name": "Geneva", "state": "PA", "lat": "41.5620", "lng": "-80.2261"}, {"name": "Modena", "state": "PA", "lat": "39.9618", "lng": "-75.8024"}, {"name": "Wilkinsburg", "state": "PA", "lat": "40.4442", "lng": "-79.8733"}, {"name": "Slatington", "state": "PA", "lat": "40.7544", "lng": "-75.6114"}, {"name": "Lincolnville", "state": "PA", "lat": "41.7902", "lng": "-79.8381"}, {"name": "Riegelsville", "state": "PA", "lat": "40.5965", "lng": "-75.1987"}, {"name": "Freeland", "state": "PA", "lat": "41.0212", "lng": "-75.8963"}, {"name": "Swissvale", "state": "PA", "lat": "40.4207", "lng": "-79.8859"}, {"name": "New Brighton", "state": "PA", "lat": "40.7355", "lng": "-80.3091"}, {"name": "Siglerville", "state": "PA", "lat": "40.7367", "lng": "-77.5319"}, {"name": "Wernersville", "state": "PA", "lat": "40.3302", "lng": "-76.0820"}, {"name": "Wallenpaupack Lake Estates", "state": "PA", "lat": "41.3957", "lng": "-75.2731"}, {"name": "Bradford", "state": "PA", "lat": "41.9604", "lng": "-78.6413"}, {"name": "Freeburg", "state": "PA", "lat": "40.7625", "lng": "-76.9408"}, {"name": "Hereford", "state": "PA", "lat": "40.4476", "lng": "-75.5508"}, {"name": "Aspinwall", "state": "PA", "lat": "40.4929", "lng": "-79.9037"}, {"name": "Glen Campbell", "state": "PA", "lat": "40.8197", "lng": "-78.8297"}, {"name": "Lower Allen", "state": "PA", "lat": "40.2261", "lng": "-76.9017"}, {"name": "Churchville", "state": "PA", "lat": "40.1994", "lng": "-74.9986"}, {"name": "Kersey", "state": "PA", "lat": "41.3570", "lng": "-78.6101"}, {"name": "Youngstown", "state": "PA", "lat": "40.2798", "lng": "-79.3659"}, {"name": "Hunker", "state": "PA", "lat": "40.2041", "lng": "-79.6155"}, {"name": "Glasgow", "state": "PA", "lat": "40.6443", "lng": "-80.5081"}, {"name": "Lamar", "state": "PA", "lat": "41.0094", "lng": "-77.5306"}, {"name": "Defiance", "state": "PA", "lat": "40.1599", "lng": "-78.2320"}, {"name": "North Apollo", "state": "PA", "lat": "40.5938", "lng": "-79.5564"}, {"name": "Newton Hamilton", "state": "PA", "lat": "40.3925", "lng": "-77.8355"}, {"name": "Ancient Oaks", "state": "PA", "lat": "40.5360", "lng": "-75.5852"}, {"name": "Goldsboro", "state": "PA", "lat": "40.1542", "lng": "-76.7515"}, {"name": "Sandy Lake", "state": "PA", "lat": "41.3502", "lng": "-80.0837"}, {"name": "Wheatland", "state": "PA", "lat": "41.1970", "lng": "-80.4956"}, {"name": "Calumet", "state": "PA", "lat": "40.2189", "lng": "-79.4892"}, {"name": "Plainfield", "state": "PA", "lat": "40.2012", "lng": "-77.2833"}, {"name": "Shanor-Northvue", "state": "PA", "lat": "40.9104", "lng": "-79.9157"}, {"name": "Pennville", "state": "PA", "lat": "39.7880", "lng": "-76.9906"}, {"name": "North Vandergrift", "state": "PA", "lat": "40.6100", "lng": "-79.5555"}, {"name": "Chester Heights", "state": "PA", "lat": "39.8926", "lng": "-75.4698"}, {"name": "Graceton", "state": "PA", "lat": "40.5071", "lng": "-79.1689"}, {"name": "Hatfield", "state": "PA", "lat": "40.2771", "lng": "-75.2988"}, {"name": "Harmony", "state": "PA", "lat": "40.8015", "lng": "-80.1250"}, {"name": "Shillington", "state": "PA", "lat": "40.3029", "lng": "-75.9670"}, {"name": "Village Green-Green Ridge", "state": "PA", "lat": "39.8638", "lng": "-75.4256"}, {"name": "Birmingham", "state": "PA", "lat": "40.6472", "lng": "-78.1957"}, {"name": "Masthope", "state": "PA", "lat": "41.5154", "lng": "-75.0257"}, {"name": "Hummelstown", "state": "PA", "lat": "40.2657", "lng": "-76.7126"}, {"name": "Coatesville", "state": "PA", "lat": "39.9849", "lng": "-75.8199"}, {"name": "Oakdale", "state": "PA", "lat": "40.4001", "lng": "-80.1873"}, {"name": "Wind Ridge", "state": "PA", "lat": "39.9111", "lng": "-80.4320"}, {"name": "Lykens", "state": "PA", "lat": "40.5641", "lng": "-76.6983"}, {"name": "East Bangor", "state": "PA", "lat": "40.8811", "lng": "-75.1861"}, {"name": "Crown", "state": "PA", "lat": "41.3917", "lng": "-79.2633"}, {"name": "Altoona", "state": "PA", "lat": "40.5082", "lng": "-78.4007"}, {"name": "Greenfields", "state": "PA", "lat": "40.3627", "lng": "-75.9565"}, {"name": "Pocono Pines", "state": "PA", "lat": "41.1149", "lng": "-75.4589"}, {"name": "Millerton", "state": "PA", "lat": "41.9868", "lng": "-76.9396"}, {"name": "Kiskimere", "state": "PA", "lat": "40.6177", "lng": "-79.5841"}, {"name": "New Florence", "state": "PA", "lat": "40.3790", "lng": "-79.0751"}, {"name": "Nixon", "state": "PA", "lat": "40.7844", "lng": "-79.9340"}, {"name": "Southview", "state": "PA", "lat": "40.3320", "lng": "-80.2560"}, {"name": "Goodville", "state": "PA", "lat": "40.1280", "lng": "-76.0046"}, {"name": "Wyalusing", "state": "PA", "lat": "41.6704", "lng": "-76.2623"}, {"name": "Duncannon", "state": "PA", "lat": "40.3952", "lng": "-77.0277"}, {"name": "Mountainhome", "state": "PA", "lat": "41.1779", "lng": "-75.2632"}, {"name": "Haverford College", "state": "PA", "lat": "40.0082", "lng": "-75.3064"}, {"name": "Shade Gap", "state": "PA", "lat": "40.1803", "lng": "-77.8662"}, {"name": "Highland Park", "state": "PA", "lat": "40.6216", "lng": "-77.5707"}, {"name": "Roseville", "state": "PA", "lat": "41.8637", "lng": "-76.9575"}, {"name": "Kapp Heights", "state": "PA", "lat": "40.8994", "lng": "-76.8090"}, {"name": "Devon", "state": "PA", "lat": "40.0496", "lng": "-75.4271"}, {"name": "Inkerman", "state": "PA", "lat": "41.2968", "lng": "-75.8167"}, {"name": "Trappe", "state": "PA", "lat": "40.1992", "lng": "-75.4754"}, {"name": "Laflin", "state": "PA", "lat": "41.2896", "lng": "-75.7942"}, {"name": "Pen Argyl", "state": "PA", "lat": "40.8675", "lng": "-75.2535"}, {"name": "Adamsburg", "state": "PA", "lat": "40.3124", "lng": "-79.6542"}, {"name": "Burlington", "state": "PA", "lat": "41.7817", "lng": "-76.6056"}, {"name": "West Middletown", "state": "PA", "lat": "40.2432", "lng": "-80.4252"}, {"name": "Klingerstown", "state": "PA", "lat": "40.6589", "lng": "-76.6932"}, {"name": "Courtdale", "state": "PA", "lat": "41.2848", "lng": "-75.9142"}, {"name": "Mount Holly Springs", "state": "PA", "lat": "40.1126", "lng": "-77.1854"}, {"name": "Telford", "state": "PA", "lat": "40.3259", "lng": "-75.3274"}, {"name": "Ohioville", "state": "PA", "lat": "40.6872", "lng": "-80.4783"}, {"name": "McKeesport", "state": "PA", "lat": "40.3419", "lng": "-79.8439"}, {"name": "Vanderbilt", "state": "PA", "lat": "40.0340", "lng": "-79.6637"}, {"name": "Benson", "state": "PA", "lat": "40.2027", "lng": "-78.9293"}, {"name": "Port Trevorton", "state": "PA", "lat": "40.6928", "lng": "-76.8940"}, {"name": "Park Forest Village", "state": "PA", "lat": "40.8000", "lng": "-77.9081"}, {"name": "Mount Carmel", "state": "PA", "lat": "40.7959", "lng": "-76.4120"}, {"name": "Rutherford", "state": "PA", "lat": "40.2696", "lng": "-76.7678"}, {"name": "Bellefonte", "state": "PA", "lat": "40.9141", "lng": "-77.7683"}, {"name": "Webster", "state": "PA", "lat": "40.1876", "lng": "-79.8489"}, {"name": "Weedville", "state": "PA", "lat": "41.2764", "lng": "-78.4902"}, {"name": "Messiah College", "state": "PA", "lat": "40.1576", "lng": "-76.9840"}, {"name": "Rockledge", "state": "PA", "lat": "40.0822", "lng": "-75.0898"}, {"name": "Armagh", "state": "PA", "lat": "40.4536", "lng": "-79.0324"}, {"name": "Brittany Farms-The Highlands", "state": "PA", "lat": "40.2690", "lng": "-75.2140"}, {"name": "Hostetter", "state": "PA", "lat": "40.2640", "lng": "-79.3976"}, {"name": "Clinton", "state": "PA", "lat": "40.4926", "lng": "-80.2960"}, {"name": "Bradford Woods", "state": "PA", "lat": "40.6369", "lng": "-80.0809"}, {"name": "Avis", "state": "PA", "lat": "41.1857", "lng": "-77.3167"}, {"name": "Spring Grove", "state": "PA", "lat": "39.8809", "lng": "-76.8641"}, {"name": "Akron", "state": "PA", "lat": "40.1580", "lng": "-76.2032"}, {"name": "Twilight", "state": "PA", "lat": "40.1158", "lng": "-79.8936"}, {"name": "Hickory", "state": "PA", "lat": "40.2958", "lng": "-80.3052"}, {"name": "Millersville", "state": "PA", "lat": "40.0047", "lng": "-76.3522"}, {"name": "Slabtown", "state": "PA", "lat": "40.9051", "lng": "-76.4060"}, {"name": "Marshallton", "state": "PA", "lat": "40.7853", "lng": "-76.5366"}, {"name": "Pittston", "state": "PA", "lat": "41.3274", "lng": "-75.7885"}, {"name": "Hannasville", "state": "PA", "lat": "41.4716", "lng": "-79.9311"}, {"name": "Pocono Woodland Lakes", "state": "PA", "lat": "41.3225", "lng": "-74.8902"}, {"name": "Munhall", "state": "PA", "lat": "40.3937", "lng": "-79.9004"}, {"name": "Sheffield", "state": "PA", "lat": "41.7010", "lng": "-79.0298"}, {"name": "North York", "state": "PA", "lat": "39.9780", "lng": "-76.7309"}, {"name": "Carrolltown", "state": "PA", "lat": "40.6048", "lng": "-78.7072"}, {"name": "Gordon", "state": "PA", "lat": "40.7500", "lng": "-76.3401"}, {"name": "Mount Penn", "state": "PA", "lat": "40.3287", "lng": "-75.8897"}, {"name": "Sewickley Heights", "state": "PA", "lat": "40.5594", "lng": "-80.1528"}, {"name": "West Alexander", "state": "PA", "lat": "40.1070", "lng": "-80.5092"}, {"name": "Vowinckel", "state": "PA", "lat": "41.4108", "lng": "-79.2286"}, {"name": "Prospect", "state": "PA", "lat": "40.8992", "lng": "-80.0487"}, {"name": "Hatboro", "state": "PA", "lat": "40.1775", "lng": "-75.1054"}, {"name": "Perryopolis", "state": "PA", "lat": "40.0868", "lng": "-79.7528"}, {"name": "Bendersville", "state": "PA", "lat": "39.9813", "lng": "-77.2493"}, {"name": "Marysville", "state": "PA", "lat": "40.3377", "lng": "-76.9337"}, {"name": "McClure", "state": "PA", "lat": "40.7078", "lng": "-77.3107"}, {"name": "Madison", "state": "PA", "lat": "40.2456", "lng": "-79.6748"}, {"name": "Wyncote", "state": "PA", "lat": "40.0915", "lng": "-75.1462"}, {"name": "Wyndmoor", "state": "PA", "lat": "40.0856", "lng": "-75.1941"}, {"name": "Bear Lake", "state": "PA", "lat": "41.9934", "lng": "-79.5014"}, {"name": "Woodbury", "state": "PA", "lat": "40.2255", "lng": "-78.3660"}, {"name": "Eighty Four", "state": "PA", "lat": "40.1777", "lng": "-80.1303"}, {"name": "Landisville", "state": "PA", "lat": "40.0902", "lng": "-76.4063"}, {"name": "Roaring Spring", "state": "PA", "lat": "40.3348", "lng": "-78.3959"}, {"name": "Corry", "state": "PA", "lat": "41.9260", "lng": "-79.6358"}, {"name": "Mifflin", "state": "PA", "lat": "40.5686", "lng": "-77.4047"}, {"name": "Rauchtown", "state": "PA", "lat": "41.1261", "lng": "-77.2364"}, {"name": "Espy", "state": "PA", "lat": "41.0055", "lng": "-76.4164"}, {"name": "Mill Creek", "state": "PA", "lat": "40.4373", "lng": "-77.9308"}, {"name": "Biglerville", "state": "PA", "lat": "39.9303", "lng": "-77.2462"}, {"name": "Shickshinny", "state": "PA", "lat": "41.1535", "lng": "-76.1500"}, {"name": "Hazleton", "state": "PA", "lat": "40.9504", "lng": "-75.9724"}, {"name": "Marietta", "state": "PA", "lat": "40.0574", "lng": "-76.5516"}, {"name": "Westover", "state": "PA", "lat": "40.7465", "lng": "-78.6822"}, {"name": "Horsham", "state": "PA", "lat": "40.1825", "lng": "-75.1387"}, {"name": "New Bedford", "state": "PA", "lat": "41.0955", "lng": "-80.4953"}, {"name": "Lemoyne", "state": "PA", "lat": "40.2442", "lng": "-76.8991"}, {"name": "Baden", "state": "PA", "lat": "40.6396", "lng": "-80.2228"}, {"name": "Springmont", "state": "PA", "lat": "40.3274", "lng": "-76.0043"}, {"name": "Earlston", "state": "PA", "lat": "40.0038", "lng": "-78.3736"}, {"name": "Braddock Hills", "state": "PA", "lat": "40.4180", "lng": "-79.8629"}, {"name": "Gilberton", "state": "PA", "lat": "40.7961", "lng": "-76.2235"}, {"name": "Broomall", "state": "PA", "lat": "39.9694", "lng": "-75.3529"}, {"name": "Driftwood", "state": "PA", "lat": "41.3448", "lng": "-78.1340"}, {"name": "Frankfort Springs", "state": "PA", "lat": "40.4810", "lng": "-80.4428"}, {"name": "Whitfield", "state": "PA", "lat": "40.3358", "lng": "-76.0048"}, {"name": "Zion", "state": "PA", "lat": "40.9168", "lng": "-77.6908"}, {"name": "Ferndale", "state": "PA", "lat": "40.2884", "lng": "-78.9179"}, {"name": "Leechburg", "state": "PA", "lat": "40.6303", "lng": "-79.6022"}, {"name": "Clay", "state": "PA", "lat": "40.2186", "lng": "-76.2399"}, {"name": "Lebanon", "state": "PA", "lat": "40.3412", "lng": "-76.4228"}, {"name": "Pymatuning South", "state": "PA", "lat": "41.5067", "lng": "-80.4702"}, {"name": "Paxtonville", "state": "PA", "lat": "40.7702", "lng": "-77.0808"}, {"name": "Tresckow", "state": "PA", "lat": "40.9160", "lng": "-75.9657"}, {"name": "Industry", "state": "PA", "lat": "40.6595", "lng": "-80.4115"}, {"name": "Coal Center", "state": "PA", "lat": "40.0700", "lng": "-79.9009"}, {"name": "St. Michael", "state": "PA", "lat": "40.3271", "lng": "-78.7701"}, {"name": "Davidsville", "state": "PA", "lat": "40.2348", "lng": "-78.9356"}, {"name": "Maytown", "state": "PA", "lat": "40.0791", "lng": "-76.5791"}, {"name": "Collingdale", "state": "PA", "lat": "39.9151", "lng": "-75.2776"}, {"name": "Reynoldsville", "state": "PA", "lat": "41.0946", "lng": "-78.8880"}, {"name": "Tyler Run", "state": "PA", "lat": "39.9304", "lng": "-76.7011"}, {"name": "Dunlo", "state": "PA", "lat": "40.2935", "lng": "-78.7178"}, {"name": "Turbotville", "state": "PA", "lat": "41.1018", "lng": "-76.7695"}, {"name": "Scranton", "state": "PA", "lat": "41.4044", "lng": "-75.6649"}, {"name": "Wilburton Number Two", "state": "PA", "lat": "40.8187", "lng": "-76.3782"}, {"name": "Manns Choice", "state": "PA", "lat": "40.0035", "lng": "-78.5912"}, {"name": "Sankertown", "state": "PA", "lat": "40.4714", "lng": "-78.5921"}, {"name": "Mount Pocono", "state": "PA", "lat": "41.1225", "lng": "-75.3582"}, {"name": "West Liberty", "state": "PA", "lat": "41.0079", "lng": "-80.0573"}, {"name": "Myerstown", "state": "PA", "lat": "40.3722", "lng": "-76.3055"}, {"name": "Marcus Hook", "state": "PA", "lat": "39.8131", "lng": "-75.4165"}, {"name": "Elco", "state": "PA", "lat": "40.0811", "lng": "-79.8813"}, {"name": "Nemacolin", "state": "PA", "lat": "39.8784", "lng": "-79.9295"}, {"name": "Jennerstown", "state": "PA", "lat": "40.1635", "lng": "-79.0611"}, {"name": "Brickerville", "state": "PA", "lat": "40.2226", "lng": "-76.2863"}, {"name": "Stonybrook", "state": "PA", "lat": "39.9798", "lng": "-76.6318"}, {"name": "Fernville", "state": "PA", "lat": "41.0024", "lng": "-76.4752"}, {"name": "Summerville", "state": "PA", "lat": "41.1163", "lng": "-79.1880"}, {"name": "Kulpmont", "state": "PA", "lat": "40.7951", "lng": "-76.4718"}, {"name": "Upper Exeter", "state": "PA", "lat": "41.4070", "lng": "-75.8503"}, {"name": "Shirleysburg", "state": "PA", "lat": "40.2974", "lng": "-77.8764"}, {"name": "Rheems", "state": "PA", "lat": "40.1256", "lng": "-76.5734"}, {"name": "Flora Dale", "state": "PA", "lat": "39.9598", "lng": "-77.2483"}, {"name": "Eddington", "state": "PA", "lat": "40.0865", "lng": "-74.9445"}, {"name": "New Alexandria", "state": "PA", "lat": "40.3945", "lng": "-79.4175"}, {"name": "McKean", "state": "PA", "lat": "41.9981", "lng": "-80.1410"}, {"name": "Avoca", "state": "PA", "lat": "41.3381", "lng": "-75.7423"}, {"name": "Nuangola", "state": "PA", "lat": "41.1580", "lng": "-75.9773"}, {"name": "Leola", "state": "PA", "lat": "40.0915", "lng": "-76.1891"}, {"name": "Cross Roads", "state": "PA", "lat": "39.8200", "lng": "-76.5728"}, {"name": "Thorndale", "state": "PA", "lat": "39.9991", "lng": "-75.7517"}, {"name": "South Philipsburg", "state": "PA", "lat": "40.8870", "lng": "-78.2185"}, {"name": "Bakerstown", "state": "PA", "lat": "40.6528", "lng": "-79.9408"}, {"name": "Middleport", "state": "PA", "lat": "40.7278", "lng": "-76.0868"}, {"name": "Stockdale", "state": "PA", "lat": "40.0833", "lng": "-79.8509"}, {"name": "State Line", "state": "PA", "lat": "39.7329", "lng": "-77.7247"}, {"name": "Jamison City", "state": "PA", "lat": "41.2985", "lng": "-76.3691"}, {"name": "Eagle Lake", "state": "PA", "lat": "41.2826", "lng": "-75.4795"}, {"name": "New Beaver", "state": "PA", "lat": "40.8773", "lng": "-80.3702"}, {"name": "Gardners", "state": "PA", "lat": "40.0063", "lng": "-77.2084"}, {"name": "Monessen", "state": "PA", "lat": "40.1519", "lng": "-79.8828"}, {"name": "Pennsburg", "state": "PA", "lat": "40.3936", "lng": "-75.4965"}, {"name": "Ashley", "state": "PA", "lat": "41.2128", "lng": "-75.8994"}, {"name": "West Conshohocken", "state": "PA", "lat": "40.0702", "lng": "-75.3189"}, {"name": "Smoketown", "state": "PA", "lat": "40.0388", "lng": "-76.2038"}, {"name": "Belleville", "state": "PA", "lat": "40.6060", "lng": "-77.7210"}, {"name": "Penbrook", "state": "PA", "lat": "40.2780", "lng": "-76.8484"}, {"name": "Mohnton", "state": "PA", "lat": "40.2871", "lng": "-75.9870"}, {"name": "Lemont Furnace", "state": "PA", "lat": "39.9104", "lng": "-79.6628"}, {"name": "Castanea", "state": "PA", "lat": "41.1200", "lng": "-77.4287"}, {"name": "Daisytown", "state": "PA", "lat": "40.3201", "lng": "-78.9034"}, {"name": "Wallaceton", "state": "PA", "lat": "40.9617", "lng": "-78.2905"}, {"name": "Beech Creek", "state": "PA", "lat": "41.0745", "lng": "-77.5852"}, {"name": "Wellsboro", "state": "PA", "lat": "41.7459", "lng": "-77.3031"}, {"name": "McSherrystown", "state": "PA", "lat": "39.8036", "lng": "-77.0198"}, {"name": "Confluence", "state": "PA", "lat": "39.8094", "lng": "-79.3552"}, {"name": "Mount Morris", "state": "PA", "lat": "39.7342", "lng": "-80.0755"}, {"name": "Towamensing Trails", "state": "PA", "lat": "40.9946", "lng": "-75.5828"}, {"name": "Farmersville", "state": "PA", "lat": "40.1290", "lng": "-76.1558"}, {"name": "Archbald", "state": "PA", "lat": "41.5077", "lng": "-75.5453"}, {"name": "Ingram", "state": "PA", "lat": "40.4448", "lng": "-80.0685"}, {"name": "Cresson", "state": "PA", "lat": "40.4626", "lng": "-78.5866"}, {"name": "Upper St. Clair", "state": "PA", "lat": "40.3336", "lng": "-80.0842"}, {"name": "Colwyn", "state": "PA", "lat": "39.9119", "lng": "-75.2530"}, {"name": "Mill Village", "state": "PA", "lat": "41.8775", "lng": "-79.9726"}, {"name": "East Salem", "state": "PA", "lat": "40.6090", "lng": "-77.2371"}, {"name": "Aristes", "state": "PA", "lat": "40.8155", "lng": "-76.3395"}, {"name": "Allensville", "state": "PA", "lat": "40.5331", "lng": "-77.8143"}, {"name": "Manorville", "state": "PA", "lat": "40.7877", "lng": "-79.5206"}, {"name": "Bellwood", "state": "PA", "lat": "40.6009", "lng": "-78.3343"}, {"name": "Cumbola", "state": "PA", "lat": "40.7139", "lng": "-76.1432"}, {"name": "Boston", "state": "PA", "lat": "40.3120", "lng": "-79.8237"}, {"name": "North East", "state": "PA", "lat": "42.2134", "lng": "-79.8333"}, {"name": "Crenshaw", "state": "PA", "lat": "41.2487", "lng": "-78.7542"}, {"name": "Templeton", "state": "PA", "lat": "40.9185", "lng": "-79.4603"}, {"name": "Chase", "state": "PA", "lat": "41.2801", "lng": "-75.9650"}, {"name": "East Berlin", "state": "PA", "lat": "39.9369", "lng": "-76.9794"}, {"name": "Carbondale", "state": "PA", "lat": "41.5714", "lng": "-75.5048"}, {"name": "Pottsgrove", "state": "PA", "lat": "40.2644", "lng": "-75.6093"}, {"name": "Hickory Hills", "state": "PA", "lat": "41.0347", "lng": "-75.8221"}, {"name": "Palo Alto", "state": "PA", "lat": "40.6861", "lng": "-76.1699"}, {"name": "Woodward", "state": "PA", "lat": "40.8997", "lng": "-77.3472"}, {"name": "Strasburg", "state": "PA", "lat": "39.9832", "lng": "-76.1847"}, {"name": "Elizabethtown", "state": "PA", "lat": "40.1534", "lng": "-76.5991"}, {"name": "Tunkhannock", "state": "PA", "lat": "41.5412", "lng": "-75.9488"}, {"name": "Tioga", "state": "PA", "lat": "41.9072", "lng": "-77.1335"}, {"name": "Minersville", "state": "PA", "lat": "40.6908", "lng": "-76.2594"}, {"name": "Chambersburg", "state": "PA", "lat": "39.9315", "lng": "-77.6556"}, {"name": "Arnold City", "state": "PA", "lat": "40.1176", "lng": "-79.8228"}, {"name": "Yatesville", "state": "PA", "lat": "41.3037", "lng": "-75.7825"}, {"name": "Freemansburg", "state": "PA", "lat": "40.6280", "lng": "-75.3401"}, {"name": "Bruin", "state": "PA", "lat": "41.0544", "lng": "-79.7273"}, {"name": "Girard", "state": "PA", "lat": "42.0042", "lng": "-80.3192"}, {"name": "Trevorton", "state": "PA", "lat": "40.7841", "lng": "-76.6713"}, {"name": "Aaronsburg", "state": "PA", "lat": "40.9042", "lng": "-77.4513"}, {"name": "Temple", "state": "PA", "lat": "40.4085", "lng": "-75.9225"}, {"name": "Skippack", "state": "PA", "lat": "40.2225", "lng": "-75.3998"}, {"name": "Leetsdale", "state": "PA", "lat": "40.5656", "lng": "-80.2142"}, {"name": "Stoystown", "state": "PA", "lat": "40.1031", "lng": "-78.9547"}, {"name": "Rogersville", "state": "PA", "lat": "39.8806", "lng": "-80.2694"}, {"name": "Cashtown", "state": "PA", "lat": "39.8837", "lng": "-77.3533"}, {"name": "Hometown", "state": "PA", "lat": "40.8216", "lng": "-75.9865"}, {"name": "Spinnerstown", "state": "PA", "lat": "40.4412", "lng": "-75.4414"}, {"name": "Smithton", "state": "PA", "lat": "40.1538", "lng": "-79.7424"}, {"name": "Herminie", "state": "PA", "lat": "40.2635", "lng": "-79.7136"}, {"name": "New Castle Northwest", "state": "PA", "lat": "41.0221", "lng": "-80.3566"}, {"name": "Atlantic", "state": "PA", "lat": "41.5075", "lng": "-80.3393"}, {"name": "Lewistown", "state": "PA", "lat": "40.5964", "lng": "-77.5730"}, {"name": "Schlusser", "state": "PA", "lat": "40.2432", "lng": "-77.1784"}, {"name": "Tullytown", "state": "PA", "lat": "40.1401", "lng": "-74.8107"}, {"name": "Lime Ridge", "state": "PA", "lat": "41.0240", "lng": "-76.3504"}, {"name": "Gettysburg", "state": "PA", "lat": "39.8304", "lng": "-77.2339"}, {"name": "Cherry Tree", "state": "PA", "lat": "40.7253", "lng": "-78.8085"}, {"name": "Shenandoah", "state": "PA", "lat": "40.8167", "lng": "-76.2004"}, {"name": "Laureldale", "state": "PA", "lat": "40.3897", "lng": "-75.9135"}, {"name": "Brackenridge", "state": "PA", "lat": "40.6079", "lng": "-79.7411"}, {"name": "Dover", "state": "PA", "lat": "40.0033", "lng": "-76.8484"}, {"name": "Heidlersburg", "state": "PA", "lat": "39.9504", "lng": "-77.1493"}, {"name": "Coalport", "state": "PA", "lat": "40.7476", "lng": "-78.5320"}, {"name": "Hampton", "state": "PA", "lat": "39.9289", "lng": "-77.0584"}, {"name": "West Hamburg", "state": "PA", "lat": "40.5524", "lng": "-76.0020"}, {"name": "Colony Park", "state": "PA", "lat": "40.3465", "lng": "-75.9827"}, {"name": "Montgomeryville", "state": "PA", "lat": "40.2502", "lng": "-75.2405"}, {"name": "Turtle Creek", "state": "PA", "lat": "40.4085", "lng": "-79.8214"}, {"name": "Orrtanna", "state": "PA", "lat": "39.8460", "lng": "-77.3590"}, {"name": "Lenhartsville", "state": "PA", "lat": "40.5721", "lng": "-75.8892"}, {"name": "Coopersburg", "state": "PA", "lat": "40.5102", "lng": "-75.3915"}, {"name": "Hyde", "state": "PA", "lat": "41.0075", "lng": "-78.4689"}, {"name": "East Waterford", "state": "PA", "lat": "40.3711", "lng": "-77.6048"}, {"name": "Koppel", "state": "PA", "lat": "40.8356", "lng": "-80.3213"}, {"name": "Glenfield", "state": "PA", "lat": "40.5207", "lng": "-80.1333"}, {"name": "Branchdale", "state": "PA", "lat": "40.6732", "lng": "-76.3222"}, {"name": "North Philipsburg", "state": "PA", "lat": "40.9092", "lng": "-78.2088"}, {"name": "Bridgeville", "state": "PA", "lat": "40.3578", "lng": "-80.1061"}, {"name": "Bally", "state": "PA", "lat": "40.4004", "lng": "-75.5875"}, {"name": "Portage", "state": "PA", "lat": "40.3868", "lng": "-78.6746"}, {"name": "Deer Lake", "state": "PA", "lat": "40.6214", "lng": "-76.0565"}, {"name": "Houston", "state": "PA", "lat": "40.2494", "lng": "-80.2110"}, {"name": "Fredonia", "state": "PA", "lat": "41.3219", "lng": "-80.2581"}, {"name": "Allenport", "state": "PA", "lat": "40.0923", "lng": "-79.8565"}, {"name": "Townville", "state": "PA", "lat": "41.6791", "lng": "-79.8801"}, {"name": "Ronks", "state": "PA", "lat": "40.0267", "lng": "-76.1710"}, {"name": "Eau Claire", "state": "PA", "lat": "41.1368", "lng": "-79.7985"}, {"name": "Warren", "state": "PA", "lat": "41.8433", "lng": "-79.1445"}, {"name": "Tyrone", "state": "PA", "lat": "40.6764", "lng": "-78.2460"}, {"name": "Penndel", "state": "PA", "lat": "40.1552", "lng": "-74.9147"}, {"name": "Harrisburg", "state": "PA", "lat": "40.2752", "lng": "-76.8843"}, {"name": "Dunnstown", "state": "PA", "lat": "41.1484", "lng": "-77.4201"}, {"name": "Ambridge", "state": "PA", "lat": "40.5922", "lng": "-80.2264"}, {"name": "Millwood", "state": "PA", "lat": "40.3504", "lng": "-79.2853"}, {"name": "McConnellsburg", "state": "PA", "lat": "39.9320", "lng": "-77.9958"}, {"name": "Croydon", "state": "PA", "lat": "40.0911", "lng": "-74.8975"}, {"name": "Jamestown", "state": "PA", "lat": "41.4843", "lng": "-80.4370"}, {"name": "Pleasant View", "state": "PA", "lat": "40.6121", "lng": "-79.5711"}, {"name": "East Greenville", "state": "PA", "lat": "40.4057", "lng": "-75.5059"}, {"name": "Elkland", "state": "PA", "lat": "41.9890", "lng": "-77.3140"}, {"name": "Pymatuning North", "state": "PA", "lat": "41.6660", "lng": "-80.4648"}, {"name": "Thornburg", "state": "PA", "lat": "40.4345", "lng": "-80.0842"}, {"name": "Sharon", "state": "PA", "lat": "41.2339", "lng": "-80.4997"}, {"name": "Shamokin Dam", "state": "PA", "lat": "40.8547", "lng": "-76.8231"}, {"name": "Wilkes-Barre", "state": "PA", "lat": "41.2468", "lng": "-75.8759"}, {"name": "Willow Grove", "state": "PA", "lat": "40.1495", "lng": "-75.1178"}, {"name": "Somerset", "state": "PA", "lat": "40.0050", "lng": "-79.0778"}, {"name": "Roulette", "state": "PA", "lat": "41.7768", "lng": "-78.1552"}, {"name": "Milford Square", "state": "PA", "lat": "40.4325", "lng": "-75.4056"}, {"name": "Sayre", "state": "PA", "lat": "41.9855", "lng": "-76.5207"}, {"name": "Yorkana", "state": "PA", "lat": "39.9760", "lng": "-76.5846"}, {"name": "Manor", "state": "PA", "lat": "40.3459", "lng": "-79.6693"}, {"name": "Pleasant Hill", "state": "PA", "lat": "40.3370", "lng": "-76.4480"}, {"name": "Beallsville", "state": "PA", "lat": "40.0619", "lng": "-80.0302"}, {"name": "Blawnox", "state": "PA", "lat": "40.4923", "lng": "-79.8600"}, {"name": "Orangeville", "state": "PA", "lat": "41.0769", "lng": "-76.4115"}, {"name": "Deemston", "state": "PA", "lat": "40.0273", "lng": "-80.0334"}, {"name": "New Freedom", "state": "PA", "lat": "39.7353", "lng": "-76.6967"}, {"name": "Cleona", "state": "PA", "lat": "40.3385", "lng": "-76.4770"}, {"name": "Frackville", "state": "PA", "lat": "40.7833", "lng": "-76.2329"}, {"name": "Windber", "state": "PA", "lat": "40.2355", "lng": "-78.8247"}, {"name": "Montoursville", "state": "PA", "lat": "41.2472", "lng": "-76.9184"}, {"name": "Unionville", "state": "PA", "lat": "40.9063", "lng": "-77.8767"}, {"name": "Arcadia University", "state": "PA", "lat": "40.0918", "lng": "-75.1653"}, {"name": "West Grove", "state": "PA", "lat": "39.8206", "lng": "-75.8284"}, {"name": "Hyde Park", "state": "PA", "lat": "40.6316", "lng": "-79.5891"}, {"name": "Snydertown", "state": "PA", "lat": "40.8730", "lng": "-76.6722"}, {"name": "Bristol", "state": "PA", "lat": "40.1028", "lng": "-74.8530"}, {"name": "Lavelle", "state": "PA", "lat": "40.7623", "lng": "-76.3869"}, {"name": "Alsace Manor", "state": "PA", "lat": "40.3972", "lng": "-75.8546"}, {"name": "Joffre", "state": "PA", "lat": "40.3809", "lng": "-80.3533"}, {"name": "Taylor", "state": "PA", "lat": "41.3958", "lng": "-75.7147"}, {"name": "Oakland", "state": "PA", "lat": "41.9506", "lng": "-75.6095"}, {"name": "Southmont", "state": "PA", "lat": "40.3108", "lng": "-78.9327"}, {"name": "Royersford", "state": "PA", "lat": "40.1862", "lng": "-75.5382"}, {"name": "Midland", "state": "PA", "lat": "40.6373", "lng": "-80.4565"}, {"name": "Troutville", "state": "PA", "lat": "41.0259", "lng": "-78.7862"}, {"name": "Faxon", "state": "PA", "lat": "41.2556", "lng": "-76.9771"}, {"name": "Shinglehouse", "state": "PA", "lat": "41.9662", "lng": "-78.1908"}, {"name": "Curtisville", "state": "PA", "lat": "40.6497", "lng": "-79.8492"}, {"name": "Cedar Crest", "state": "PA", "lat": "40.3966", "lng": "-77.8858"}, {"name": "East Petersburg", "state": "PA", "lat": "40.1006", "lng": "-76.3511"}, {"name": "Tidioute", "state": "PA", "lat": "41.6847", "lng": "-79.4004"}, {"name": "Old Forge", "state": "PA", "lat": "41.3705", "lng": "-75.7409"}, {"name": "Columbia", "state": "PA", "lat": "40.0347", "lng": "-76.4943"}, {"name": "Newry", "state": "PA", "lat": "40.3934", "lng": "-78.4357"}, {"name": "Shiloh", "state": "PA", "lat": "39.9734", "lng": "-76.7920"}, {"name": "Youngwood", "state": "PA", "lat": "40.2443", "lng": "-79.5812"}, {"name": "Greensburg", "state": "PA", "lat": "40.3113", "lng": "-79.5444"}, {"name": "Spartansburg", "state": "PA", "lat": "41.8240", "lng": "-79.6829"}, {"name": "Mountain Top", "state": "PA", "lat": "41.1353", "lng": "-75.9045"}, {"name": "Trexlertown", "state": "PA", "lat": "40.5523", "lng": "-75.6039"}, {"name": "Brandonville", "state": "PA", "lat": "40.8601", "lng": "-76.1689"}, {"name": "Clarendon", "state": "PA", "lat": "41.7807", "lng": "-79.0941"}, {"name": "Punxsutawney", "state": "PA", "lat": "40.9437", "lng": "-78.9767"}, {"name": "Picture Rocks", "state": "PA", "lat": "41.2804", "lng": "-76.7079"}, {"name": "Tower City", "state": "PA", "lat": "40.5884", "lng": "-76.5530"}, {"name": "Gratz", "state": "PA", "lat": "40.6073", "lng": "-76.7159"}, {"name": "Newtown", "state": "PA", "lat": "40.2290", "lng": "-74.9324"}, {"name": "Shiremanstown", "state": "PA", "lat": "40.2223", "lng": "-76.9555"}, {"name": "Camp Hill", "state": "PA", "lat": "40.2422", "lng": "-76.9274"}, {"name": "Creekside", "state": "PA", "lat": "40.6810", "lng": "-79.1930"}, {"name": "Mechanicsville", "state": "PA", "lat": "40.6908", "lng": "-76.1807"}, {"name": "Honesdale", "state": "PA", "lat": "41.5774", "lng": "-75.2524"}, {"name": "McKeansburg", "state": "PA", "lat": "40.6822", "lng": "-76.0197"}, {"name": "Dravosburg", "state": "PA", "lat": "40.3509", "lng": "-79.8906"}, {"name": "Kingston", "state": "PA", "lat": "41.2652", "lng": "-75.8875"}, {"name": "Weston", "state": "PA", "lat": "40.9426", "lng": "-76.1400"}, {"name": "Palmyra", "state": "PA", "lat": "40.3100", "lng": "-76.5945"}, {"name": "Southwest Greensburg", "state": "PA", "lat": "40.2920", "lng": "-79.5478"}, {"name": "Kirkwood", "state": "PA", "lat": "39.8539", "lng": "-76.0798"}, {"name": "Montrose", "state": "PA", "lat": "41.8332", "lng": "-75.8762"}, {"name": "West Waynesburg", "state": "PA", "lat": "39.9001", "lng": "-80.2006"}, {"name": "Troxelville", "state": "PA", "lat": "40.8076", "lng": "-77.2058"}, {"name": "West Nanticoke", "state": "PA", "lat": "41.2202", "lng": "-76.0095"}, {"name": "Tionesta", "state": "PA", "lat": "41.4937", "lng": "-79.4480"}, {"name": "Jenkintown", "state": "PA", "lat": "40.0962", "lng": "-75.1296"}, {"name": "Fairless Hills", "state": "PA", "lat": "40.1784", "lng": "-74.8524"}, {"name": "Buck Run", "state": "PA", "lat": "40.7068", "lng": "-76.3212"}, {"name": "Whitehall", "state": "PA", "lat": "40.3602", "lng": "-79.9898"}, {"name": "Quarryville", "state": "PA", "lat": "39.8957", "lng": "-76.1617"}, {"name": "Newtown Grant", "state": "PA", "lat": "40.2599", "lng": "-74.9561"}, {"name": "Fox Chase", "state": "PA", "lat": "40.3952", "lng": "-75.9634"}, {"name": "Marianna", "state": "PA", "lat": "40.0128", "lng": "-80.1121"}, {"name": "Marianne", "state": "PA", "lat": "41.2441", "lng": "-79.4310"}, {"name": "Indiana", "state": "PA", "lat": "40.6220", "lng": "-79.1552"}, {"name": "Narberth", "state": "PA", "lat": "40.0077", "lng": "-75.2635"}, {"name": "Lititz", "state": "PA", "lat": "40.1540", "lng": "-76.3044"}, {"name": "Mather", "state": "PA", "lat": "39.9357", "lng": "-80.0751"}, {"name": "Burnside", "state": "PA", "lat": "40.8133", "lng": "-78.7920"}, {"name": "Centralia", "state": "PA", "lat": "40.8047", "lng": "-76.3439"}, {"name": "Curwensville", "state": "PA", "lat": "40.9735", "lng": "-78.5189"}, {"name": "Colonial Park", "state": "PA", "lat": "40.2997", "lng": "-76.8068"}, {"name": "Le Raysville", "state": "PA", "lat": "41.8381", "lng": "-76.1776"}, {"name": "Ohiopyle", "state": "PA", "lat": "39.8690", "lng": "-79.4946"}, {"name": "Boyertown", "state": "PA", "lat": "40.3323", "lng": "-75.6375"}, {"name": "Denver", "state": "PA", "lat": "40.2325", "lng": "-76.1393"}, {"name": "West Leechburg", "state": "PA", "lat": "40.6338", "lng": "-79.6170"}, {"name": "Martins Creek", "state": "PA", "lat": "40.7816", "lng": "-75.1912"}, {"name": "Mount Gretna Heights", "state": "PA", "lat": "40.2488", "lng": "-76.4664"}, {"name": "Jacobus", "state": "PA", "lat": "39.8825", "lng": "-76.7121"}, {"name": "Burnham", "state": "PA", "lat": "40.6353", "lng": "-77.5632"}, {"name": "New Berlin", "state": "PA", "lat": "40.8805", "lng": "-76.9842"}, {"name": "Swartzville", "state": "PA", "lat": "40.2287", "lng": "-76.0809"}, {"name": "Oak Hills", "state": "PA", "lat": "40.8263", "lng": "-79.9152"}, {"name": "Jonestown", "state": "PA", "lat": "40.4129", "lng": "-76.4807"}, {"name": "Vandergrift", "state": "PA", "lat": "40.5994", "lng": "-79.5748"}, {"name": "Mapletown", "state": "PA", "lat": "39.8050", "lng": "-79.9406"}, {"name": "Fort Washington", "state": "PA", "lat": "40.1407", "lng": "-75.1925"}, {"name": "Enola", "state": "PA", "lat": "40.2908", "lng": "-76.9348"}, {"name": "West Elizabeth", "state": "PA", "lat": "40.2722", "lng": "-79.8952"}, {"name": "Toughkenamon", "state": "PA", "lat": "39.8313", "lng": "-75.7565"}, {"name": "Dicksonville", "state": "PA", "lat": "40.7153", "lng": "-79.0105"}, {"name": "Seltzer", "state": "PA", "lat": "40.6957", "lng": "-76.2361"}, {"name": "Mattawana", "state": "PA", "lat": "40.4968", "lng": "-77.7283"}, {"name": "Ringtown", "state": "PA", "lat": "40.8565", "lng": "-76.2350"}, {"name": "Ben Avon Heights", "state": "PA", "lat": "40.5125", "lng": "-80.0731"}, {"name": "Jersey Shore", "state": "PA", "lat": "41.2012", "lng": "-77.2666"}, {"name": "Strodes Mills", "state": "PA", "lat": "40.5487", "lng": "-77.6751"}, {"name": "Starrucca", "state": "PA", "lat": "41.8996", "lng": "-75.4529"}, {"name": "Mayfield", "state": "PA", "lat": "41.5394", "lng": "-75.5315"}, {"name": "Plymouth Meeting", "state": "PA", "lat": "40.1099", "lng": "-75.2798"}, {"name": "Hendersonville", "state": "PA", "lat": "40.3007", "lng": "-80.1582"}, {"name": "Shrewsbury", "state": "PA", "lat": "39.7714", "lng": "-76.6799"}, {"name": "Bernville", "state": "PA", "lat": "40.4334", "lng": "-76.1107"}, {"name": "Greencastle", "state": "PA", "lat": "39.7907", "lng": "-77.7267"}, {"name": "Tylersburg", "state": "PA", "lat": "41.3838", "lng": "-79.3202"}, {"name": "Dupont", "state": "PA", "lat": "41.3237", "lng": "-75.7421"}, {"name": "Applewold", "state": "PA", "lat": "40.8084", "lng": "-79.5221"}, {"name": "West Decatur", "state": "PA", "lat": "40.9290", "lng": "-78.2827"}, {"name": "Doylestown", "state": "PA", "lat": "40.3139", "lng": "-75.1280"}, {"name": "Meadowlands", "state": "PA", "lat": "40.2173", "lng": "-80.2300"}, {"name": "Falmouth", "state": "PA", "lat": "40.1317", "lng": "-76.7045"}, {"name": "Grazierville", "state": "PA", "lat": "40.6576", "lng": "-78.2707"}, {"name": "Emporium", "state": "PA", "lat": "41.5102", "lng": "-78.2363"}, {"name": "Cementon", "state": "PA", "lat": "40.6890", "lng": "-75.5161"}, {"name": "Lewis Run", "state": "PA", "lat": "41.8694", "lng": "-78.6600"}, {"name": "Friedensburg", "state": "PA", "lat": "40.6070", "lng": "-76.2291"}, {"name": "Duryea", "state": "PA", "lat": "41.3537", "lng": "-75.7758"}, {"name": "Muir", "state": "PA", "lat": "40.5943", "lng": "-76.5186"}, {"name": "Charleroi", "state": "PA", "lat": "40.1384", "lng": "-79.9002"}, {"name": "Lake Wynonah", "state": "PA", "lat": "40.5878", "lng": "-76.1806"}, {"name": "Platea", "state": "PA", "lat": "41.9510", "lng": "-80.3305"}, {"name": "Everett", "state": "PA", "lat": "40.0132", "lng": "-78.3666"}, {"name": "Quentin", "state": "PA", "lat": "40.2793", "lng": "-76.4352"}, {"name": "Loyalhanna", "state": "PA", "lat": "40.3144", "lng": "-79.3560"}, {"name": "North Wales", "state": "PA", "lat": "40.2111", "lng": "-75.2744"}, {"name": "Monaca", "state": "PA", "lat": "40.6833", "lng": "-80.2736"}, {"name": "Exton", "state": "PA", "lat": "40.0307", "lng": "-75.6303"}, {"name": "Gibsonia", "state": "PA", "lat": "40.6322", "lng": "-79.9684"}, {"name": "Lewisberry", "state": "PA", "lat": "40.1357", "lng": "-76.8609"}, {"name": "Lakemont", "state": "PA", "lat": "40.4660", "lng": "-78.3916"}, {"name": "St. Petersburg", "state": "PA", "lat": "41.1610", "lng": "-79.6545"}, {"name": "Salix", "state": "PA", "lat": "40.2960", "lng": "-78.7599"}, {"name": "Dryville", "state": "PA", "lat": "40.4623", "lng": "-75.7532"}, {"name": "Woodcock", "state": "PA", "lat": "41.7541", "lng": "-80.0846"}, {"name": "Callensburg", "state": "PA", "lat": "41.1257", "lng": "-79.5578"}, {"name": "Titusville", "state": "PA", "lat": "41.6273", "lng": "-79.6699"}, {"name": "Columbus", "state": "PA", "lat": "41.9478", "lng": "-79.5835"}, {"name": "McEwensville", "state": "PA", "lat": "41.0723", "lng": "-76.8188"}, {"name": "Coral", "state": "PA", "lat": "40.5021", "lng": "-79.1746"}, {"name": "Mount Eagle", "state": "PA", "lat": "40.9800", "lng": "-77.7057"}, {"name": "Atglen", "state": "PA", "lat": "39.9473", "lng": "-75.9754"}, {"name": "East Vandergrift", "state": "PA", "lat": "40.5973", "lng": "-79.5630"}, {"name": "Port Vue", "state": "PA", "lat": "40.3371", "lng": "-79.8719"}, {"name": "Rimersburg", "state": "PA", "lat": "41.0409", "lng": "-79.5024"}, {"name": "New Berlinville", "state": "PA", "lat": "40.3451", "lng": "-75.6314"}, {"name": "Plymouth", "state": "PA", "lat": "41.2404", "lng": "-75.9505"}, {"name": "Port Royal", "state": "PA", "lat": "40.5337", "lng": "-77.3895"}, {"name": "Yeadon", "state": "PA", "lat": "39.9324", "lng": "-75.2527"}, {"name": "Nicholson", "state": "PA", "lat": "41.6269", "lng": "-75.7862"}, {"name": "Bellevue", "state": "PA", "lat": "40.4945", "lng": "-80.0550"}, {"name": "East Conemaugh", "state": "PA", "lat": "40.3476", "lng": "-78.8860"}, {"name": "Lake Latonka", "state": "PA", "lat": "41.2830", "lng": "-80.1831"}, {"name": "Tatamy", "state": "PA", "lat": "40.7409", "lng": "-75.2561"}, {"name": "Oil City", "state": "PA", "lat": "41.4282", "lng": "-79.7035"}, {"name": "Emsworth", "state": "PA", "lat": "40.5112", "lng": "-80.0965"}, {"name": "Dalton", "state": "PA", "lat": "41.5382", "lng": "-75.7390"}, {"name": "Mont Alto", "state": "PA", "lat": "39.8404", "lng": "-77.5557"}, {"name": "Renningers", "state": "PA", "lat": "40.6497", "lng": "-76.1484"}, {"name": "New Market", "state": "PA", "lat": "40.2231", "lng": "-76.8562"}, {"name": "Manchester", "state": "PA", "lat": "40.0614", "lng": "-76.7194"}, {"name": "Brave", "state": "PA", "lat": "39.7264", "lng": "-80.2593"}, {"name": "Garden View", "state": "PA", "lat": "41.2569", "lng": "-77.0490"}, {"name": "Morgantown", "state": "PA", "lat": "40.1539", "lng": "-75.8906"}, {"name": "Franklin", "state": "PA", "lat": "41.3936", "lng": "-79.8425"}, {"name": "Pillow", "state": "PA", "lat": "40.6406", "lng": "-76.8030"}, {"name": "Vicksburg", "state": "PA", "lat": "40.9384", "lng": "-76.9905"}, {"name": "Smicksburg", "state": "PA", "lat": "40.8701", "lng": "-79.1713"}, {"name": "Mansfield", "state": "PA", "lat": "41.8062", "lng": "-77.0787"}, {"name": "Plumville", "state": "PA", "lat": "40.7925", "lng": "-79.1793"}, {"name": "West Brownsville", "state": "PA", "lat": "40.0314", "lng": "-79.8913"}, {"name": "East McKeesport", "state": "PA", "lat": "40.3849", "lng": "-79.8073"}, {"name": "Richland", "state": "PA", "lat": "40.3574", "lng": "-76.2568"}, {"name": "Mountville", "state": "PA", "lat": "40.0402", "lng": "-76.4342"}, {"name": "Economy", "state": "PA", "lat": "40.6410", "lng": "-80.1840"}, {"name": "Irwin", "state": "PA", "lat": "40.3249", "lng": "-79.6997"}, {"name": "Trumbauersville", "state": "PA", "lat": "40.4132", "lng": "-75.3801"}, {"name": "Stoneboro", "state": "PA", "lat": "41.3336", "lng": "-80.1121"}, {"name": "Spring Hill", "state": "PA", "lat": "40.3704", "lng": "-78.6691"}, {"name": "Farrell", "state": "PA", "lat": "41.2112", "lng": "-80.4970"}, {"name": "Union Deposit", "state": "PA", "lat": "40.2910", "lng": "-76.6810"}, {"name": "Douglassville", "state": "PA", "lat": "40.2577", "lng": "-75.7251"}, {"name": "Brownstown", "state": "PA", "lat": "40.3332", "lng": "-78.9372"}, {"name": "West Lawn", "state": "PA", "lat": "40.3289", "lng": "-75.9939"}, {"name": "Hooversville", "state": "PA", "lat": "40.1504", "lng": "-78.9132"}, {"name": "Kane", "state": "PA", "lat": "41.6630", "lng": "-78.8096"}, {"name": "Snow Shoe", "state": "PA", "lat": "41.0277", "lng": "-77.9499"}, {"name": "Irvona", "state": "PA", "lat": "40.7736", "lng": "-78.5501"}, {"name": "Ford City", "state": "PA", "lat": "40.7694", "lng": "-79.5327"}, {"name": "Kreamer", "state": "PA", "lat": "40.8003", "lng": "-76.9710"}, {"name": "Clarion", "state": "PA", "lat": "41.2106", "lng": "-79.3803"}, {"name": "Central City", "state": "PA", "lat": "40.1096", "lng": "-78.8043"}, {"name": "Towanda", "state": "PA", "lat": "41.7706", "lng": "-76.4472"}, {"name": "Sand Hill", "state": "PA", "lat": "40.3614", "lng": "-76.4217"}, {"name": "Laurys Station", "state": "PA", "lat": "40.7232", "lng": "-75.5366"}, {"name": "Pittsburgh", "state": "PA", "lat": "40.4396", "lng": "-79.9763"}, {"name": "Cornwall", "state": "PA", "lat": "40.2659", "lng": "-76.4077"}, {"name": "North Belle Vernon", "state": "PA", "lat": "40.1320", "lng": "-79.8641"}, {"name": "Hookstown", "state": "PA", "lat": "40.5989", "lng": "-80.4738"}, {"name": "Greenwood", "state": "PA", "lat": "40.5325", "lng": "-78.3589"}, {"name": "Clairton", "state": "PA", "lat": "40.2976", "lng": "-79.8854"}, {"name": "Crafton", "state": "PA", "lat": "40.4333", "lng": "-80.0712"}, {"name": "Pleasant Gap", "state": "PA", "lat": "40.8673", "lng": "-77.7438"}, {"name": "Windsor", "state": "PA", "lat": "39.9163", "lng": "-76.5841"}, {"name": "Glenside", "state": "PA", "lat": "40.1032", "lng": "-75.1517"}, {"name": "Rankin", "state": "PA", "lat": "40.4110", "lng": "-79.8811"}, {"name": "Orwigsburg", "state": "PA", "lat": "40.6541", "lng": "-76.1040"}, {"name": "Bentleyville", "state": "PA", "lat": "40.1178", "lng": "-80.0044"}, {"name": "White Haven", "state": "PA", "lat": "41.0566", "lng": "-75.7801"}, {"name": "Jermyn", "state": "PA", "lat": "41.5274", "lng": "-75.5455"}, {"name": "Thompson", "state": "PA", "lat": "41.8637", "lng": "-75.5141"}, {"name": "Cranesville", "state": "PA", "lat": "41.9040", "lng": "-80.3418"}, {"name": "Fairview", "state": "PA", "lat": "41.0156", "lng": "-79.7433"}, {"name": "Glen Hope", "state": "PA", "lat": "40.8009", "lng": "-78.4986"}, {"name": "New Bethlehem", "state": "PA", "lat": "41.0044", "lng": "-79.3283"}, {"name": "Glen Osborne", "state": "PA", "lat": "40.5308", "lng": "-80.1678"}, {"name": "Darlington", "state": "PA", "lat": "40.8102", "lng": "-80.4242"}, {"name": "Big Bass Lake", "state": "PA", "lat": "41.2525", "lng": "-75.4795"}, {"name": "Herndon", "state": "PA", "lat": "40.7103", "lng": "-76.8515"}, {"name": "Ronco", "state": "PA", "lat": "39.8686", "lng": "-79.9210"}, {"name": "Wiconsico", "state": "PA", "lat": "40.5742", "lng": "-76.6773"}, {"name": "Reynolds Heights", "state": "PA", "lat": "41.3433", "lng": "-80.4033"}, {"name": "Iola", "state": "PA", "lat": "41.1319", "lng": "-76.5305"}, {"name": "Oliver", "state": "PA", "lat": "39.9153", "lng": "-79.7212"}, {"name": "Elrama", "state": "PA", "lat": "40.2517", "lng": "-79.9243"}, {"name": "Berrysburg", "state": "PA", "lat": "40.6029", "lng": "-76.8101"}, {"name": "Masontown", "state": "PA", "lat": "39.8488", "lng": "-79.9081"}, {"name": "Blossburg", "state": "PA", "lat": "41.6795", "lng": "-77.0690"}, {"name": "Sidman", "state": "PA", "lat": "40.3235", "lng": "-78.7523"}, {"name": "Force", "state": "PA", "lat": "41.2581", "lng": "-78.5035"}, {"name": "Harleigh", "state": "PA", "lat": "40.9862", "lng": "-75.9702"}, {"name": "Schoeneck", "state": "PA", "lat": "40.2453", "lng": "-76.1765"}, {"name": "Summit Hill", "state": "PA", "lat": "40.8249", "lng": "-75.8464"}, {"name": "Marklesburg", "state": "PA", "lat": "40.3821", "lng": "-78.1697"}, {"name": "Hyndman", "state": "PA", "lat": "39.8207", "lng": "-78.7214"}, {"name": "Beaver", "state": "PA", "lat": "40.6936", "lng": "-80.3074"}, {"name": "Washington Boro", "state": "PA", "lat": "40.0017", "lng": "-76.4671"}, {"name": "Media", "state": "PA", "lat": "39.9198", "lng": "-75.3888"}, {"name": "Highspire", "state": "PA", "lat": "40.2085", "lng": "-76.7851"}, {"name": "Millersburg", "state": "PA", "lat": "40.5422", "lng": "-76.9555"}, {"name": "Skyline View", "state": "PA", "lat": "40.3376", "lng": "-76.7256"}, {"name": "Plumsteadville", "state": "PA", "lat": "40.3863", "lng": "-75.1429"}, {"name": "Rainsburg", "state": "PA", "lat": "39.8956", "lng": "-78.5173"}, {"name": "Hughesville", "state": "PA", "lat": "41.2390", "lng": "-76.7254"}, {"name": "Republic", "state": "PA", "lat": "39.9664", "lng": "-79.8768"}, {"name": "Sheakleyville", "state": "PA", "lat": "41.4438", "lng": "-80.2067"}, {"name": "Guilford", "state": "PA", "lat": "39.9173", "lng": "-77.5995"}, {"name": "Witmer", "state": "PA", "lat": "40.0500", "lng": "-76.2114"}, {"name": "Chester Hill", "state": "PA", "lat": "40.8903", "lng": "-78.2293"}, {"name": "North Warren", "state": "PA", "lat": "41.8833", "lng": "-79.1672"}, {"name": "Reedsville", "state": "PA", "lat": "40.6646", "lng": "-77.5930"}, {"name": "Fawn Grove", "state": "PA", "lat": "39.7312", "lng": "-76.4521"}, {"name": "Ridgway", "state": "PA", "lat": "41.4269", "lng": "-78.7297"}, {"name": "Yorklyn", "state": "PA", "lat": "39.9929", "lng": "-76.6428"}, {"name": "Green Hills", "state": "PA", "lat": "40.1153", "lng": "-80.3049"}, {"name": "Royalton", "state": "PA", "lat": "40.1873", "lng": "-76.7270"}, {"name": "Valencia", "state": "PA", "lat": "40.6767", "lng": "-79.9881"}, {"name": "Clintonville", "state": "PA", "lat": "41.2016", "lng": "-79.8748"}, {"name": "Collinsburg", "state": "PA", "lat": "40.2196", "lng": "-79.7846"}, {"name": "Yoe", "state": "PA", "lat": "39.9094", "lng": "-76.6366"}, {"name": "Walnuttown", "state": "PA", "lat": "40.4467", "lng": "-75.8405"}, {"name": "Lynnwood-Pricedale", "state": "PA", "lat": "40.1304", "lng": "-79.8515"}, {"name": "Maitland", "state": "PA", "lat": "40.6242", "lng": "-77.5019"}, {"name": "Connellsville", "state": "PA", "lat": "40.0158", "lng": "-79.5899"}, {"name": "Cairnbrook", "state": "PA", "lat": "40.1246", "lng": "-78.8190"}, {"name": "Emlenton", "state": "PA", "lat": "41.1806", "lng": "-79.7073"}, {"name": "Byrnedale", "state": "PA", "lat": "41.2916", "lng": "-78.5023"}, {"name": "Port Carbon", "state": "PA", "lat": "40.6969", "lng": "-76.1666"}, {"name": "Wyoming", "state": "PA", "lat": "41.3058", "lng": "-75.8416"}, {"name": "Williamstown", "state": "PA", "lat": "40.5809", "lng": "-76.6170"}, {"name": "Waverly", "state": "PA", "lat": "41.5287", "lng": "-75.7033"}, {"name": "West Pittston", "state": "PA", "lat": "41.3295", "lng": "-75.7998"}, {"name": "Bridgeport", "state": "PA", "lat": "40.1042", "lng": "-75.3437"}, {"name": "Mill Hall", "state": "PA", "lat": "41.1045", "lng": "-77.4888"}, {"name": "New Schaefferstown", "state": "PA", "lat": "40.4536", "lng": "-76.1691"}, {"name": "Freeport", "state": "PA", "lat": "40.6829", "lng": "-79.6837"}, {"name": "Longfellow", "state": "PA", "lat": "40.5062", "lng": "-77.6665"}, {"name": "Steelton", "state": "PA", "lat": "40.2258", "lng": "-76.8255"}, {"name": "Spry", "state": "PA", "lat": "39.9125", "lng": "-76.6863"}, {"name": "Feasterville", "state": "PA", "lat": "40.1540", "lng": "-74.9915"}, {"name": "Wellersburg", "state": "PA", "lat": "39.7306", "lng": "-78.8480"}, {"name": "Ackermanville", "state": "PA", "lat": "40.8350", "lng": "-75.2226"}, {"name": "Strong", "state": "PA", "lat": "40.7975", "lng": "-76.4401"}, {"name": "Rockhill", "state": "PA", "lat": "40.2411", "lng": "-77.8996"}, {"name": "Chesterbrook", "state": "PA", "lat": "40.0736", "lng": "-75.4582"}, {"name": "Rowes Run", "state": "PA", "lat": "40.0089", "lng": "-79.8177"}, {"name": "Trainer", "state": "PA", "lat": "39.8244", "lng": "-75.4032"}, {"name": "Glenshaw", "state": "PA", "lat": "40.5391", "lng": "-79.9735"}, {"name": "Breinigsville", "state": "PA", "lat": "40.5393", "lng": "-75.6342"}, {"name": "Yardley", "state": "PA", "lat": "40.2408", "lng": "-74.8385"}, {"name": "Grill", "state": "PA", "lat": "40.3000", "lng": "-75.9344"}, {"name": "Valley View", "state": "PA", "lat": "39.9498", "lng": "-76.7011"}, {"name": "McElhattan", "state": "PA", "lat": "41.1572", "lng": "-77.3617"}, {"name": "East Stroudsburg", "state": "PA", "lat": "41.0023", "lng": "-75.1779"}, {"name": "Alba", "state": "PA", "lat": "41.7059", "lng": "-76.8277"}, {"name": "Cheswick", "state": "PA", "lat": "40.5428", "lng": "-79.8013"}, {"name": "New Castle", "state": "PA", "lat": "40.9956", "lng": "-80.3458"}, {"name": "Taylorstown", "state": "PA", "lat": "40.1566", "lng": "-80.3869"}, {"name": "Abbottstown", "state": "PA", "lat": "39.8843", "lng": "-76.9888"}, {"name": "Portersville", "state": "PA", "lat": "40.9243", "lng": "-80.1468"}, {"name": "Tuscarora", "state": "PA", "lat": "40.7638", "lng": "-76.0601"}, {"name": "Mount Joy", "state": "PA", "lat": "40.1105", "lng": "-76.5065"}, {"name": "Auburn", "state": "PA", "lat": "40.5948", "lng": "-76.0975"}, {"name": "Tharptown", "state": "PA", "lat": "40.8028", "lng": "-76.5720"}, {"name": "Edenborn", "state": "PA", "lat": "39.8820", "lng": "-79.8876"}, {"name": "Commodore", "state": "PA", "lat": "40.7154", "lng": "-78.9390"}, {"name": "McAdoo", "state": "PA", "lat": "40.9009", "lng": "-75.9924"}, {"name": "Hollidaysburg", "state": "PA", "lat": "40.4311", "lng": "-78.3930"}, {"name": "Thompsontown", "state": "PA", "lat": "40.5657", "lng": "-77.2362"}, {"name": "Allenwood", "state": "PA", "lat": "41.1081", "lng": "-76.8981"}, {"name": "McGovern", "state": "PA", "lat": "40.2385", "lng": "-80.2257"}, {"name": "Forestville", "state": "PA", "lat": "40.6938", "lng": "-76.2921"}, {"name": "Smock", "state": "PA", "lat": "39.9997", "lng": "-79.7775"}, {"name": "Lehighton", "state": "PA", "lat": "40.8306", "lng": "-75.7166"}, {"name": "Schubert", "state": "PA", "lat": "40.4978", "lng": "-76.2198"}, {"name": "Hebron", "state": "PA", "lat": "40.3390", "lng": "-76.3989"}, {"name": "Gibraltar", "state": "PA", "lat": "40.2809", "lng": "-75.8608"}, {"name": "Jefferson Hills", "state": "PA", "lat": "40.2927", "lng": "-79.9329"}, {"name": "Cressona", "state": "PA", "lat": "40.6304", "lng": "-76.1938"}, {"name": "Woodlyn", "state": "PA", "lat": "39.8774", "lng": "-75.3445"}, {"name": "Gastonville", "state": "PA", "lat": "40.2669", "lng": "-80.0095"}, {"name": "Hallam", "state": "PA", "lat": "40.0024", "lng": "-76.6042"}, {"name": "Scotland", "state": "PA", "lat": "39.9697", "lng": "-77.5844"}, {"name": "West Hills", "state": "PA", "lat": "40.8289", "lng": "-79.5452"}, {"name": "Eagleville", "state": "PA", "lat": "40.1604", "lng": "-75.4090"}, {"name": "Waynesburg", "state": "PA", "lat": "39.8983", "lng": "-80.1855"}, {"name": "Girardville", "state": "PA", "lat": "40.7922", "lng": "-76.2830"}, {"name": "Woodside", "state": "PA", "lat": "40.2305", "lng": "-74.8607"}, {"name": "Harwick", "state": "PA", "lat": "40.5562", "lng": "-79.8054"}, {"name": "Laurelton", "state": "PA", "lat": "40.8815", "lng": "-77.2024"}, {"name": "New Ringgold", "state": "PA", "lat": "40.6892", "lng": "-75.9928"}, {"name": "Bethlehem", "state": "PA", "lat": "40.6266", "lng": "-75.3679"}, {"name": "Needmore", "state": "PA", "lat": "39.8474", "lng": "-78.1433"}, {"name": "Aspers", "state": "PA", "lat": "39.9764", "lng": "-77.2260"}, {"name": "Swoyersville", "state": "PA", "lat": "41.2975", "lng": "-75.8799"}, {"name": "Norvelt", "state": "PA", "lat": "40.2050", "lng": "-79.4970"}, {"name": "Mocanaqua", "state": "PA", "lat": "41.1406", "lng": "-76.1368"}, {"name": "Oberlin", "state": "PA", "lat": "40.2397", "lng": "-76.8156"}, {"name": "Yukon", "state": "PA", "lat": "40.2139", "lng": "-79.6864"}, {"name": "Newburg", "state": "PA", "lat": "40.1370", "lng": "-77.5546"}, {"name": "Bolivar", "state": "PA", "lat": "40.3952", "lng": "-79.1521"}, {"name": "Shippensburg University", "state": "PA", "lat": "40.0618", "lng": "-77.5228"}, {"name": "Kenhorst", "state": "PA", "lat": "40.3069", "lng": "-75.9438"}, {"name": "Williamsport", "state": "PA", "lat": "41.2398", "lng": "-77.0371"}, {"name": "Mount Aetna", "state": "PA", "lat": "40.4207", "lng": "-76.2966"}, {"name": "Gouldsboro", "state": "PA", "lat": "41.2429", "lng": "-75.4448"}, {"name": "West Newton", "state": "PA", "lat": "40.2094", "lng": "-79.7700"}, {"name": "Pomeroy", "state": "PA", "lat": "39.9639", "lng": "-75.8850"}, {"name": "Houtzdale", "state": "PA", "lat": "40.8251", "lng": "-78.3511"}, {"name": "Blain", "state": "PA", "lat": "40.3365", "lng": "-77.5124"}, {"name": "Starbrick", "state": "PA", "lat": "41.8419", "lng": "-79.2133"}, {"name": "Hellertown", "state": "PA", "lat": "40.5811", "lng": "-75.3378"}, {"name": "Dillsburg", "state": "PA", "lat": "40.1103", "lng": "-77.0335"}, {"name": "West Fairview", "state": "PA", "lat": "40.2777", "lng": "-76.9196"}, {"name": "South Temple", "state": "PA", "lat": "40.3990", "lng": "-75.9224"}, {"name": "Pardeesville", "state": "PA", "lat": "41.0007", "lng": "-75.9680"}, {"name": "Osceola Mills", "state": "PA", "lat": "40.8525", "lng": "-78.2699"}, {"name": "Willow Street", "state": "PA", "lat": "39.9809", "lng": "-76.2705"}, {"name": "Sun Valley", "state": "PA", "lat": "40.9800", "lng": "-75.4688"}, {"name": "Wescosville", "state": "PA", "lat": "40.5617", "lng": "-75.5489"}, {"name": "Johnstown", "state": "PA", "lat": "40.3258", "lng": "-78.9194"}, {"name": "South Park Township", "state": "PA", "lat": "40.2989", "lng": "-79.9944"}, {"name": "Fredericksburg", "state": "PA", "lat": "40.4441", "lng": "-76.4377"}, {"name": "Slovan", "state": "PA", "lat": "40.3595", "lng": "-80.3850"}, {"name": "Paoli", "state": "PA", "lat": "40.0420", "lng": "-75.4912"}, {"name": "Zelienople", "state": "PA", "lat": "40.7886", "lng": "-80.1428"}, {"name": "Downingtown", "state": "PA", "lat": "40.0076", "lng": "-75.7019"}, {"name": "Rupert", "state": "PA", "lat": "40.9760", "lng": "-76.4797"}, {"name": "Schaefferstown", "state": "PA", "lat": "40.2969", "lng": "-76.2938"}, {"name": "Brookhaven", "state": "PA", "lat": "39.8715", "lng": "-75.3918"}, {"name": "Hanover", "state": "PA", "lat": "39.8117", "lng": "-76.9835"}, {"name": "Lewisburg", "state": "PA", "lat": "40.9642", "lng": "-76.8901"}, {"name": "White Oak", "state": "PA", "lat": "40.3415", "lng": "-79.8007"}, {"name": "Fayetteville", "state": "PA", "lat": "39.9114", "lng": "-77.5651"}, {"name": "Mifflinville", "state": "PA", "lat": "41.0307", "lng": "-76.2995"}, {"name": "Alfarata", "state": "PA", "lat": "40.6619", "lng": "-77.4559"}, {"name": "Prompton", "state": "PA", "lat": "41.5891", "lng": "-75.3275"}, {"name": "Sharon Hill", "state": "PA", "lat": "39.9075", "lng": "-75.2678"}, {"name": "Weissport", "state": "PA", "lat": "40.8289", "lng": "-75.7009"}, {"name": "Schellsburg", "state": "PA", "lat": "40.0481", "lng": "-78.6434"}, {"name": "Kempton", "state": "PA", "lat": "40.6277", "lng": "-75.8548"}, {"name": "South Greensburg", "state": "PA", "lat": "40.2783", "lng": "-79.5473"}, {"name": "Wilmerding", "state": "PA", "lat": "40.3942", "lng": "-79.8101"}, {"name": "Juniata Terrace", "state": "PA", "lat": "40.5855", "lng": "-77.5782"}, {"name": "Grassflat", "state": "PA", "lat": "41.0031", "lng": "-78.1113"}, {"name": "Trucksville", "state": "PA", "lat": "41.3101", "lng": "-75.9281"}, {"name": "Millville", "state": "PA", "lat": "41.1205", "lng": "-76.5253"}, {"name": "Numidia", "state": "PA", "lat": "40.8783", "lng": "-76.4034"}, {"name": "New Buffalo", "state": "PA", "lat": "40.4543", "lng": "-76.9705"}, {"name": "Evans City", "state": "PA", "lat": "40.7685", "lng": "-80.0584"}, {"name": "Heckscherville", "state": "PA", "lat": "40.7210", "lng": "-76.2668"}, {"name": "Sugarcreek", "state": "PA", "lat": "41.4380", "lng": "-79.8183"}, {"name": "Loganville", "state": "PA", "lat": "39.8559", "lng": "-76.7079"}, {"name": "Carroll Valley", "state": "PA", "lat": "39.7499", "lng": "-77.3805"}, {"name": "Clark", "state": "PA", "lat": "41.2831", "lng": "-80.4088"}, {"name": "Whitaker", "state": "PA", "lat": "40.4007", "lng": "-79.8864"}, {"name": "Lake City", "state": "PA", "lat": "42.0180", "lng": "-80.3465"}, {"name": "Locustdale", "state": "PA", "lat": "40.7784", "lng": "-76.3736"}, {"name": "Jacksonwald", "state": "PA", "lat": "40.3279", "lng": "-75.8413"}, {"name": "Castle Shannon", "state": "PA", "lat": "40.3665", "lng": "-80.0194"}, {"name": "Wrightsville", "state": "PA", "lat": "40.0239", "lng": "-76.5313"}, {"name": "Penns Creek", "state": "PA", "lat": "40.8631", "lng": "-77.0563"}, {"name": "Schnecksville", "state": "PA", "lat": "40.6693", "lng": "-75.6116"}, {"name": "Lorane", "state": "PA", "lat": "40.2921", "lng": "-75.8486"}, {"name": "Volant", "state": "PA", "lat": "41.1131", "lng": "-80.2590"}, {"name": "Mount Gretna", "state": "PA", "lat": "40.2456", "lng": "-76.4717"}, {"name": "Laurel Run", "state": "PA", "lat": "41.2194", "lng": "-75.8445"}, {"name": "Adamstown", "state": "PA", "lat": "40.2417", "lng": "-76.0608"}, {"name": "Orrstown", "state": "PA", "lat": "40.0587", "lng": "-77.6080"}, {"name": "Fellsburg", "state": "PA", "lat": "40.1842", "lng": "-79.8269"}, {"name": "Bairdford", "state": "PA", "lat": "40.6279", "lng": "-79.8816"}, {"name": "Linglestown", "state": "PA", "lat": "40.3445", "lng": "-76.7950"}, {"name": "Bainbridge", "state": "PA", "lat": "40.0915", "lng": "-76.6581"}, {"name": "Clymer", "state": "PA", "lat": "40.6686", "lng": "-79.0133"}, {"name": "University of Pittsburgh Johnstown", "state": "PA", "lat": "40.2626", "lng": "-78.8298"}, {"name": "Glendon", "state": "PA", "lat": "40.6607", "lng": "-75.2364"}, {"name": "Friendsville", "state": "PA", "lat": "41.9179", "lng": "-76.0477"}, {"name": "Morton", "state": "PA", "lat": "39.9116", "lng": "-75.3267"}, {"name": "Sandy", "state": "PA", "lat": "41.1062", "lng": "-78.7749"}, {"name": "Richboro", "state": "PA", "lat": "40.2262", "lng": "-75.0006"}, {"name": "McAlisterville", "state": "PA", "lat": "40.6381", "lng": "-77.2730"}, {"name": "Audubon", "state": "PA", "lat": "40.1304", "lng": "-75.4280"}, {"name": "Austin", "state": "PA", "lat": "41.6373", "lng": "-78.0903"}, {"name": "New Centerville", "state": "PA", "lat": "39.9423", "lng": "-79.1916"}, {"name": "Nesquehoning", "state": "PA", "lat": "40.8659", "lng": "-75.8322"}, {"name": "Gouglersville", "state": "PA", "lat": "40.2701", "lng": "-76.0192"}, {"name": "Thompsonville", "state": "PA", "lat": "40.2802", "lng": "-80.1204"}, {"name": "New Stanton", "state": "PA", "lat": "40.2237", "lng": "-79.6086"}, {"name": "Julian", "state": "PA", "lat": "40.8615", "lng": "-77.9428"}, {"name": "Reinerton", "state": "PA", "lat": "40.5914", "lng": "-76.5359"}, {"name": "Pennsbury Village", "state": "PA", "lat": "40.4283", "lng": "-80.1011"}, {"name": "Wilcox", "state": "PA", "lat": "41.5727", "lng": "-78.6869"}, {"name": "Gordonville", "state": "PA", "lat": "40.0211", "lng": "-76.1365"}, {"name": "Parker", "state": "PA", "lat": "41.0907", "lng": "-79.6846"}, {"name": "Apollo", "state": "PA", "lat": "40.5849", "lng": "-79.5648"}, {"name": "Darby", "state": "PA", "lat": "39.9210", "lng": "-75.2611"}, {"name": "Cecil-Bishop", "state": "PA", "lat": "40.3184", "lng": "-80.1933"}, {"name": "Throop", "state": "PA", "lat": "41.4382", "lng": "-75.5926"}, {"name": "Mohrsville", "state": "PA", "lat": "40.4781", "lng": "-75.9852"}, {"name": "Bell Acres", "state": "PA", "lat": "40.5898", "lng": "-80.1738"}, {"name": "Cherryville", "state": "PA", "lat": "40.7549", "lng": "-75.5309"}, {"name": "Lawson Heights", "state": "PA", "lat": "40.2938", "lng": "-79.3873"}, {"name": "Spring City", "state": "PA", "lat": "40.1768", "lng": "-75.5466"}, {"name": "Homewood", "state": "PA", "lat": "40.8133", "lng": "-80.3294"}, {"name": "Parkside", "state": "PA", "lat": "39.8674", "lng": "-75.3780"}, {"name": "New Freeport", "state": "PA", "lat": "39.7594", "lng": "-80.4279"}, {"name": "Monument", "state": "PA", "lat": "41.1112", "lng": "-77.7042"}, {"name": "Allison Park", "state": "PA", "lat": "40.5730", "lng": "-79.9603"}, {"name": "Trafford", "state": "PA", "lat": "40.3847", "lng": "-79.7575"}, {"name": "Wind Gap", "state": "PA", "lat": "40.8484", "lng": "-75.2917"}, {"name": "Strattanville", "state": "PA", "lat": "41.2025", "lng": "-79.3268"}, {"name": "Centre Hall", "state": "PA", "lat": "40.8448", "lng": "-77.6850"}, {"name": "Vinco", "state": "PA", "lat": "40.4111", "lng": "-78.8446"}, {"name": "Hamburg", "state": "PA", "lat": "40.5561", "lng": "-75.9825"}, {"name": "Edenburg", "state": "PA", "lat": "40.5659", "lng": "-75.9592"}, {"name": "Boswell", "state": "PA", "lat": "40.1615", "lng": "-79.0275"}, {"name": "Rockwood", "state": "PA", "lat": "39.9157", "lng": "-79.1574"}, {"name": "The Hideout", "state": "PA", "lat": "41.4398", "lng": "-75.3478"}, {"name": "Linwood", "state": "PA", "lat": "39.8244", "lng": "-75.4244"}, {"name": "Guys Mills", "state": "PA", "lat": "41.6307", "lng": "-79.9759"}, {"name": "Ford Cliff", "state": "PA", "lat": "40.7608", "lng": "-79.5358"}, {"name": "Shelocta", "state": "PA", "lat": "40.6572", "lng": "-79.3016"}, {"name": "Pleasantville", "state": "PA", "lat": "41.5935", "lng": "-79.5808"}, {"name": "Spring Mills", "state": "PA", "lat": "40.8534", "lng": "-77.5654"}, {"name": "Fountain Springs", "state": "PA", "lat": "40.7722", "lng": "-76.3284"}, {"name": "Albrightsville", "state": "PA", "lat": "41.0117", "lng": "-75.6068"}, {"name": "Riverside", "state": "PA", "lat": "40.9461", "lng": "-76.6461"}, {"name": "Versailles", "state": "PA", "lat": "40.3177", "lng": "-79.8309"}, {"name": "Chest Springs", "state": "PA", "lat": "40.5782", "lng": "-78.6102"}, {"name": "Mount Jewett", "state": "PA", "lat": "41.7255", "lng": "-78.6444"}, {"name": "McConnellstown", "state": "PA", "lat": "40.4640", "lng": "-78.0672"}, {"name": "Lincoln", "state": "PA", "lat": "40.2994", "lng": "-79.8554"}, {"name": "Lightstreet", "state": "PA", "lat": "41.0407", "lng": "-76.4175"}, {"name": "Rote", "state": "PA", "lat": "41.0781", "lng": "-77.4114"}, {"name": "Stouchsburg", "state": "PA", "lat": "40.3807", "lng": "-76.2304"}, {"name": "Kulpsville", "state": "PA", "lat": "40.2440", "lng": "-75.3407"}, {"name": "Scottdale", "state": "PA", "lat": "40.1034", "lng": "-79.5899"}, {"name": "Leith-Hatfield", "state": "PA", "lat": "39.8772", "lng": "-79.7314"}, {"name": "Bessemer", "state": "PA", "lat": "40.9756", "lng": "-80.4878"}, {"name": "Stowe", "state": "PA", "lat": "40.2506", "lng": "-75.6819"}, {"name": "Wilmore", "state": "PA", "lat": "40.3877", "lng": "-78.7171"}, {"name": "Hegins", "state": "PA", "lat": "40.6524", "lng": "-76.4876"}, {"name": "Washington", "state": "PA", "lat": "40.1739", "lng": "-80.2465"}, {"name": "Imperial", "state": "PA", "lat": "40.4537", "lng": "-80.2499"}, {"name": "Robesonia", "state": "PA", "lat": "40.3495", "lng": "-76.1391"}, {"name": "Laporte", "state": "PA", "lat": "41.4180", "lng": "-76.4920"}, {"name": "Franklintown", "state": "PA", "lat": "40.0760", "lng": "-77.0296"}, {"name": "Laurel Mountain", "state": "PA", "lat": "40.2112", "lng": "-79.1851"}, {"name": "Erie", "state": "PA", "lat": "42.1168", "lng": "-80.0733"}, {"name": "Cetronia", "state": "PA", "lat": "40.5851", "lng": "-75.5435"}, {"name": "East Prospect", "state": "PA", "lat": "39.9710", "lng": "-76.5214"}, {"name": "Simpson", "state": "PA", "lat": "41.5946", "lng": "-75.4814"}, {"name": "Grapeville", "state": "PA", "lat": "40.3253", "lng": "-79.6060"}, {"name": "New Wilmington", "state": "PA", "lat": "41.1174", "lng": "-80.3323"}, {"name": "Big Run", "state": "PA", "lat": "40.9702", "lng": "-78.8765"}, {"name": "Duquesne", "state": "PA", "lat": "40.3732", "lng": "-79.8502"}, {"name": "Langeloth", "state": "PA", "lat": "40.3631", "lng": "-80.4137"}, {"name": "Morrisdale", "state": "PA", "lat": "40.9484", "lng": "-78.2278"}, {"name": "Finleyville", "state": "PA", "lat": "40.2529", "lng": "-80.0017"}, {"name": "Tamaqua", "state": "PA", "lat": "40.8033", "lng": "-75.9344"}, {"name": "New Paris", "state": "PA", "lat": "40.1083", "lng": "-78.6431"}, {"name": "Alleghenyville", "state": "PA", "lat": "40.2327", "lng": "-75.9762"}, {"name": "Mingoville", "state": "PA", "lat": "40.9370", "lng": "-77.6597"}, {"name": "Caln", "state": "PA", "lat": "39.9950", "lng": "-75.7844"}, {"name": "Berlin", "state": "PA", "lat": "39.9215", "lng": "-78.9509"}, {"name": "Norwood", "state": "PA", "lat": "39.8864", "lng": "-75.2964"}, {"name": "Oley", "state": "PA", "lat": "40.3871", "lng": "-75.7842"}, {"name": "Buckhorn", "state": "PA", "lat": "41.0177", "lng": "-76.4969"}, {"name": "Pine Glen", "state": "PA", "lat": "41.0887", "lng": "-78.0580"}, {"name": "Three Springs", "state": "PA", "lat": "40.1970", "lng": "-77.9819"}, {"name": "Lock Haven", "state": "PA", "lat": "41.1365", "lng": "-77.4521"}, {"name": "East Uniontown", "state": "PA", "lat": "39.8960", "lng": "-79.6976"}, {"name": "Slatedale", "state": "PA", "lat": "40.7439", "lng": "-75.6583"}, {"name": "Lenkerville", "state": "PA", "lat": "40.5327", "lng": "-76.9594"}, {"name": "Larksville", "state": "PA", "lat": "41.2639", "lng": "-75.9326"}, {"name": "Perkasie", "state": "PA", "lat": "40.3719", "lng": "-75.2920"}, {"name": "Cooperstown", "state": "PA", "lat": "41.4998", "lng": "-79.8736"}, {"name": "Donora", "state": "PA", "lat": "40.1790", "lng": "-79.8625"}, {"name": "Duboistown", "state": "PA", "lat": "41.2228", "lng": "-77.0380"}, {"name": "Haysville", "state": "PA", "lat": "40.5268", "lng": "-80.1561"}, {"name": "Mainville", "state": "PA", "lat": "40.9797", "lng": "-76.3705"}, {"name": "Frizzleburg", "state": "PA", "lat": "41.0744", "lng": "-80.4490"}, {"name": "Sugar Notch", "state": "PA", "lat": "41.1935", "lng": "-75.9314"}, {"name": "Shamokin", "state": "PA", "lat": "40.7883", "lng": "-76.5550"}, {"name": "Park Crest", "state": "PA", "lat": "40.8192", "lng": "-76.0601"}, {"name": "Arlington Heights", "state": "PA", "lat": "41.0039", "lng": "-75.2116"}, {"name": "Wanamie", "state": "PA", "lat": "41.1763", "lng": "-76.0384"}, {"name": "Noblestown", "state": "PA", "lat": "40.3955", "lng": "-80.2020"}, {"name": "Wyano", "state": "PA", "lat": "40.2015", "lng": "-79.6940"}, {"name": "Monroeville", "state": "PA", "lat": "40.4262", "lng": "-79.7605"}, {"name": "Honey Brook", "state": "PA", "lat": "40.0937", "lng": "-75.9111"}, {"name": "Harrisville", "state": "PA", "lat": "41.1365", "lng": "-80.0105"}, {"name": "Newville", "state": "PA", "lat": "40.1702", "lng": "-77.4015"}, {"name": "Chewton", "state": "PA", "lat": "40.8947", "lng": "-80.3208"}, {"name": "Crucible", "state": "PA", "lat": "39.9479", "lng": "-79.9657"}, {"name": "Pymatuning Central", "state": "PA", "lat": "41.5855", "lng": "-80.4795"}, {"name": "Milroy", "state": "PA", "lat": "40.7164", "lng": "-77.5871"}, {"name": "Callimont", "state": "PA", "lat": "39.8011", "lng": "-78.9216"}, {"name": "Donegal", "state": "PA", "lat": "40.1120", "lng": "-79.3808"}, {"name": "St. Vincent College", "state": "PA", "lat": "40.2914", "lng": "-79.4054"}, {"name": "Hummels Wharf", "state": "PA", "lat": "40.8308", "lng": "-76.8410"}, {"name": "Mundys Corner", "state": "PA", "lat": "40.4432", "lng": "-78.8325"}, {"name": "Nescopeck", "state": "PA", "lat": "41.0519", "lng": "-76.2115"}, {"name": "Marion Heights", "state": "PA", "lat": "40.8035", "lng": "-76.4641"}, {"name": "Wolfdale", "state": "PA", "lat": "40.1983", "lng": "-80.3028"}, {"name": "Dauberville", "state": "PA", "lat": "40.4606", "lng": "-75.9984"}, {"name": "Foster Brook", "state": "PA", "lat": "41.9793", "lng": "-78.6063"}, {"name": "Franklin Park", "state": "PA", "lat": "40.5903", "lng": "-80.0999"}, {"name": "Susquehanna Trails", "state": "PA", "lat": "39.7583", "lng": "-76.3684"}, {"name": "Glen Rock", "state": "PA", "lat": "39.7935", "lng": "-76.7307"}, {"name": "Sturgeon", "state": "PA", "lat": "40.3835", "lng": "-80.2153"}, {"name": "Lancaster", "state": "PA", "lat": "40.0420", "lng": "-76.3012"}, {"name": "Churchtown", "state": "PA", "lat": "40.1350", "lng": "-75.9593"}, {"name": "Wormleysburg", "state": "PA", "lat": "40.2606", "lng": "-76.9097"}, {"name": "Winfield", "state": "PA", "lat": "40.8998", "lng": "-76.8578"}, {"name": "Cassville", "state": "PA", "lat": "40.2928", "lng": "-78.0272"}, {"name": "Queens Gate", "state": "PA", "lat": "39.9406", "lng": "-76.6874"}, {"name": "Dunmore", "state": "PA", "lat": "41.4152", "lng": "-75.6072"}, {"name": "Grampian", "state": "PA", "lat": "40.9646", "lng": "-78.6114"}, {"name": "Ardmore", "state": "PA", "lat": "40.0032", "lng": "-75.2947"}, {"name": "Clarks Summit", "state": "PA", "lat": "41.4902", "lng": "-75.7065"}, {"name": "Soudersburg", "state": "PA", "lat": "40.0151", "lng": "-76.1529"}, {"name": "Van Voorhis", "state": "PA", "lat": "40.1598", "lng": "-79.9731"}, {"name": "Pringle", "state": "PA", "lat": "41.2773", "lng": "-75.9014"}, {"name": "West Mayfield", "state": "PA", "lat": "40.7802", "lng": "-80.3387"}, {"name": "Levittown", "state": "PA", "lat": "40.1537", "lng": "-74.8530"}, {"name": "Mexico", "state": "PA", "lat": "40.5416", "lng": "-77.3582"}, {"name": "Cassandra", "state": "PA", "lat": "40.4085", "lng": "-78.6407"}, {"name": "Amity Gardens", "state": "PA", "lat": "40.2719", "lng": "-75.7321"}, {"name": "Dewart", "state": "PA", "lat": "41.1099", "lng": "-76.8706"}, {"name": "Rome", "state": "PA", "lat": "41.8575", "lng": "-76.3414"}, {"name": "South Coatesville", "state": "PA", "lat": "39.9690", "lng": "-75.8135"}, {"name": "Coplay", "state": "PA", "lat": "40.6710", "lng": "-75.4961"}, {"name": "Martinsburg", "state": "PA", "lat": "40.3109", "lng": "-78.3242"}, {"name": "Lebanon South", "state": "PA", "lat": "40.3280", "lng": "-76.4066"}, {"name": "Belfast", "state": "PA", "lat": "40.7833", "lng": "-75.2755"}, {"name": "Clarksville", "state": "PA", "lat": "39.9745", "lng": "-80.0440"}, {"name": "Jefferson", "state": "PA", "lat": "39.8156", "lng": "-76.8410"}, {"name": "Altamont", "state": "PA", "lat": "40.7850", "lng": "-76.2170"}, {"name": "Souderton", "state": "PA", "lat": "40.3110", "lng": "-75.3223"}, {"name": "Conashaugh Lakes", "state": "PA", "lat": "41.3040", "lng": "-74.9937"}, {"name": "Conneautville", "state": "PA", "lat": "41.7572", "lng": "-80.3685"}, {"name": "Red Lion", "state": "PA", "lat": "39.8986", "lng": "-76.6078"}, {"name": "Eyers Grove", "state": "PA", "lat": "41.0934", "lng": "-76.5188"}, {"name": "Schwenksville", "state": "PA", "lat": "40.2573", "lng": "-75.4662"}, {"name": "Salisbury", "state": "PA", "lat": "39.7535", "lng": "-79.0842"}, {"name": "Ben Avon", "state": "PA", "lat": "40.5058", "lng": "-80.0814"}, {"name": "Wylandville", "state": "PA", "lat": "40.2099", "lng": "-80.1263"}, {"name": "Old Orchard", "state": "PA", "lat": "40.6575", "lng": "-75.2609"}, {"name": "Swarthmore", "state": "PA", "lat": "39.9022", "lng": "-75.3488"}, {"name": "Avella", "state": "PA", "lat": "40.2737", "lng": "-80.4672"}, {"name": "Seneca", "state": "PA", "lat": "41.3770", "lng": "-79.7073"}, {"name": "Newmanstown", "state": "PA", "lat": "40.3514", "lng": "-76.2117"}, {"name": "Jeddo", "state": "PA", "lat": "40.9903", "lng": "-75.8961"}, {"name": "Muse", "state": "PA", "lat": "40.2924", "lng": "-80.2055"}, {"name": "Rural Valley", "state": "PA", "lat": "40.7991", "lng": "-79.3149"}, {"name": "Lawrence Park", "state": "PA", "lat": "42.1506", "lng": "-80.0230"}, {"name": "Forksville", "state": "PA", "lat": "41.4896", "lng": "-76.6028"}, {"name": "Petersburg", "state": "PA", "lat": "40.5725", "lng": "-78.0507"}, {"name": "Orbisonia", "state": "PA", "lat": "40.2429", "lng": "-77.8930"}, {"name": "Bigler", "state": "PA", "lat": "40.9888", "lng": "-78.3097"}, {"name": "Millheim", "state": "PA", "lat": "40.8936", "lng": "-77.4765"}, {"name": "Easton", "state": "PA", "lat": "40.6858", "lng": "-75.2209"}, {"name": "Silverdale", "state": "PA", "lat": "40.3473", "lng": "-75.2718"}, {"name": "Olyphant", "state": "PA", "lat": "41.4507", "lng": "-75.5753"}, {"name": "Mercer", "state": "PA", "lat": "41.2265", "lng": "-80.2358"}, {"name": "New Albany", "state": "PA", "lat": "41.6003", "lng": "-76.4445"}, {"name": "Coalmont", "state": "PA", "lat": "40.2114", "lng": "-78.2000"}, {"name": "Pine Grove Mills", "state": "PA", "lat": "40.7315", "lng": "-77.8884"}, {"name": "Meyersdale", "state": "PA", "lat": "39.8133", "lng": "-79.0277"}, {"name": "Effort", "state": "PA", "lat": "40.9436", "lng": "-75.4390"}, {"name": "York Springs", "state": "PA", "lat": "40.0094", "lng": "-77.1158"}, {"name": "South Waverly", "state": "PA", "lat": "41.9955", "lng": "-76.5441"}, {"name": "New Columbia", "state": "PA", "lat": "41.0423", "lng": "-76.8763"}, {"name": "Waller", "state": "PA", "lat": "41.2337", "lng": "-76.4216"}, {"name": "Chalfont", "state": "PA", "lat": "40.2894", "lng": "-75.2096"}, {"name": "Mercersburg", "state": "PA", "lat": "39.8319", "lng": "-77.9029"}, {"name": "Greens Landing", "state": "PA", "lat": "41.9312", "lng": "-76.5403"}, {"name": "Bethel", "state": "PA", "lat": "40.4764", "lng": "-76.2906"}, {"name": "Silkworth", "state": "PA", "lat": "41.2698", "lng": "-76.0749"}, {"name": "Northampton", "state": "PA", "lat": "40.6866", "lng": "-75.4904"}, {"name": "Browntown", "state": "PA", "lat": "41.3138", "lng": "-75.7826"}, {"name": "Markleysburg", "state": "PA", "lat": "39.7363", "lng": "-79.4516"}, {"name": "Carlisle", "state": "PA", "lat": "40.1999", "lng": "-77.2043"}, {"name": "Cambridge Springs", "state": "PA", "lat": "41.8018", "lng": "-80.0597"}, {"name": "Kennerdell", "state": "PA", "lat": "41.2787", "lng": "-79.8219"}, {"name": "California", "state": "PA", "lat": "40.0692", "lng": "-79.9152"}, {"name": "Loretto", "state": "PA", "lat": "40.5086", "lng": "-78.6350"}, {"name": "Lyons", "state": "PA", "lat": "40.4807", "lng": "-75.7591"}, {"name": "Plains", "state": "PA", "lat": "41.2758", "lng": "-75.8518"}, {"name": "Jeannette", "state": "PA", "lat": "40.3277", "lng": "-79.6139"}, {"name": "Coburn", "state": "PA", "lat": "40.8653", "lng": "-77.4632"}, {"name": "Pocono Springs", "state": "PA", "lat": "41.2797", "lng": "-75.4016"}, {"name": "Moscow", "state": "PA", "lat": "41.3417", "lng": "-75.5316"}, {"name": "Folcroft", "state": "PA", "lat": "39.8891", "lng": "-75.2770"}, {"name": "Lincoln University", "state": "PA", "lat": "39.8065", "lng": "-75.9279"}, {"name": "Venango", "state": "PA", "lat": "41.7727", "lng": "-80.1121"}, {"name": "Beaverdale", "state": "PA", "lat": "40.3242", "lng": "-78.7013"}, {"name": "West Kittanning", "state": "PA", "lat": "40.8122", "lng": "-79.5312"}, {"name": "Homer City", "state": "PA", "lat": "40.5403", "lng": "-79.1597"}, {"name": "Hemlock Farms", "state": "PA", "lat": "41.3157", "lng": "-75.0515"}, {"name": "Middletown", "state": "PA", "lat": "40.2010", "lng": "-76.7289"}, {"name": "Canton", "state": "PA", "lat": "41.6566", "lng": "-76.8529"}, {"name": "Verona", "state": "PA", "lat": "40.5050", "lng": "-79.8419"}, {"name": "Upland", "state": "PA", "lat": "39.8562", "lng": "-75.3795"}, {"name": "Arnot", "state": "PA", "lat": "41.6623", "lng": "-77.1222"}, {"name": "Coraopolis", "state": "PA", "lat": "40.5148", "lng": "-80.1627"}, {"name": "Cochranville", "state": "PA", "lat": "39.8905", "lng": "-75.9241"}, {"name": "Carmichaels", "state": "PA", "lat": "39.8976", "lng": "-79.9750"}, {"name": "Nuremberg", "state": "PA", "lat": "40.9378", "lng": "-76.1685"}, {"name": "Nittany", "state": "PA", "lat": "40.9947", "lng": "-77.5521"}, {"name": "Scalp Level", "state": "PA", "lat": "40.2495", "lng": "-78.8442"}, {"name": "Harrison City", "state": "PA", "lat": "40.3544", "lng": "-79.6506"}, {"name": "Carnot-Moon", "state": "PA", "lat": "40.5187", "lng": "-80.2178"}, {"name": "Paxtonia", "state": "PA", "lat": "40.3166", "lng": "-76.7884"}, {"name": "North Charleroi", "state": "PA", "lat": "40.1500", "lng": "-79.9084"}, {"name": "Reading", "state": "PA", "lat": "40.3400", "lng": "-75.9267"}, {"name": "Karns City", "state": "PA", "lat": "40.9970", "lng": "-79.7263"}, {"name": "Shippensburg", "state": "PA", "lat": "40.0485", "lng": "-77.5227"}, {"name": "Parryville", "state": "PA", "lat": "40.8243", "lng": "-75.6701"}, {"name": "Weigelstown", "state": "PA", "lat": "39.9843", "lng": "-76.8315"}, {"name": "Mars", "state": "PA", "lat": "40.6969", "lng": "-80.0141"}, {"name": "Pennwyn", "state": "PA", "lat": "40.2895", "lng": "-75.9731"}, {"name": "Blairsville", "state": "PA", "lat": "40.4325", "lng": "-79.2599"}, {"name": "Beavertown", "state": "PA", "lat": "40.7522", "lng": "-77.1693"}, {"name": "Potlicker Flats", "state": "PA", "lat": "40.7270", "lng": "-77.6078"}, {"name": "Riverview Park", "state": "PA", "lat": "40.3912", "lng": "-75.9510"}, {"name": "Cokeburg", "state": "PA", "lat": "40.1001", "lng": "-80.0656"}, {"name": "Jerseytown", "state": "PA", "lat": "41.0889", "lng": "-76.5805"}, {"name": "Homeacre-Lyndora", "state": "PA", "lat": "40.8721", "lng": "-79.9211"}, {"name": "Ulysses", "state": "PA", "lat": "41.9030", "lng": "-77.7548"}, {"name": "Falls Creek", "state": "PA", "lat": "41.1421", "lng": "-78.8067"}, {"name": "Maple Glen", "state": "PA", "lat": "40.1778", "lng": "-75.1793"}, {"name": "Muncy", "state": "PA", "lat": "41.2021", "lng": "-76.7854"}, {"name": "Shippingport", "state": "PA", "lat": "40.6250", "lng": "-80.4220"}, {"name": "Sewickley Hills", "state": "PA", "lat": "40.5680", "lng": "-80.1271"}, {"name": "Stockertown", "state": "PA", "lat": "40.7547", "lng": "-75.2627"}, {"name": "Glenburn", "state": "PA", "lat": "41.5165", "lng": "-75.7256"}, {"name": "Prospect Park", "state": "PA", "lat": "39.8858", "lng": "-75.3074"}, {"name": "Sellersville", "state": "PA", "lat": "40.3600", "lng": "-75.3083"}, {"name": "Reinholds", "state": "PA", "lat": "40.2697", "lng": "-76.1218"}, {"name": "New Holland", "state": "PA", "lat": "40.1008", "lng": "-76.0900"}, {"name": "Marion Center", "state": "PA", "lat": "40.7705", "lng": "-79.0472"}, {"name": "Railroad", "state": "PA", "lat": "39.7596", "lng": "-76.6961"}, {"name": "Englewood", "state": "PA", "lat": "40.7814", "lng": "-76.2449"}, {"name": "Adamsville", "state": "PA", "lat": "41.5114", "lng": "-80.3705"}, {"name": "Linntown", "state": "PA", "lat": "40.9566", "lng": "-76.9002"}, {"name": "East Berwick", "state": "PA", "lat": "41.0654", "lng": "-76.2208"}, {"name": "Seven Valleys", "state": "PA", "lat": "39.8545", "lng": "-76.7667"}, {"name": "Lattimer", "state": "PA", "lat": "40.9930", "lng": "-75.9606"}, {"name": "Foot of Ten", "state": "PA", "lat": "40.4182", "lng": "-78.4612"}, {"name": "Meadowood", "state": "PA", "lat": "40.8442", "lng": "-79.8939"}, {"name": "Crabtree", "state": "PA", "lat": "40.3639", "lng": "-79.4694"}, {"name": "West Chester", "state": "PA", "lat": "39.9601", "lng": "-75.6058"}, {"name": "Fountain Hill", "state": "PA", "lat": "40.6029", "lng": "-75.3961"}, {"name": "Johnsonburg", "state": "PA", "lat": "41.4913", "lng": "-78.6791"}, {"name": "Slippery Rock", "state": "PA", "lat": "41.0695", "lng": "-80.0580"}, {"name": "Eddystone", "state": "PA", "lat": "39.8566", "lng": "-75.3342"}, {"name": "Milesburg", "state": "PA", "lat": "40.9426", "lng": "-77.7920"}, {"name": "Wattsburg", "state": "PA", "lat": "42.0029", "lng": "-79.8070"}, {"name": "Pine Ridge", "state": "PA", "lat": "41.1355", "lng": "-74.9923"}, {"name": "Orwin", "state": "PA", "lat": "40.5839", "lng": "-76.5314"}, {"name": "Saxonburg", "state": "PA", "lat": "40.7510", "lng": "-79.8150"}, {"name": "Wesleyville", "state": "PA", "lat": "42.1369", "lng": "-80.0123"}, {"name": "Blue Ridge Summit", "state": "PA", "lat": "39.7255", "lng": "-77.4691"}, {"name": "Allentown", "state": "PA", "lat": "40.5961", "lng": "-75.4755"}, {"name": "Leeper", "state": "PA", "lat": "41.3704", "lng": "-79.3056"}, {"name": "Warrior Run", "state": "PA", "lat": "41.1876", "lng": "-75.9505"}, {"name": "Albion", "state": "PA", "lat": "41.8904", "lng": "-80.3641"}, {"name": "Hublersburg", "state": "PA", "lat": "40.9623", "lng": "-77.6069"}, {"name": "Felton", "state": "PA", "lat": "39.8570", "lng": "-76.5611"}, {"name": "Jackson Center", "state": "PA", "lat": "41.2730", "lng": "-80.1397"}, {"name": "Bowers", "state": "PA", "lat": "40.4848", "lng": "-75.7423"}, {"name": "Ramey", "state": "PA", "lat": "40.8017", "lng": "-78.3994"}, {"name": "Bangor", "state": "PA", "lat": "40.8678", "lng": "-75.2085"}, {"name": "Riceville", "state": "PA", "lat": "41.7792", "lng": "-79.8045"}, {"name": "Revloc", "state": "PA", "lat": "40.4914", "lng": "-78.7636"}, {"name": "Lake Heritage", "state": "PA", "lat": "39.8098", "lng": "-77.1854"}, {"name": "Loganton", "state": "PA", "lat": "41.0338", "lng": "-77.3023"}, {"name": "Millbourne", "state": "PA", "lat": "39.9638", "lng": "-75.2527"}, {"name": "Ligonier", "state": "PA", "lat": "40.2450", "lng": "-79.2375"}, {"name": "Hokendauqua", "state": "PA", "lat": "40.6585", "lng": "-75.4952"}, {"name": "Boiling Springs", "state": "PA", "lat": "40.1592", "lng": "-77.1390"}, {"name": "Alexandria", "state": "PA", "lat": "40.5583", "lng": "-78.0997"}, {"name": "Gold Key Lake", "state": "PA", "lat": "41.3145", "lng": "-74.9434"}, {"name": "Ranshaw", "state": "PA", "lat": "40.7858", "lng": "-76.5173"}, {"name": "Bowmansville", "state": "PA", "lat": "40.2030", "lng": "-76.0198"}, {"name": "Lemont", "state": "PA", "lat": "40.8120", "lng": "-77.8161"}, {"name": "Robinson", "state": "PA", "lat": "40.4048", "lng": "-79.1383"}, {"name": "Patton", "state": "PA", "lat": "40.6325", "lng": "-78.6499"}, {"name": "Ursina", "state": "PA", "lat": "39.8153", "lng": "-79.3325"}, {"name": "Coaldale", "state": "PA", "lat": "40.8197", "lng": "-75.9161"}, {"name": "York Haven", "state": "PA", "lat": "40.1106", "lng": "-76.7149"}, {"name": "Youngsville", "state": "PA", "lat": "41.8524", "lng": "-79.3167"}, {"name": "Worthville", "state": "PA", "lat": "41.0251", "lng": "-79.1405"}, {"name": "Blandburg", "state": "PA", "lat": "40.6838", "lng": "-78.4158"}, {"name": "Penn", "state": "PA", "lat": "40.3293", "lng": "-79.6420"}, {"name": "Westland", "state": "PA", "lat": "40.2789", "lng": "-80.2732"}, {"name": "Hilldale", "state": "PA", "lat": "41.2869", "lng": "-75.8356"}, {"name": "Kittanning", "state": "PA", "lat": "40.8279", "lng": "-79.5233"}, {"name": "Oxford", "state": "PA", "lat": "39.7859", "lng": "-75.9801"}, {"name": "Gallitzin", "state": "PA", "lat": "40.4809", "lng": "-78.5547"}, {"name": "Idaville", "state": "PA", "lat": "40.0199", "lng": "-77.2034"}, {"name": "Cochranton", "state": "PA", "lat": "41.5192", "lng": "-80.0470"}, {"name": "Reamstown", "state": "PA", "lat": "40.2113", "lng": "-76.1180"}, {"name": "Portland", "state": "PA", "lat": "40.9215", "lng": "-75.0984"}, {"name": "Trooper", "state": "PA", "lat": "40.1489", "lng": "-75.3995"}, {"name": "Lawrence", "state": "PA", "lat": "40.3042", "lng": "-80.1185"}, {"name": "Palmerton", "state": "PA", "lat": "40.8023", "lng": "-75.6160"}, {"name": "Pine Grove", "state": "PA", "lat": "40.5534", "lng": "-76.3860"}, {"name": "Sykesville", "state": "PA", "lat": "41.0475", "lng": "-78.8185"}, {"name": "Saltillo", "state": "PA", "lat": "40.2117", "lng": "-78.0062"}, {"name": "Danville", "state": "PA", "lat": "40.9615", "lng": "-76.6120"}, {"name": "Newell", "state": "PA", "lat": "40.0748", "lng": "-79.8897"}, {"name": "South New Castle", "state": "PA", "lat": "40.9747", "lng": "-80.3457"}, {"name": "Mount Pleasant Mills", "state": "PA", "lat": "40.7230", "lng": "-77.0214"}, {"name": "Allport", "state": "PA", "lat": "40.9660", "lng": "-78.2065"}, {"name": "Northern Cambria", "state": "PA", "lat": "40.6561", "lng": "-78.7784"}, {"name": "Dayton", "state": "PA", "lat": "40.8812", "lng": "-79.2411"}, {"name": "Beaver Falls", "state": "PA", "lat": "40.7620", "lng": "-80.3225"}, {"name": "Factoryville", "state": "PA", "lat": "41.5602", "lng": "-75.7822"}, {"name": "South Heights", "state": "PA", "lat": "40.5746", "lng": "-80.2363"}, {"name": "Mammoth", "state": "PA", "lat": "40.1987", "lng": "-79.4629"}, {"name": "Chester", "state": "PA", "lat": "39.8456", "lng": "-75.3719"}, {"name": "Fairview-Ferndale", "state": "PA", "lat": "40.7803", "lng": "-76.5755"}, {"name": "Fullerton", "state": "PA", "lat": "40.6308", "lng": "-75.4834"}, {"name": "Dunlevy", "state": "PA", "lat": "40.1128", "lng": "-79.8588"}, {"name": "Sweden Valley", "state": "PA", "lat": "41.7594", "lng": "-77.9538"}, {"name": "Lawnton", "state": "PA", "lat": "40.2638", "lng": "-76.7978"}, {"name": "Bethany", "state": "PA", "lat": "41.6143", "lng": "-75.2873"}, {"name": "Black Lick", "state": "PA", "lat": "40.4715", "lng": "-79.1884"}, {"name": "Cornwells Heights", "state": "PA", "lat": "40.0771", "lng": "-74.9516"}, {"name": "Bridgewater", "state": "PA", "lat": "40.7060", "lng": "-80.3002"}, {"name": "Etna", "state": "PA", "lat": "40.4975", "lng": "-79.9476"}, {"name": "Clarks Green", "state": "PA", "lat": "41.5009", "lng": "-75.6952"}, {"name": "McDonald", "state": "PA", "lat": "40.3701", "lng": "-80.2323"}, {"name": "West Pittsburg", "state": "PA", "lat": "40.9310", "lng": "-80.3591"}, {"name": "Penn Lake Park", "state": "PA", "lat": "41.1153", "lng": "-75.7733"}, {"name": "Susquehanna Depot", "state": "PA", "lat": "41.9438", "lng": "-75.6040"}, {"name": "Huntingdon", "state": "PA", "lat": "40.5000", "lng": "-78.0098"}, {"name": "Addison", "state": "PA", "lat": "39.7452", "lng": "-79.3344"}, {"name": "Jessup", "state": "PA", "lat": "41.4622", "lng": "-75.5478"}, {"name": "West Wyoming", "state": "PA", "lat": "41.3217", "lng": "-75.8578"}, {"name": "Pocono Mountain Lake Estates", "state": "PA", "lat": "41.1567", "lng": "-74.9646"}, {"name": "Duncansville", "state": "PA", "lat": "40.4263", "lng": "-78.4303"}, {"name": "Paxtang", "state": "PA", "lat": "40.2623", "lng": "-76.8342"}, {"name": "Monroe", "state": "PA", "lat": "41.7124", "lng": "-76.4759"}, {"name": "Conneaut Lake", "state": "PA", "lat": "41.6024", "lng": "-80.3094"}, {"name": "Plymptonville", "state": "PA", "lat": "41.0426", "lng": "-78.4466"}, {"name": "Malvern", "state": "PA", "lat": "40.0329", "lng": "-75.5146"}, {"name": "Saw Creek", "state": "PA", "lat": "41.1197", "lng": "-75.0465"}, {"name": "Hastings", "state": "PA", "lat": "40.6647", "lng": "-78.7094"}, {"name": "Schuylkill Haven", "state": "PA", "lat": "40.6284", "lng": "-76.1729"}, {"name": "Beaver Springs", "state": "PA", "lat": "40.7449", "lng": "-77.2168"}, {"name": "Bressler", "state": "PA", "lat": "40.2318", "lng": "-76.8191"}, {"name": "Dormont", "state": "PA", "lat": "40.3941", "lng": "-80.0377"}, {"name": "Penn Estates", "state": "PA", "lat": "41.0346", "lng": "-75.2417"}, {"name": "Heidelberg", "state": "PA", "lat": "40.3915", "lng": "-80.0923"}, {"name": "Lumber City", "state": "PA", "lat": "40.6583", "lng": "-77.6014"}, {"name": "Saxton", "state": "PA", "lat": "40.2127", "lng": "-78.2470"}, {"name": "Renovo", "state": "PA", "lat": "41.3314", "lng": "-77.7498"}, {"name": "Dry Tavern", "state": "PA", "lat": "39.9399", "lng": "-80.0095"}, {"name": "Level Green", "state": "PA", "lat": "40.3902", "lng": "-79.7215"}, {"name": "Flourtown", "state": "PA", "lat": "40.1039", "lng": "-75.2069"}, {"name": "Strausstown", "state": "PA", "lat": "40.4911", "lng": "-76.1823"}, {"name": "Rouzerville", "state": "PA", "lat": "39.7340", "lng": "-77.5280"}, {"name": "Blue Bell", "state": "PA", "lat": "40.1474", "lng": "-75.2687"}, {"name": "Hudson", "state": "PA", "lat": "41.2773", "lng": "-75.8312"}, {"name": "Kelayres", "state": "PA", "lat": "40.9007", "lng": "-76.0045"}, {"name": "Folsom", "state": "PA", "lat": "39.8924", "lng": "-75.3286"}, {"name": "Sylvania", "state": "PA", "lat": "41.8029", "lng": "-76.8607"}, {"name": "Timber Hills", "state": "PA", "lat": "40.2456", "lng": "-76.4837"}, {"name": "Ehrenfeld", "state": "PA", "lat": "40.3743", "lng": "-78.7761"}, {"name": "Leesport", "state": "PA", "lat": "40.4451", "lng": "-75.9684"}, {"name": "Bradenville", "state": "PA", "lat": "40.3236", "lng": "-79.3403"}, {"name": "Penn State Erie", "state": "PA", "lat": "42.1185", "lng": "-79.9818"}, {"name": "Star Junction", "state": "PA", "lat": "40.0610", "lng": "-79.7660"}, {"name": "South Renovo", "state": "PA", "lat": "41.3244", "lng": "-77.7430"}, {"name": "Timblin", "state": "PA", "lat": "40.9673", "lng": "-79.1990"}, {"name": "South Connellsville", "state": "PA", "lat": "39.9946", "lng": "-79.5807"}, {"name": "New Salem", "state": "PA", "lat": "39.9037", "lng": "-76.7913"}, {"name": "Rebersburg", "state": "PA", "lat": "40.9427", "lng": "-77.4439"}, {"name": "Oswayo", "state": "PA", "lat": "41.9207", "lng": "-78.0205"}, {"name": "New Jerusalem", "state": "PA", "lat": "40.4455", "lng": "-75.7530"}, {"name": "Westwood", "state": "PA", "lat": "39.9702", "lng": "-75.8555"}, {"name": "Waterford", "state": "PA", "lat": "41.9449", "lng": "-79.9855"}, {"name": "Atlas", "state": "PA", "lat": "40.7974", "lng": "-76.4288"}, {"name": "Lilly", "state": "PA", "lat": "40.4244", "lng": "-78.6202"}, {"name": "Avalon", "state": "PA", "lat": "40.5010", "lng": "-80.0680"}, {"name": "Lansford", "state": "PA", "lat": "40.8331", "lng": "-75.8847"}, {"name": "Baileyville", "state": "PA", "lat": "40.7110", "lng": "-77.9924"}, {"name": "Pocono Ranch Lands", "state": "PA", "lat": "41.1779", "lng": "-74.9584"}, {"name": "Enhaut", "state": "PA", "lat": "40.2324", "lng": "-76.8254"}, {"name": "McMurray", "state": "PA", "lat": "40.2815", "lng": "-80.0874"}, {"name": "Arona", "state": "PA", "lat": "40.2683", "lng": "-79.6578"}, {"name": "Orviston", "state": "PA", "lat": "41.1073", "lng": "-77.7533"}, {"name": "Mount Cobb", "state": "PA", "lat": "41.4215", "lng": "-75.5005"}, {"name": "Ashland", "state": "PA", "lat": "40.7811", "lng": "-76.3451"}, {"name": "Elderton", "state": "PA", "lat": "40.6945", "lng": "-79.3421"}, {"name": "Oval", "state": "PA", "lat": "41.1522", "lng": "-77.1744"}, {"name": "Lake Meade", "state": "PA", "lat": "39.9836", "lng": "-77.0421"}, {"name": "Lima", "state": "PA", "lat": "39.9194", "lng": "-75.4416"}, {"name": "Springdale", "state": "PA", "lat": "40.5409", "lng": "-79.7820"}, {"name": "Butler", "state": "PA", "lat": "40.8615", "lng": "-79.8962"}, {"name": "Emmaus", "state": "PA", "lat": "40.5352", "lng": "-75.4978"}, {"name": "Harveys Lake", "state": "PA", "lat": "41.3625", "lng": "-76.0384"}, {"name": "Northumberland", "state": "PA", "lat": "40.8959", "lng": "-76.7938"}, {"name": "Elizabethville", "state": "PA", "lat": "40.5472", "lng": "-76.8160"}, {"name": "Williamsburg", "state": "PA", "lat": "40.4627", "lng": "-78.2045"}, {"name": "Summit Station", "state": "PA", "lat": "40.5614", "lng": "-76.1998"}, {"name": "Conestoga", "state": "PA", "lat": "39.9450", "lng": "-76.3368"}, {"name": "James City", "state": "PA", "lat": "41.6180", "lng": "-78.8443"}, {"name": "Marienville", "state": "PA", "lat": "41.4687", "lng": "-79.1181"}, {"name": "White Mills", "state": "PA", "lat": "41.5350", "lng": "-75.2021"}, {"name": "Fawn Lake Forest", "state": "PA", "lat": "41.5158", "lng": "-75.0548"}, {"name": "Worthington", "state": "PA", "lat": "40.8380", "lng": "-79.6349"}, {"name": "Union City", "state": "PA", "lat": "41.8970", "lng": "-79.8437"}, {"name": "Fairchance", "state": "PA", "lat": "39.8251", "lng": "-79.7540"}, {"name": "Pottsville", "state": "PA", "lat": "40.6798", "lng": "-76.2092"}, {"name": "Landingville", "state": "PA", "lat": "40.6256", "lng": "-76.1235"}, {"name": "Broad Top City", "state": "PA", "lat": "40.2012", "lng": "-78.1406"}, {"name": "Vintondale", "state": "PA", "lat": "40.4795", "lng": "-78.9114"}, {"name": "Salladasburg", "state": "PA", "lat": "41.2783", "lng": "-77.2275"}, {"name": "Littlestown", "state": "PA", "lat": "39.7452", "lng": "-77.0891"}, {"name": "Little Britain", "state": "PA", "lat": "39.7745", "lng": "-76.1121"}, {"name": "Pitcairn", "state": "PA", "lat": "40.4079", "lng": "-79.7765"}, {"name": "Rew", "state": "PA", "lat": "41.8992", "lng": "-78.5388"}, {"name": "Aliquippa", "state": "PA", "lat": "40.6155", "lng": "-80.2547"}, {"name": "Boothwyn", "state": "PA", "lat": "39.8357", "lng": "-75.4453"}, {"name": "Hunterstown", "state": "PA", "lat": "39.8826", "lng": "-77.1569"}, {"name": "South Bethlehem", "state": "PA", "lat": "40.9991", "lng": "-79.3395"}, {"name": "Philadelphia", "state": "PA", "lat": "40.0077", "lng": "-75.1339"}, {"name": "Blakely", "state": "PA", "lat": "41.4859", "lng": "-75.6012"}, {"name": "Georgetown", "state": "PA", "lat": "40.6417", "lng": "-80.4994"}, {"name": "New Hope", "state": "PA", "lat": "40.3616", "lng": "-74.9574"}, {"name": "Conshohocken", "state": "PA", "lat": "40.0772", "lng": "-75.3035"}, {"name": "Shoemakersville", "state": "PA", "lat": "40.5004", "lng": "-75.9700"}, {"name": "Mount Wolf", "state": "PA", "lat": "40.0616", "lng": "-76.7054"}, {"name": "Patterson Heights", "state": "PA", "lat": "40.7391", "lng": "-80.3263"}, {"name": "Little Meadows", "state": "PA", "lat": "41.9891", "lng": "-76.1277"}, {"name": "Sheatown", "state": "PA", "lat": "41.1938", "lng": "-76.0188"}, {"name": "Dallas", "state": "PA", "lat": "41.3306", "lng": "-75.9736"}, {"name": "Montgomery", "state": "PA", "lat": "41.1709", "lng": "-76.8740"}, {"name": "Atwood", "state": "PA", "lat": "40.7501", "lng": "-79.2601"}, {"name": "East York", "state": "PA", "lat": "39.9687", "lng": "-76.6759"}, {"name": "Callery", "state": "PA", "lat": "40.7394", "lng": "-80.0380"}, {"name": "Fort Loudon", "state": "PA", "lat": "39.9219", "lng": "-77.9073"}, {"name": "Geistown", "state": "PA", "lat": "40.2934", "lng": "-78.8726"}, {"name": "North Braddock", "state": "PA", "lat": "40.4023", "lng": "-79.8533"}, {"name": "Shanksville", "state": "PA", "lat": "40.0173", "lng": "-78.9069"}, {"name": "Sheppton", "state": "PA", "lat": "40.8960", "lng": "-76.1187"}, {"name": "New Cumberland", "state": "PA", "lat": "40.2298", "lng": "-76.8763"}, {"name": "Benton", "state": "PA", "lat": "41.1955", "lng": "-76.3847"}, {"name": "Evansburg", "state": "PA", "lat": "40.1899", "lng": "-75.4348"}, {"name": "Eagleview", "state": "PA", "lat": "40.0598", "lng": "-75.6789"}, {"name": "Progress", "state": "PA", "lat": "40.2905", "lng": "-76.8382"}, {"name": "Millsboro", "state": "PA", "lat": "39.9902", "lng": "-80.0022"}, {"name": "Brentwood", "state": "PA", "lat": "40.3734", "lng": "-79.9757"}, {"name": "East Lansdowne", "state": "PA", "lat": "39.9440", "lng": "-75.2608"}, {"name": "Hopewell", "state": "PA", "lat": "40.1345", "lng": "-78.2665"}, {"name": "Ivyland", "state": "PA", "lat": "40.2083", "lng": "-75.0733"}, {"name": "Ellsworth", "state": "PA", "lat": "40.1074", "lng": "-80.0214"}, {"name": "Dushore", "state": "PA", "lat": "41.5249", "lng": "-76.3988"}, {"name": "Richfield", "state": "PA", "lat": "40.6868", "lng": "-77.1140"}, {"name": "Eldred", "state": "PA", "lat": "41.9562", "lng": "-78.3818"}, {"name": "Beech Mountain Lakes", "state": "PA", "lat": "41.0415", "lng": "-75.9323"}, {"name": "Clifton Heights", "state": "PA", "lat": "39.9301", "lng": "-75.2958"}, {"name": "Lawrenceville", "state": "PA", "lat": "41.9959", "lng": "-77.1304"}, {"name": "Seven Springs", "state": "PA", "lat": "40.0251", "lng": "-79.2934"}, {"name": "Sunbury", "state": "PA", "lat": "40.8617", "lng": "-76.7874"}, {"name": "Foxburg", "state": "PA", "lat": "41.1459", "lng": "-79.6802"}, {"name": "Mifflintown", "state": "PA", "lat": "40.5714", "lng": "-77.3950"}, {"name": "Flying Hills", "state": "PA", "lat": "40.2788", "lng": "-75.9164"}, {"name": "Ravine", "state": "PA", "lat": "40.5686", "lng": "-76.3937"}, {"name": "Weissport East", "state": "PA", "lat": "40.8369", "lng": "-75.6863"}, {"name": "Wagner", "state": "PA", "lat": "40.6802", "lng": "-77.3878"}, {"name": "Bloomfield", "state": "PA", "lat": "40.4189", "lng": "-77.1889"}, {"name": "Ashville", "state": "PA", "lat": "40.5601", "lng": "-78.5472"}, {"name": "New Baltimore", "state": "PA", "lat": "39.9834", "lng": "-78.7720"}, {"name": "Yeagertown", "state": "PA", "lat": "40.6414", "lng": "-77.5802"}, {"name": "Colver", "state": "PA", "lat": "40.5426", "lng": "-78.7892"}, {"name": "New Tripoli", "state": "PA", "lat": "40.6773", "lng": "-75.7498"}, {"name": "Harleysville", "state": "PA", "lat": "40.2791", "lng": "-75.3872"}, {"name": "Cross Creek", "state": "PA", "lat": "40.3265", "lng": "-80.4091"}, {"name": "Halifax", "state": "PA", "lat": "40.4643", "lng": "-76.9330"}, {"name": "Treasure Lake", "state": "PA", "lat": "41.1713", "lng": "-78.7173"}, {"name": "Garrett", "state": "PA", "lat": "39.8644", "lng": "-79.0619"}, {"name": "Beurys Lake", "state": "PA", "lat": "40.7194", "lng": "-76.3797"}, {"name": "Hallstead", "state": "PA", "lat": "41.9617", "lng": "-75.7471"}, {"name": "New Kensington", "state": "PA", "lat": "40.5711", "lng": "-79.7521"}, {"name": "Delaware Water Gap", "state": "PA", "lat": "40.9750", "lng": "-75.1392"}, {"name": "Conway", "state": "PA", "lat": "40.6674", "lng": "-80.2411"}, {"name": "DuBois", "state": "PA", "lat": "41.1225", "lng": "-78.7564"}, {"name": "Penn Wynne", "state": "PA", "lat": "39.9867", "lng": "-75.2715"}, {"name": "Sharpsburg", "state": "PA", "lat": "40.4940", "lng": "-79.9251"}, {"name": "Mount Union", "state": "PA", "lat": "40.3845", "lng": "-77.8824"}, {"name": "Bethel Park", "state": "PA", "lat": "40.3239", "lng": "-80.0364"}, {"name": "Blue Ball", "state": "PA", "lat": "40.1157", "lng": "-76.0517"}, {"name": "Virginville", "state": "PA", "lat": "40.5191", "lng": "-75.8638"}, {"name": "Stony Creek Mills", "state": "PA", "lat": "40.3494", "lng": "-75.8641"}, {"name": "Hershey", "state": "PA", "lat": "40.2806", "lng": "-76.6458"}, {"name": "Dawson", "state": "PA", "lat": "40.0473", "lng": "-79.6573"}, {"name": "Landisburg", "state": "PA", "lat": "40.3430", "lng": "-77.3058"}, {"name": "Christiana", "state": "PA", "lat": "39.9545", "lng": "-75.9970"}, {"name": "Hop Bottom", "state": "PA", "lat": "41.7053", "lng": "-75.7674"}, {"name": "Westfield", "state": "PA", "lat": "41.9176", "lng": "-77.5402"}, {"name": "West York", "state": "PA", "lat": "39.9533", "lng": "-76.7610"}, {"name": "Paris", "state": "PA", "lat": "40.4104", "lng": "-80.5067"}, {"name": "Bryn Mawr", "state": "PA", "lat": "40.0227", "lng": "-75.3156"}, {"name": "Greenock", "state": "PA", "lat": "40.3125", "lng": "-79.8036"}, {"name": "Hartleton", "state": "PA", "lat": "40.9002", "lng": "-77.1564"}, {"name": "Liberty", "state": "PA", "lat": "40.3244", "lng": "-79.8589"}, {"name": "Dauphin", "state": "PA", "lat": "40.3683", "lng": "-76.9296"}, {"name": "Cherry Valley", "state": "PA", "lat": "41.1594", "lng": "-79.8012"}, {"name": "Kistler", "state": "PA", "lat": "40.3769", "lng": "-77.8654"}, {"name": "Midway", "state": "PA", "lat": "40.3687", "lng": "-80.2912"}, {"name": "Exeter", "state": "PA", "lat": "41.3338", "lng": "-75.8214"}, {"name": "East Side", "state": "PA", "lat": "41.0621", "lng": "-75.7595"}, {"name": "Shenandoah Heights", "state": "PA", "lat": "40.8322", "lng": "-76.2061"}, {"name": "Ernest", "state": "PA", "lat": "40.6782", "lng": "-79.1645"}, {"name": "Fayette City", "state": "PA", "lat": "40.1007", "lng": "-79.8392"}, {"name": "Bobtown", "state": "PA", "lat": "39.7603", "lng": "-79.9844"}, {"name": "Alburtis", "state": "PA", "lat": "40.5090", "lng": "-75.6001"}, {"name": "Trevose", "state": "PA", "lat": "40.1509", "lng": "-74.9820"}, {"name": "Stonerstown", "state": "PA", "lat": "40.2155", "lng": "-78.2572"}, {"name": "Roseto", "state": "PA", "lat": "40.8778", "lng": "-75.2204"}, {"name": "Slippery Rock University", "state": "PA", "lat": "41.0647", "lng": "-80.0420"}, {"name": "Elizabeth", "state": "PA", "lat": "40.2716", "lng": "-79.8872"}, {"name": "Lucerne Mines", "state": "PA", "lat": "40.5559", "lng": "-79.1558"}, {"name": "Nanticoke", "state": "PA", "lat": "41.2004", "lng": "-76.0003"}, {"name": "Allison", "state": "PA", "lat": "39.9853", "lng": "-79.8732"}, {"name": "Phoenixville", "state": "PA", "lat": "40.1358", "lng": "-75.5201"}, {"name": "Linesville", "state": "PA", "lat": "41.6563", "lng": "-80.4221"}, {"name": "Eagles Mere", "state": "PA", "lat": "41.4102", "lng": "-76.5832"}, {"name": "Newport", "state": "PA", "lat": "40.4792", "lng": "-77.1336"}, {"name": "Big Beaver", "state": "PA", "lat": "40.8233", "lng": "-80.3633"}, {"name": "Fairdale", "state": "PA", "lat": "39.8901", "lng": "-79.9680"}, {"name": "Uniontown", "state": "PA", "lat": "39.8994", "lng": "-79.7244"}, {"name": "Ambler", "state": "PA", "lat": "40.1565", "lng": "-75.2215"}, {"name": "Coudersport", "state": "PA", "lat": "41.7758", "lng": "-78.0160"}, {"name": "Rose Valley", "state": "PA", "lat": "39.8948", "lng": "-75.3853"}, {"name": "Palmer Heights", "state": "PA", "lat": "40.6907", "lng": "-75.2671"}, {"name": "Moshannon", "state": "PA", "lat": "41.0346", "lng": "-78.0067"}, {"name": "Annville", "state": "PA", "lat": "40.3326", "lng": "-76.5077"}, {"name": "Friedens", "state": "PA", "lat": "40.0449", "lng": "-79.0027"}, {"name": "Grier City", "state": "PA", "lat": "40.8266", "lng": "-76.0560"}, {"name": "New Lebanon", "state": "PA", "lat": "41.4196", "lng": "-80.0755"}, {"name": "Blooming Valley", "state": "PA", "lat": "41.6797", "lng": "-80.0397"}, {"name": "Port Clinton", "state": "PA", "lat": "40.5818", "lng": "-76.0267"}, {"name": "Atkinson Mills", "state": "PA", "lat": "40.4519", "lng": "-77.8052"}, {"name": "Glenolden", "state": "PA", "lat": "39.8996", "lng": "-75.2920"}, {"name": "Norristown", "state": "PA", "lat": "40.1224", "lng": "-75.3398"}, {"name": "DeSales University", "state": "PA", "lat": "40.5388", "lng": "-75.3778"}, {"name": "Lanesboro", "state": "PA", "lat": "41.9625", "lng": "-75.5825"}, {"name": "Lionville", "state": "PA", "lat": "40.0524", "lng": "-75.6440"}, {"name": "Reiffton", "state": "PA", "lat": "40.3126", "lng": "-75.8662"}, {"name": "Conneaut Lakeshore", "state": "PA", "lat": "41.6272", "lng": "-80.3102"}, {"name": "Casselman", "state": "PA", "lat": "39.8857", "lng": "-79.2111"}, {"name": "Halfway House", "state": "PA", "lat": "40.2795", "lng": "-75.6402"}, {"name": "Stillwater", "state": "PA", "lat": "41.1506", "lng": "-76.3693"}, {"name": "Winterstown", "state": "PA", "lat": "39.8408", "lng": "-76.6175"}, {"name": "Pen Mar", "state": "PA", "lat": "39.7243", "lng": "-77.5150"}, {"name": "Bulger", "state": "PA", "lat": "40.3767", "lng": "-80.3230"}, {"name": "West Falls", "state": "PA", "lat": "41.4530", "lng": "-75.8605"}, {"name": "Long Branch", "state": "PA", "lat": "40.0983", "lng": "-79.8801"}, {"name": "Edinboro", "state": "PA", "lat": "41.8762", "lng": "-80.1247"}, {"name": "East Pittsburgh", "state": "PA", "lat": "40.3969", "lng": "-79.8382"}, {"name": "Russellton", "state": "PA", "lat": "40.6082", "lng": "-79.8401"}, {"name": "Pleasant Hills", "state": "PA", "lat": "40.3298", "lng": "-79.9596"}, {"name": "Hermitage", "state": "PA", "lat": "41.2305", "lng": "-80.4414"}, {"name": "Womelsdorf", "state": "PA", "lat": "40.3655", "lng": "-76.1864"}, {"name": "Canonsburg", "state": "PA", "lat": "40.2643", "lng": "-80.1868"}, {"name": "Bowmanstown", "state": "PA", "lat": "40.8019", "lng": "-75.6611"}, {"name": "Donaldson", "state": "PA", "lat": "40.6362", "lng": "-76.4059"}, {"name": "Nanty-Glo", "state": "PA", "lat": "40.4708", "lng": "-78.8339"}, {"name": "Plum", "state": "PA", "lat": "40.5024", "lng": "-79.7496"}, {"name": "Hawk Run", "state": "PA", "lat": "40.9228", "lng": "-78.2041"}, {"name": "Barkeyville", "state": "PA", "lat": "41.1966", "lng": "-79.9826"}, {"name": "Dallastown", "state": "PA", "lat": "39.8996", "lng": "-76.6410"}, {"name": "King of Prussia", "state": "PA", "lat": "40.0962", "lng": "-75.3821"}, {"name": "Bonneauville", "state": "PA", "lat": "39.8105", "lng": "-77.1363"}, {"name": "Claysville", "state": "PA", "lat": "40.1199", "lng": "-80.4131"}, {"name": "South Fork", "state": "PA", "lat": "40.3636", "lng": "-78.7919"}, {"name": "Emigsville", "state": "PA", "lat": "40.0085", "lng": "-76.7310"}, {"name": "Rices Landing", "state": "PA", "lat": "39.9476", "lng": "-79.9986"}, {"name": "Buffington", "state": "PA", "lat": "39.9298", "lng": "-79.8394"}, {"name": "East Freedom", "state": "PA", "lat": "40.3573", "lng": "-78.4366"}, {"name": "Saegertown", "state": "PA", "lat": "41.7159", "lng": "-80.1363"}, {"name": "Pennside", "state": "PA", "lat": "40.3384", "lng": "-75.8781"}, {"name": "Marion", "state": "PA", "lat": "39.8607", "lng": "-77.7016"}, {"name": "Holiday Pocono", "state": "PA", "lat": "41.0292", "lng": "-75.6092"}, {"name": "Springboro", "state": "PA", "lat": "41.8006", "lng": "-80.3715"}, {"name": "Bedford", "state": "PA", "lat": "40.0149", "lng": "-78.5033"}, {"name": "West Sunbury", "state": "PA", "lat": "41.0061", "lng": "-79.8965"}, {"name": "Waynesboro", "state": "PA", "lat": "39.7525", "lng": "-77.5822"}, {"name": "Dublin", "state": "PA", "lat": "40.3731", "lng": "-75.2041"}, {"name": "Edwardsville", "state": "PA", "lat": "41.2614", "lng": "-75.9071"}, {"name": "Seward", "state": "PA", "lat": "40.4130", "lng": "-79.0219"}, {"name": "Emerald Lakes", "state": "PA", "lat": "41.0844", "lng": "-75.4154"}, {"name": "Russell", "state": "PA", "lat": "41.9394", "lng": "-79.1393"}, {"name": "Athens", "state": "PA", "lat": "41.9515", "lng": "-76.5186"}, {"name": "Milford", "state": "PA", "lat": "41.3238", "lng": "-74.8011"}, {"name": "Roscoe", "state": "PA", "lat": "40.0781", "lng": "-79.8643"}, {"name": "Sugar Grove", "state": "PA", "lat": "41.9837", "lng": "-79.3395"}, {"name": "Sutersville", "state": "PA", "lat": "40.2361", "lng": "-79.8015"}, {"name": "Kenmar", "state": "PA", "lat": "41.2547", "lng": "-76.9550"}, {"name": "Chalfant", "state": "PA", "lat": "40.4100", "lng": "-79.8387"}, {"name": "New Oxford", "state": "PA", "lat": "39.8630", "lng": "-77.0555"}, {"name": "Quakertown", "state": "PA", "lat": "40.4398", "lng": "-75.3456"}, {"name": "Fleetwood", "state": "PA", "lat": "40.4565", "lng": "-75.8209"}, {"name": "Meadville", "state": "PA", "lat": "41.6476", "lng": "-80.1468"}, {"name": "St. Clair", "state": "PA", "lat": "40.7211", "lng": "-76.1903"}, {"name": "Warminster Heights", "state": "PA", "lat": "40.1884", "lng": "-75.0841"}, {"name": "Meridian", "state": "PA", "lat": "40.8531", "lng": "-79.9555"}, {"name": "Forest City", "state": "PA", "lat": "41.6521", "lng": "-75.4691"}, {"name": "Bath", "state": "PA", "lat": "40.7279", "lng": "-75.3919"}, {"name": "Belle Vernon", "state": "PA", "lat": "40.1256", "lng": "-79.8670"}, {"name": "Kenilworth", "state": "PA", "lat": "40.2242", "lng": "-75.6418"}, {"name": "East Earl", "state": "PA", "lat": "40.1101", "lng": "-76.0274"}, {"name": "Intercourse", "state": "PA", "lat": "40.0378", "lng": "-76.1081"}, {"name": "Oklahoma", "state": "PA", "lat": "40.5804", "lng": "-79.5754"}, {"name": "Church Hill", "state": "PA", "lat": "40.6926", "lng": "-77.5949"}, {"name": "Summerhill", "state": "PA", "lat": "40.3765", "lng": "-78.7616"}, {"name": "Arendtsville", "state": "PA", "lat": "39.9234", "lng": "-77.2998"}, {"name": "East Washington", "state": "PA", "lat": "40.1745", "lng": "-80.2325"}, {"name": "Sharpsville", "state": "PA", "lat": "41.2595", "lng": "-80.4813"}, {"name": "Shartlesville", "state": "PA", "lat": "40.5135", "lng": "-76.1016"}, {"name": "Flemington", "state": "PA", "lat": "41.1273", "lng": "-77.4703"}, {"name": "Indian Mountain Lake", "state": "PA", "lat": "41.0003", "lng": "-75.5058"}, {"name": "Milton", "state": "PA", "lat": "41.0090", "lng": "-76.8506"}, {"name": "Wellsville", "state": "PA", "lat": "40.0512", "lng": "-76.9408"}, {"name": "Speers", "state": "PA", "lat": "40.1222", "lng": "-79.8797"}, {"name": "Wyomissing", "state": "PA", "lat": "40.3317", "lng": "-75.9703"}, {"name": "Table Rock", "state": "PA", "lat": "39.9125", "lng": "-77.2229"}, {"name": "West Mifflin", "state": "PA", "lat": "40.3581", "lng": "-79.9072"}, {"name": "Nazareth", "state": "PA", "lat": "40.7400", "lng": "-75.3132"}, {"name": "McKees Rocks", "state": "PA", "lat": "40.4688", "lng": "-80.0630"}, {"name": "Indian Lake", "state": "PA", "lat": "40.0446", "lng": "-78.8603"}, {"name": "Rennerdale", "state": "PA", "lat": "40.4002", "lng": "-80.1397"}, {"name": "Troy", "state": "PA", "lat": "41.7839", "lng": "-76.7898"}, {"name": "Wilburton Number One", "state": "PA", "lat": "40.8129", "lng": "-76.3924"}, {"name": "Port Allegany", "state": "PA", "lat": "41.8149", "lng": "-78.2768"}, {"name": "Spring Mount", "state": "PA", "lat": "40.2755", "lng": "-75.4651"}, {"name": "Hiller", "state": "PA", "lat": "40.0082", "lng": "-79.9043"}, {"name": "Homestead", "state": "PA", "lat": "40.4074", "lng": "-79.9097"}, {"name": "Boalsburg", "state": "PA", "lat": "40.7783", "lng": "-77.7734"}, {"name": "Smethport", "state": "PA", "lat": "41.8071", "lng": "-78.4435"}, {"name": "Elysburg", "state": "PA", "lat": "40.8680", "lng": "-76.5492"}, {"name": "Knoxville", "state": "PA", "lat": "41.9605", "lng": "-77.4379"}, {"name": "Monongahela", "state": "PA", "lat": "40.1956", "lng": "-79.9221"}, {"name": "Polk", "state": "PA", "lat": "41.3691", "lng": "-79.9311"}, {"name": "Howard", "state": "PA", "lat": "41.0127", "lng": "-77.6575"}, {"name": "Bird-in-Hand", "state": "PA", "lat": "40.0372", "lng": "-76.1862"}, {"name": "Penryn", "state": "PA", "lat": "40.2016", "lng": "-76.3674"}, {"name": "Arnold", "state": "PA", "lat": "40.5789", "lng": "-79.7653"}, {"name": "North Irwin", "state": "PA", "lat": "40.3389", "lng": "-79.7115"}, {"name": "Elgin", "state": "PA", "lat": "41.9070", "lng": "-79.7465"}, {"name": "Centerville", "state": "PA", "lat": "40.0300", "lng": "-79.9632"}, {"name": "Oakwood", "state": "PA", "lat": "41.0112", "lng": "-80.3793"}, {"name": "Sewickley", "state": "PA", "lat": "40.5400", "lng": "-80.1793"}, {"name": "Sierra View", "state": "PA", "lat": "41.0007", "lng": "-75.4476"}, {"name": "Ramblewood", "state": "PA", "lat": "40.7238", "lng": "-77.9432"}, {"name": "Rehrersburg", "state": "PA", "lat": "40.4575", "lng": "-76.2462"}, {"name": "South Williamsport", "state": "PA", "lat": "41.2294", "lng": "-77.0009"}, {"name": "West Milton", "state": "PA", "lat": "41.0183", "lng": "-76.8767"}, {"name": "Baldwin", "state": "PA", "lat": "40.3691", "lng": "-79.9668"}, {"name": "Petrolia", "state": "PA", "lat": "41.0216", "lng": "-79.7168"}, {"name": "Dalmatia", "state": "PA", "lat": "40.6500", "lng": "-76.9026"}, {"name": "Washingtonville", "state": "PA", "lat": "41.0523", "lng": "-76.6750"}, {"name": "South Pottstown", "state": "PA", "lat": "40.2367", "lng": "-75.6599"}, {"name": "Braddock", "state": "PA", "lat": "40.4018", "lng": "-79.8688"}, {"name": "Grove City", "state": "PA", "lat": "41.1572", "lng": "-80.0893"}, {"name": "Dunbar", "state": "PA", "lat": "39.9787", "lng": "-79.6147"}, {"name": "Dudley", "state": "PA", "lat": "40.2053", "lng": "-78.1783"}, {"name": "Woodland Heights", "state": "PA", "lat": "41.4108", "lng": "-79.7047"}, {"name": "Sinking Spring", "state": "PA", "lat": "40.3241", "lng": "-76.0236"}, {"name": "Grantley", "state": "PA", "lat": "39.9406", "lng": "-76.7287"}, {"name": "Stormstown", "state": "PA", "lat": "40.7890", "lng": "-78.0191"}, {"name": "Lorain", "state": "PA", "lat": "40.2962", "lng": "-78.8960"}, {"name": "Grindstone", "state": "PA", "lat": "40.0221", "lng": "-79.8228"}, {"name": "Mount Oliver", "state": "PA", "lat": "40.4113", "lng": "-79.9856"}, {"name": "Corsica", "state": "PA", "lat": "41.1817", "lng": "-79.2027"}, {"name": "West Homestead", "state": "PA", "lat": "40.3977", "lng": "-79.9185"}, {"name": "Aldan", "state": "PA", "lat": "39.9224", "lng": "-75.2881"}, {"name": "Richlandtown", "state": "PA", "lat": "40.4726", "lng": "-75.3212"}, {"name": "Tipton", "state": "PA", "lat": "40.6359", "lng": "-78.3001"}, {"name": "Rohrsburg", "state": "PA", "lat": "41.1328", "lng": "-76.4232"}, {"name": "Noxen", "state": "PA", "lat": "41.4225", "lng": "-76.0599"}, {"name": "Village Shires", "state": "PA", "lat": "40.2016", "lng": "-74.9706"}, {"name": "Rouseville", "state": "PA", "lat": "41.4704", "lng": "-79.6847"}, {"name": "Dorneyville", "state": "PA", "lat": "40.5755", "lng": "-75.5188"}, {"name": "Middleburg", "state": "PA", "lat": "40.7892", "lng": "-77.0445"}, {"name": "Carnegie", "state": "PA", "lat": "40.4080", "lng": "-80.0861"}, {"name": "Almedia", "state": "PA", "lat": "41.0144", "lng": "-76.3850"}, {"name": "Jerome", "state": "PA", "lat": "40.2136", "lng": "-78.9809"}, {"name": "Farmington", "state": "PA", "lat": "39.8100", "lng": "-79.5623"}, {"name": "East Brady", "state": "PA", "lat": "40.9836", "lng": "-79.6131"}, {"name": "Edgeworth", "state": "PA", "lat": "40.5546", "lng": "-80.1922"}, {"name": "Union Dale", "state": "PA", "lat": "41.7154", "lng": "-75.4819"}, {"name": "Blanchard", "state": "PA", "lat": "41.0663", "lng": "-77.6080"}, {"name": "Hughestown", "state": "PA", "lat": "41.3291", "lng": "-75.7698"}, {"name": "Beaver Meadows", "state": "PA", "lat": "40.9299", "lng": "-75.9131"}, {"name": "Eastvale", "state": "PA", "lat": "40.7670", "lng": "-80.3148"}, {"name": "Greenville", "state": "PA", "lat": "41.4052", "lng": "-80.3837"}, {"name": "Oreland", "state": "PA", "lat": "40.1148", "lng": "-75.1801"}, {"name": "Red Hill", "state": "PA", "lat": "40.3771", "lng": "-75.4839"}, {"name": "North Catasauqua", "state": "PA", "lat": "40.6640", "lng": "-75.4741"}, {"name": "Rothsville", "state": "PA", "lat": "40.1532", "lng": "-76.2473"}, {"name": "Orchard Hills", "state": "PA", "lat": "40.5849", "lng": "-79.5416"}, {"name": "Hawley", "state": "PA", "lat": "41.4765", "lng": "-75.1779"}, {"name": "Clearfield", "state": "PA", "lat": "41.0216", "lng": "-78.4390"}, {"name": "Enon Valley", "state": "PA", "lat": "40.8559", "lng": "-80.4564"}, {"name": "Selinsgrove", "state": "PA", "lat": "40.8003", "lng": "-76.8647"}, {"name": "Langhorne", "state": "PA", "lat": "40.1777", "lng": "-74.9212"}, {"name": "Port Matilda", "state": "PA", "lat": "40.8003", "lng": "-78.0523"}, {"name": "Valley Green", "state": "PA", "lat": "40.1567", "lng": "-76.7947"}, {"name": "Bear Creek Village", "state": "PA", "lat": "41.1877", "lng": "-75.7552"}, {"name": "South Uniontown", "state": "PA", "lat": "39.8939", "lng": "-79.7465"}, {"name": "West Wyomissing", "state": "PA", "lat": "40.3222", "lng": "-75.9950"}, {"name": "Mapleton", "state": "PA", "lat": "40.3928", "lng": "-77.9412"}, {"name": "Stiles", "state": "PA", "lat": "40.6666", "lng": "-75.5072"}, {"name": "Dickson City", "state": "PA", "lat": "41.4684", "lng": "-75.6358"}, {"name": "Weatherly", "state": "PA", "lat": "40.9420", "lng": "-75.8210"}, {"name": "State College", "state": "PA", "lat": "40.7910", "lng": "-77.8568"}, {"name": "Wakefield", "state": "PA", "lat": "39.7766", "lng": "-76.1804"}, {"name": "Paradise", "state": "PA", "lat": "40.0061", "lng": "-76.1242"}, {"name": "Lampeter", "state": "PA", "lat": "39.9909", "lng": "-76.2420"}, {"name": "Ebensburg", "state": "PA", "lat": "40.4884", "lng": "-78.7264"}, {"name": "Mount Pleasant", "state": "PA", "lat": "40.1510", "lng": "-79.5435"}, {"name": "Paint", "state": "PA", "lat": "40.2421", "lng": "-78.8501"}, {"name": "Shavertown", "state": "PA", "lat": "41.3188", "lng": "-75.9405"}, {"name": "St. Clairsville", "state": "PA", "lat": "40.1559", "lng": "-78.5108"}, {"name": "Muhlenberg Park", "state": "PA", "lat": "40.3867", "lng": "-75.9399"}, {"name": "Salunga", "state": "PA", "lat": "40.0929", "lng": "-76.4279"}, {"name": "Wilson", "state": "PA", "lat": "40.6844", "lng": "-75.2407"}, {"name": "Rochester", "state": "PA", "lat": "40.7025", "lng": "-80.2838"}, {"name": "Fairhope", "state": "PA", "lat": "40.1151", "lng": "-79.8389"}, {"name": "Gilbertsville", "state": "PA", "lat": "40.3219", "lng": "-75.6090"}, {"name": "Glen Lyon", "state": "PA", "lat": "41.1796", "lng": "-76.0782"}, {"name": "Valley-Hi", "state": "PA", "lat": "40.0299", "lng": "-78.1917"}, {"name": "Latrobe", "state": "PA", "lat": "40.3125", "lng": "-79.3826"}, {"name": "Hydetown", "state": "PA", "lat": "41.6512", "lng": "-79.7246"}, {"name": "Derry", "state": "PA", "lat": "40.3335", "lng": "-79.3011"}, {"name": "Ridley Park", "state": "PA", "lat": "39.8785", "lng": "-75.3251"}, {"name": "Ellport", "state": "PA", "lat": "40.8618", "lng": "-80.2625"}, {"name": "New Galilee", "state": "PA", "lat": "40.8335", "lng": "-80.4009"}, {"name": "Mertztown", "state": "PA", "lat": "40.5033", "lng": "-75.6674"}, {"name": "West Easton", "state": "PA", "lat": "40.6781", "lng": "-75.2357"}, {"name": "Philipsburg", "state": "PA", "lat": "40.8952", "lng": "-78.2147"}, {"name": "Raubsville", "state": "PA", "lat": "40.6295", "lng": "-75.2024"}, {"name": "Rossiter", "state": "PA", "lat": "40.8991", "lng": "-78.9356"}, {"name": "Everson", "state": "PA", "lat": "40.0903", "lng": "-79.5872"}, {"name": "Mount Carbon", "state": "PA", "lat": "40.6735", "lng": "-76.1885"}, {"name": "Spring House", "state": "PA", "lat": "40.1847", "lng": "-75.2267"}, {"name": "Langhorne Manor", "state": "PA", "lat": "40.1658", "lng": "-74.9175"}, {"name": "Montandon", "state": "PA", "lat": "40.9654", "lng": "-76.8529"}, {"name": "Fox Chapel", "state": "PA", "lat": "40.5247", "lng": "-79.8898"}, {"name": "Hulmeville", "state": "PA", "lat": "40.1421", "lng": "-74.9075"}, {"name": "Kerrtown", "state": "PA", "lat": "41.6266", "lng": "-80.1695"}, {"name": "Tunnelhill", "state": "PA", "lat": "40.4783", "lng": "-78.5423"}, {"name": "Chicora", "state": "PA", "lat": "40.9505", "lng": "-79.7401"}, {"name": "New Washington", "state": "PA", "lat": "40.8218", "lng": "-78.7019"}, {"name": "Great Bend", "state": "PA", "lat": "41.9736", "lng": "-75.7459"}, {"name": "Churchill", "state": "PA", "lat": "40.4389", "lng": "-79.8417"}, {"name": "Lincoln Park", "state": "PA", "lat": "40.3147", "lng": "-75.9886"}, {"name": "Montrose Manor", "state": "PA", "lat": "40.3063", "lng": "-75.9872"}, {"name": "Manheim", "state": "PA", "lat": "40.1631", "lng": "-76.3963"}, {"name": "Slickville", "state": "PA", "lat": "40.4622", "lng": "-79.5184"}, {"name": "New Columbus", "state": "PA", "lat": "41.1732", "lng": "-76.2870"}, {"name": "Waymart", "state": "PA", "lat": "41.5866", "lng": "-75.4047"}, {"name": "Jacksonville", "state": "PA", "lat": "40.5652", "lng": "-79.2952"}, {"name": "Marlin", "state": "PA", "lat": "40.6860", "lng": "-76.2422"}, {"name": "West Hazleton", "state": "PA", "lat": "40.9701", "lng": "-76.0132"}, {"name": "Kutztown University", "state": "PA", "lat": "40.5103", "lng": "-75.7850"}, {"name": "New Milford", "state": "PA", "lat": "41.8762", "lng": "-75.7266"}, {"name": "Parkesburg", "state": "PA", "lat": "39.9593", "lng": "-75.9177"}, {"name": "Fredericktown", "state": "PA", "lat": "40.0019", "lng": "-80.0092"}, {"name": "Kylertown", "state": "PA", "lat": "40.9993", "lng": "-78.1681"}, {"name": "Fallston", "state": "PA", "lat": "40.7241", "lng": "-80.3133"}, {"name": "Fairfield", "state": "PA", "lat": "39.7891", "lng": "-77.3698"}, {"name": "Atlasburg", "state": "PA", "lat": "40.3436", "lng": "-80.3804"}, {"name": "Walnutport", "state": "PA", "lat": "40.7514", "lng": "-75.5955"}, {"name": "Lenape Heights", "state": "PA", "lat": "40.7633", "lng": "-79.5217"}, {"name": "Birchwood Lakes", "state": "PA", "lat": "41.2513", "lng": "-74.9103"}, {"name": "East Rochester", "state": "PA", "lat": "40.6981", "lng": "-80.2689"}, {"name": "Parkville", "state": "PA", "lat": "39.7860", "lng": "-76.9685"}, {"name": "Murrysville", "state": "PA", "lat": "40.4456", "lng": "-79.6555"}, {"name": "Spring Ridge", "state": "PA", "lat": "40.3533", "lng": "-75.9892"}, {"name": "Delta", "state": "PA", "lat": "39.7267", "lng": "-76.3271"}, {"name": "Connoquenessing", "state": "PA", "lat": "40.8174", "lng": "-80.0150"}, {"name": "Export", "state": "PA", "lat": "40.4170", "lng": "-79.6232"}, {"name": "Claysburg", "state": "PA", "lat": "40.2896", "lng": "-78.4482"}, {"name": "Sligo", "state": "PA", "lat": "41.1081", "lng": "-79.4964"}, {"name": "West View", "state": "PA", "lat": "40.5182", "lng": "-80.0333"}, {"name": "Dale", "state": "PA", "lat": "40.3120", "lng": "-78.9049"}, {"name": "Saltsburg", "state": "PA", "lat": "40.4848", "lng": "-79.4480"}, {"name": "Lake Winola", "state": "PA", "lat": "41.5105", "lng": "-75.8509"}, {"name": "Belmont", "state": "PA", "lat": "40.2830", "lng": "-78.8908"}, {"name": "Westmont", "state": "PA", "lat": "40.3194", "lng": "-78.9524"}, {"name": "Lake Arthur Estates", "state": "PA", "lat": "40.9616", "lng": "-80.1483"}, {"name": "Tarentum", "state": "PA", "lat": "40.6041", "lng": "-79.7601"}, {"name": "Enlow", "state": "PA", "lat": "40.4525", "lng": "-80.2317"}, {"name": "Brisbin", "state": "PA", "lat": "40.8395", "lng": "-78.3526"}, {"name": "Terre Hill", "state": "PA", "lat": "40.1591", "lng": "-76.0507"}, {"name": "Vandling", "state": "PA", "lat": "41.6310", "lng": "-75.4703"}, {"name": "Hasson Heights", "state": "PA", "lat": "41.4488", "lng": "-79.6765"}, {"name": "Refton", "state": "PA", "lat": "39.9474", "lng": "-76.2386"}, {"name": "Naomi", "state": "PA", "lat": "40.1111", "lng": "-79.8464"}, {"name": "Millvale", "state": "PA", "lat": "40.4818", "lng": "-79.9736"}, {"name": "Oakmont", "state": "PA", "lat": "40.5200", "lng": "-79.8365"}, {"name": "Glassport", "state": "PA", "lat": "40.3262", "lng": "-79.8861"}, {"name": "Burgettstown", "state": "PA", "lat": "40.3813", "lng": "-80.3926"}, {"name": "Egypt", "state": "PA", "lat": "40.6858", "lng": "-75.5334"}, {"name": "Pikes Creek", "state": "PA", "lat": "41.3086", "lng": "-76.1029"}, {"name": "Delano", "state": "PA", "lat": "40.8414", "lng": "-76.0738"}, {"name": "Mifflinburg", "state": "PA", "lat": "40.9202", "lng": "-77.0465"}, {"name": "Edgewood", "state": "PA", "lat": "40.4313", "lng": "-79.8839"}, {"name": "Northwood", "state": "PA", "lat": "40.6864", "lng": "-78.2272"}, {"name": "Catasauqua", "state": "PA", "lat": "40.6531", "lng": "-75.4643"}, {"name": "Bryn Athyn", "state": "PA", "lat": "40.1411", "lng": "-75.0674"}, {"name": "Freedom", "state": "PA", "lat": "40.6849", "lng": "-80.2533"}, {"name": "Campbelltown", "state": "PA", "lat": "40.2761", "lng": "-76.5848"}, {"name": "Baidland", "state": "PA", "lat": "40.1888", "lng": "-79.9533"}, {"name": "Wampum", "state": "PA", "lat": "40.8863", "lng": "-80.3393"}, {"name": "Woxall", "state": "PA", "lat": "40.3110", "lng": "-75.4512"}, {"name": "Hartstown", "state": "PA", "lat": "41.5511", "lng": "-80.3825"}, {"name": "Rutledge", "state": "PA", "lat": "39.9010", "lng": "-75.3274"}, {"name": "Chapman", "state": "PA", "lat": "40.7585", "lng": "-75.4013"}, {"name": "Kennett Square", "state": "PA", "lat": "39.8438", "lng": "-75.7113"}, {"name": "Elim", "state": "PA", "lat": "40.2989", "lng": "-78.9430"}, {"name": "Green Lane", "state": "PA", "lat": "40.3364", "lng": "-75.4709"}, {"name": "Berwyn", "state": "PA", "lat": "40.0396", "lng": "-75.4439"}, {"name": "Moosic", "state": "PA", "lat": "41.3584", "lng": "-75.7027"}, {"name": "Drexel Hill", "state": "PA", "lat": "39.9495", "lng": "-75.3039"}, {"name": "Edie", "state": "PA", "lat": "40.0863", "lng": "-79.1280"}, {"name": "Briar Creek", "state": "PA", "lat": "41.0463", "lng": "-76.2861"}, {"name": "Chevy Chase Heights", "state": "PA", "lat": "40.6403", "lng": "-79.1456"}, {"name": "East Butler", "state": "PA", "lat": "40.8789", "lng": "-79.8474"}, {"name": "York", "state": "PA", "lat": "39.9651", "lng": "-76.7315"}, {"name": "St. Lawrence", "state": "PA", "lat": "40.3262", "lng": "-75.8661"}, {"name": "New Philadelphia", "state": "PA", "lat": "40.7178", "lng": "-76.1167"}, {"name": "Morrisville", "state": "PA", "lat": "40.2074", "lng": "-74.7800"}, {"name": "Jim Thorpe", "state": "PA", "lat": "40.8712", "lng": "-75.7433"}, {"name": "West Middlesex", "state": "PA", "lat": "41.1742", "lng": "-80.4557"}, {"name": "Bear Rocks", "state": "PA", "lat": "40.1265", "lng": "-79.4651"}, {"name": "Frystown", "state": "PA", "lat": "40.4520", "lng": "-76.3326"}, {"name": "Hopwood", "state": "PA", "lat": "39.8773", "lng": "-79.7017"}, {"name": "Kutztown", "state": "PA", "lat": "40.5212", "lng": "-75.7772"}, {"name": "New Eagle", "state": "PA", "lat": "40.2064", "lng": "-79.9532"}, {"name": "Millerstown", "state": "PA", "lat": "40.5543", "lng": "-77.1530"}, {"name": "Wayne Heights", "state": "PA", "lat": "39.7455", "lng": "-77.5436"}, {"name": "West Reading", "state": "PA", "lat": "40.3337", "lng": "-75.9470"}, {"name": "Madisonburg", "state": "PA", "lat": "40.9283", "lng": "-77.5189"}, {"name": "Avonmore", "state": "PA", "lat": "40.5272", "lng": "-79.4694"}, {"name": "Kratzerville", "state": "PA", "lat": "40.8588", "lng": "-76.8939"}, {"name": "Barrville", "state": "PA", "lat": "40.6663", "lng": "-77.6831"}, {"name": "Catawissa", "state": "PA", "lat": "40.9531", "lng": "-76.4604"}, {"name": "Ellwood City", "state": "PA", "lat": "40.8619", "lng": "-80.2830"}, {"name": "Chalkhill", "state": "PA", "lat": "39.8461", "lng": "-79.6143"}, {"name": "Mechanicsburg", "state": "PA", "lat": "40.2115", "lng": "-77.0060"}, {"name": "McKnightstown", "state": "PA", "lat": "39.8701", "lng": "-77.3303"}, {"name": "New Morgan", "state": "PA", "lat": "40.1834", "lng": "-75.8896"}, {"name": "Avon", "state": "PA", "lat": "40.3429", "lng": "-76.3794"}, {"name": "Sandy Ridge", "state": "PA", "lat": "40.8105", "lng": "-78.2345"}, {"name": "Wall", "state": "PA", "lat": "40.3916", "lng": "-79.7859"}, {"name": "Northwest Harborcreek", "state": "PA", "lat": "42.1493", "lng": "-79.9946"}, {"name": "Wickerham Manor-Fisher", "state": "PA", "lat": "40.1771", "lng": "-79.9079"}, {"name": "Lansdale", "state": "PA", "lat": "40.2417", "lng": "-75.2812"}, {"name": "Harmonsburg", "state": "PA", "lat": "41.6656", "lng": "-80.3143"}, {"name": "Liverpool", "state": "PA", "lat": "40.5734", "lng": "-76.9924"}, {"name": "Baumstown", "state": "PA", "lat": "40.2777", "lng": "-75.8066"}, {"name": "Stroudsburg", "state": "PA", "lat": "40.9838", "lng": "-75.1972"}, {"name": "Utica", "state": "PA", "lat": "41.4361", "lng": "-79.9592"}, {"name": "Sunrise Lake", "state": "PA", "lat": "41.3136", "lng": "-74.9638"}, {"name": "Oneida", "state": "PA", "lat": "40.9052", "lng": "-76.1224"}, {"name": "Forty Fort", "state": "PA", "lat": "41.2843", "lng": "-75.8689"}, {"name": "Conyngham", "state": "PA", "lat": "40.9911", "lng": "-76.0595"}, {"name": "Heilwood", "state": "PA", "lat": "40.6322", "lng": "-78.8931"}, {"name": "Topton", "state": "PA", "lat": "40.5032", "lng": "-75.7024"}, {"name": "Sanatoga", "state": "PA", "lat": "40.2498", "lng": "-75.5886"}, {"name": "Knox", "state": "PA", "lat": "41.2346", "lng": "-79.5360"}, {"name": "Point Marion", "state": "PA", "lat": "39.7355", "lng": "-79.9008"}, {"name": "Lansdowne", "state": "PA", "lat": "39.9408", "lng": "-75.2760"}, {"name": "Blandon", "state": "PA", "lat": "40.4446", "lng": "-75.8799"}, {"name": "New Britain", "state": "PA", "lat": "40.2981", "lng": "-75.1807"}, {"name": "Galeton", "state": "PA", "lat": "41.7338", "lng": "-77.6454"}, {"name": "Stewartstown", "state": "PA", "lat": "39.7528", "lng": "-76.5925"}, {"name": "Pottstown", "state": "PA", "lat": "40.2507", "lng": "-75.6444"}, {"name": "Palmdale", "state": "PA", "lat": "40.2963", "lng": "-76.6233"}, {"name": "Eastlawn Gardens", "state": "PA", "lat": "40.7480", "lng": "-75.2913"}, {"name": "Brodheadsville", "state": "PA", "lat": "40.9267", "lng": "-75.4017"}, {"name": "Greensboro", "state": "PA", "lat": "39.7921", "lng": "-79.9127"}, {"name": "St. Marys", "state": "PA", "lat": "41.4574", "lng": "-78.5343"}, {"name": "S.N.P.J.", "state": "PA", "lat": "40.9298", "lng": "-80.4978"}, {"name": "Fort Indiantown Gap", "state": "PA", "lat": "40.4420", "lng": "-76.5971"}, {"name": "Ephrata", "state": "PA", "lat": "40.1811", "lng": "-76.1812"}, {"name": "Canadohta Lake", "state": "PA", "lat": "41.8176", "lng": "-79.8364"}, {"name": "Mahanoy City", "state": "PA", "lat": "40.8126", "lng": "-76.1382"}, {"name": "Centerport", "state": "PA", "lat": "40.4865", "lng": "-76.0056"}, {"name": "Seven Fields", "state": "PA", "lat": "40.6869", "lng": "-80.0639"}, {"name": "Laceyville", "state": "PA", "lat": "41.6458", "lng": "-76.1589"}, {"name": "Hopeland", "state": "PA", "lat": "40.2336", "lng": "-76.2615"}, {"name": "Gap", "state": "PA", "lat": "39.9891", "lng": "-76.0215"}, {"name": "Woodbourne", "state": "PA", "lat": "40.2017", "lng": "-74.8873"}]