[{"name": "Hope Valley", "state": "RI", "lat": "41.5151", "lng": "-71.7200"}, {"name": "Watch Hill", "state": "RI", "lat": "41.3157", "lng": "-71.8486"}, {"name": "Carolina", "state": "RI", "lat": "41.4625", "lng": "-71.6585"}, {"name": "Central Falls", "state": "RI", "lat": "41.8900", "lng": "-71.3934"}, {"name": "Quonochontaug", "state": "RI", "lat": "41.3447", "lng": "-71.7059"}, {"name": "Clayville", "state": "RI", "lat": "41.7734", "lng": "-71.6854"}, {"name": "Newport", "state": "RI", "lat": "41.4803", "lng": "-71.3205"}, {"name": "Melville", "state": "RI", "lat": "41.5587", "lng": "-71.2953"}, {"name": "Wyoming", "state": "RI", "lat": "41.5143", "lng": "-71.6903"}, {"name": "Wakefield-Peacedale", "state": "RI", "lat": "41.4461", "lng": "-71.5004"}, {"name": "East Providence", "state": "RI", "lat": "41.8065", "lng": "-71.3565"}, {"name": "Misquamicut", "state": "RI", "lat": "41.3237", "lng": "-71.8220"}, {"name": "Greene", "state": "RI", "lat": "41.6988", "lng": "-71.7339"}, {"name": "Greenville", "state": "RI", "lat": "41.8800", "lng": "-71.5549"}, {"name": "Providence", "state": "RI", "lat": "41.8230", "lng": "-71.4187"}, {"name": "Cranston", "state": "RI", "lat": "41.7658", "lng": "-71.4858"}, {"name": "Harrisville", "state": "RI", "lat": "41.9687", "lng": "-71.6768"}, {"name": "Cumberland Hill", "state": "RI", "lat": "41.9736", "lng": "-71.4605"}, {"name": "Valley Falls", "state": "RI", "lat": "41.9234", "lng": "-71.3923"}, {"name": "Pascoag", "state": "RI", "lat": "41.9518", "lng": "-71.7041"}, {"name": "Warwick", "state": "RI", "lat": "41.7062", "lng": "-71.4334"}, {"name": "Bradford", "state": "RI", "lat": "41.3944", "lng": "-71.7542"}, {"name": "Kingston", "state": "RI", "lat": "41.4738", "lng": "-71.5236"}, {"name": "Weekapaug", "state": "RI", "lat": "41.3359", "lng": "-71.7633"}, {"name": "Chepachet", "state": "RI", "lat": "41.9105", "lng": "-71.6653"}, {"name": "Woonsocket", "state": "RI", "lat": "42.0010", "lng": "-71.4993"}, {"name": "Pawtucket", "state": "RI", "lat": "41.8744", "lng": "-71.3743"}, {"name": "Ashaway", "state": "RI", "lat": "41.4259", "lng": "-71.7852"}, {"name": "Harmony", "state": "RI", "lat": "41.8964", "lng": "-71.6052"}, {"name": "Foster Center", "state": "RI", "lat": "41.7898", "lng": "-71.7327"}, {"name": "Narragansett Pier", "state": "RI", "lat": "41.4280", "lng": "-71.4670"}, {"name": "Newport East", "state": "RI", "lat": "41.5158", "lng": "-71.2878"}]