[{"name": "Trenton", "state": "SC", "lat": "33.7401", "lng": "-81.8404"}, {"name": "Monetta", "state": "SC", "lat": "33.8497", "lng": "-81.6097"}, {"name": "Wade Hampton", "state": "SC", "lat": "34.8821", "lng": "-82.3336"}, {"name": "Gloverville", "state": "SC", "lat": "33.5274", "lng": "-81.8145"}, {"name": "Elloree", "state": "SC", "lat": "33.5301", "lng": "-80.5712"}, {"name": "Fairfax", "state": "SC", "lat": "32.9593", "lng": "-81.2363"}, {"name": "Ware Place", "state": "SC", "lat": "34.6266", "lng": "-82.3881"}, {"name": "Bethune", "state": "SC", "lat": "34.4143", "lng": "-80.3487"}, {"name": "Cross Anchor", "state": "SC", "lat": "34.6439", "lng": "-81.8584"}, {"name": "Donalds", "state": "SC", "lat": "34.3766", "lng": "-82.3467"}, {"name": "Ravenel", "state": "SC", "lat": "32.7768", "lng": "-80.2272"}, {"name": "Pomaria", "state": "SC", "lat": "34.2681", "lng": "-81.4196"}, {"name": "Johnsonville", "state": "SC", "lat": "33.8149", "lng": "-79.4444"}, {"name": "Tatum", "state": "SC", "lat": "34.6438", "lng": "-79.5867"}, {"name": "Reidville", "state": "SC", "lat": "34.8660", "lng": "-82.1050"}, {"name": "Great Falls", "state": "SC", "lat": "34.5753", "lng": "-80.9048"}, {"name": "Burnettown", "state": "SC", "lat": "33.5187", "lng": "-81.8634"}, {"name": "Ward", "state": "SC", "lat": "33.8573", "lng": "-81.7313"}, {"name": "Arcadia", "state": "SC", "lat": "34.9609", "lng": "-81.9929"}, {"name": "Goose Creek", "state": "SC", "lat": "32.9922", "lng": "-80.0052"}, {"name": "Sellers", "state": "SC", "lat": "34.2823", "lng": "-79.4723"}, {"name": "Vance", "state": "SC", "lat": "33.4366", "lng": "-80.4200"}, {"name": "Ladson", "state": "SC", "lat": "33.0093", "lng": "-80.1078"}, {"name": "Greer", "state": "SC", "lat": "34.9315", "lng": "-82.2316"}, {"name": "Lockhart", "state": "SC", "lat": "34.7922", "lng": "-81.4614"}, {"name": "Forest Acres", "state": "SC", "lat": "34.0324", "lng": "-80.9717"}, {"name": "Simpsonville", "state": "SC", "lat": "34.7291", "lng": "-82.2572"}, {"name": "Barnwell", "state": "SC", "lat": "33.2419", "lng": "-81.3659"}, {"name": "Furman", "state": "SC", "lat": "32.6812", "lng": "-81.1877"}, {"name": "Easley", "state": "SC", "lat": "34.8190", "lng": "-82.5828"}, {"name": "Cayce", "state": "SC", "lat": "33.9458", "lng": "-81.0433"}, {"name": "Rockville", "state": "SC", "lat": "32.6024", "lng": "-80.1935"}, {"name": "Bennettsville", "state": "SC", "lat": "34.6304", "lng": "-79.6874"}, {"name": "Sharon", "state": "SC", "lat": "34.9520", "lng": "-81.3436"}, {"name": "Surfside Beach", "state": "SC", "lat": "33.6092", "lng": "-78.9772"}, {"name": "Pelzer", "state": "SC", "lat": "34.6433", "lng": "-82.4588"}, {"name": "Summerton", "state": "SC", "lat": "33.6013", "lng": "-80.3527"}, {"name": "Jacksonboro", "state": "SC", "lat": "32.7718", "lng": "-80.4770"}, {"name": "Awendaw", "state": "SC", "lat": "32.9824", "lng": "-79.6460"}, {"name": "Hollywood", "state": "SC", "lat": "32.7524", "lng": "-80.2105"}, {"name": "Golden Grove", "state": "SC", "lat": "34.7324", "lng": "-82.4408"}, {"name": "Princeton", "state": "SC", "lat": "34.4912", "lng": "-82.2957"}, {"name": "Coward", "state": "SC", "lat": "33.9721", "lng": "-79.7490"}, {"name": "Sycamore", "state": "SC", "lat": "33.0362", "lng": "-81.2223"}, {"name": "Lincolnville", "state": "SC", "lat": "33.0079", "lng": "-80.1560"}, {"name": "Fort Lawn", "state": "SC", "lat": "34.7003", "lng": "-80.8991"}, {"name": "Ulmer", "state": "SC", "lat": "33.0986", "lng": "-81.2080"}, {"name": "Fingerville", "state": "SC", "lat": "35.1351", "lng": "-82.0003"}, {"name": "Folly Beach", "state": "SC", "lat": "32.6692", "lng": "-79.9500"}, {"name": "Walhalla", "state": "SC", "lat": "34.7704", "lng": "-83.0615"}, {"name": "Brookdale", "state": "SC", "lat": "33.5183", "lng": "-80.8333"}, {"name": "North Hartsville", "state": "SC", "lat": "34.4010", "lng": "-80.0710"}, {"name": "North Charleston", "state": "SC", "lat": "32.9067", "lng": "-80.0722"}, {"name": "Liberty", "state": "SC", "lat": "34.7904", "lng": "-82.6962"}, {"name": "Fair Play", "state": "SC", "lat": "34.5077", "lng": "-82.9862"}, {"name": "Lodge", "state": "SC", "lat": "33.0678", "lng": "-80.9537"}, {"name": "Pickens", "state": "SC", "lat": "34.8857", "lng": "-82.7103"}, {"name": "Modoc", "state": "SC", "lat": "33.7192", "lng": "-82.2173"}, {"name": "Lexington", "state": "SC", "lat": "33.9891", "lng": "-81.2195"}, {"name": "Pamplico", "state": "SC", "lat": "33.9957", "lng": "-79.5697"}, {"name": "Olanta", "state": "SC", "lat": "33.9357", "lng": "-79.9320"}, {"name": "Lancaster", "state": "SC", "lat": "34.7247", "lng": "-80.7802"}, {"name": "Arcadia Lakes", "state": "SC", "lat": "34.0536", "lng": "-80.9615"}, {"name": "Bonneau Beach", "state": "SC", "lat": "33.3229", "lng": "-79.9899"}, {"name": "Lamar", "state": "SC", "lat": "34.1695", "lng": "-80.0649"}, {"name": "Society Hill", "state": "SC", "lat": "34.5098", "lng": "-79.8539"}, {"name": "Stateburg", "state": "SC", "lat": "33.9753", "lng": "-80.5264"}, {"name": "St. George", "state": "SC", "lat": "33.1860", "lng": "-80.5794"}, {"name": "Lake Secession", "state": "SC", "lat": "34.2821", "lng": "-82.5908"}, {"name": "Willington", "state": "SC", "lat": "33.9687", "lng": "-82.4576"}, {"name": "Union", "state": "SC", "lat": "34.7234", "lng": "-81.6247"}, {"name": "Blenheim", "state": "SC", "lat": "34.5098", "lng": "-79.6525"}, {"name": "Woodruff", "state": "SC", "lat": "34.7397", "lng": "-82.0323"}, {"name": "Oswego", "state": "SC", "lat": "34.0056", "lng": "-80.2862"}, {"name": "Moncks Corner", "state": "SC", "lat": "33.1714", "lng": "-80.0122"}, {"name": "Lake View", "state": "SC", "lat": "34.3406", "lng": "-79.1663"}, {"name": "Paxville", "state": "SC", "lat": "33.7390", "lng": "-80.3586"}, {"name": "Meggett", "state": "SC", "lat": "32.6971", "lng": "-80.2731"}, {"name": "Edisto", "state": "SC", "lat": "33.4776", "lng": "-80.8998"}, {"name": "Laurel Bay", "state": "SC", "lat": "32.4599", "lng": "-80.7869"}, {"name": "Fairforest", "state": "SC", "lat": "34.9532", "lng": "-82.0157"}, {"name": "Briarcliffe Acres", "state": "SC", "lat": "33.7899", "lng": "-78.7490"}, {"name": "Mayo", "state": "SC", "lat": "35.0857", "lng": "-81.8535"}, {"name": "Five Forks", "state": "SC", "lat": "34.8069", "lng": "-82.2271"}, {"name": "Timmonsville", "state": "SC", "lat": "34.1334", "lng": "-79.9408"}, {"name": "Central Pacolet", "state": "SC", "lat": "34.9096", "lng": "-81.7526"}, {"name": "Judson", "state": "SC", "lat": "34.8335", "lng": "-82.4272"}, {"name": "Gramling", "state": "SC", "lat": "35.0782", "lng": "-82.1333"}, {"name": "Sangaree", "state": "SC", "lat": "33.0328", "lng": "-80.1253"}, {"name": "Anderson", "state": "SC", "lat": "34.5212", "lng": "-82.6478"}, {"name": "Clifton", "state": "SC", "lat": "34.9846", "lng": "-81.8222"}, {"name": "Wellford", "state": "SC", "lat": "34.9614", "lng": "-82.0921"}, {"name": "Port Royal", "state": "SC", "lat": "32.3557", "lng": "-80.7027"}, {"name": "Riverview", "state": "SC", "lat": "35.0108", "lng": "-80.9843"}, {"name": "Clarks Hill", "state": "SC", "lat": "33.6582", "lng": "-82.1660"}, {"name": "Irmo", "state": "SC", "lat": "34.1016", "lng": "-81.1953"}, {"name": "Welcome", "state": "SC", "lat": "34.8204", "lng": "-82.4600"}, {"name": "James Island", "state": "SC", "lat": "32.7353", "lng": "-79.9396"}, {"name": "Jonesville", "state": "SC", "lat": "34.8348", "lng": "-81.6811"}, {"name": "Ninety Six", "state": "SC", "lat": "34.1696", "lng": "-82.0240"}, {"name": "Santee", "state": "SC", "lat": "33.4802", "lng": "-80.4852"}, {"name": "Williamston", "state": "SC", "lat": "34.6194", "lng": "-82.4794"}, {"name": "Little Mountain", "state": "SC", "lat": "34.1969", "lng": "-81.4126"}, {"name": "North Augusta", "state": "SC", "lat": "33.5214", "lng": "-81.9547"}, {"name": "Norris", "state": "SC", "lat": "34.7661", "lng": "-82.7525"}, {"name": "Islandton", "state": "SC", "lat": "32.9093", "lng": "-80.9359"}, {"name": "Powdersville", "state": "SC", "lat": "34.7825", "lng": "-82.4958"}, {"name": "Orangeburg", "state": "SC", "lat": "33.4928", "lng": "-80.8671"}, {"name": "McClellanville", "state": "SC", "lat": "33.0865", "lng": "-79.4680"}, {"name": "Boykin", "state": "SC", "lat": "34.1198", "lng": "-80.5886"}, {"name": "McCormick", "state": "SC", "lat": "33.9128", "lng": "-82.2876"}, {"name": "Northlake", "state": "SC", "lat": "34.5691", "lng": "-82.6837"}, {"name": "Chapin", "state": "SC", "lat": "34.1645", "lng": "-81.3449"}, {"name": "Privateer", "state": "SC", "lat": "33.8169", "lng": "-80.3947"}, {"name": "Catawba", "state": "SC", "lat": "34.8464", "lng": "-80.9061"}, {"name": "Campobello", "state": "SC", "lat": "35.1225", "lng": "-82.1495"}, {"name": "Abbeville", "state": "SC", "lat": "34.1787", "lng": "-82.3774"}, {"name": "Cowpens", "state": "SC", "lat": "35.0188", "lng": "-81.8043"}, {"name": "Gaston", "state": "SC", "lat": "33.8180", "lng": "-81.0997"}, {"name": "Smyrna", "state": "SC", "lat": "35.0420", "lng": "-81.4094"}, {"name": "Dunean", "state": "SC", "lat": "34.8203", "lng": "-82.4225"}, {"name": "Tigerville", "state": "SC", "lat": "35.0669", "lng": "-82.3695"}, {"name": "Mountville", "state": "SC", "lat": "34.3664", "lng": "-81.9759"}, {"name": "Springfield", "state": "SC", "lat": "33.4967", "lng": "-81.2795"}, {"name": "Latta", "state": "SC", "lat": "34.3390", "lng": "-79.4337"}, {"name": "Irwin", "state": "SC", "lat": "34.6942", "lng": "-80.8198"}, {"name": "Newry", "state": "SC", "lat": "34.7240", "lng": "-82.9141"}, {"name": "Wallace", "state": "SC", "lat": "34.7201", "lng": "-79.8479"}, {"name": "Winnsboro", "state": "SC", "lat": "34.3718", "lng": "-81.0907"}, {"name": "Saxon", "state": "SC", "lat": "34.9616", "lng": "-81.9713"}, {"name": "Norway", "state": "SC", "lat": "33.4503", "lng": "-81.1265"}, {"name": "Ridgeland", "state": "SC", "lat": "32.4681", "lng": "-80.9178"}, {"name": "Neeses", "state": "SC", "lat": "33.5365", "lng": "-81.1243"}, {"name": "Bradley", "state": "SC", "lat": "34.0391", "lng": "-82.2435"}, {"name": "Warrenville", "state": "SC", "lat": "33.5461", "lng": "-81.7990"}, {"name": "Aynor", "state": "SC", "lat": "34.0001", "lng": "-79.2071"}, {"name": "Carlisle", "state": "SC", "lat": "34.5921", "lng": "-81.4645"}, {"name": "Jackson", "state": "SC", "lat": "33.3284", "lng": "-81.7925"}, {"name": "Antreville", "state": "SC", "lat": "34.2971", "lng": "-82.5541"}, {"name": "Clover", "state": "SC", "lat": "35.1123", "lng": "-81.2201"}, {"name": "Livingston", "state": "SC", "lat": "33.5533", "lng": "-81.1199"}, {"name": "Charleston", "state": "SC", "lat": "32.8151", "lng": "-79.9630"}, {"name": "West Columbia", "state": "SC", "lat": "33.9928", "lng": "-81.0925"}, {"name": "McColl", "state": "SC", "lat": "34.6665", "lng": "-79.5447"}, {"name": "Travelers Rest", "state": "SC", "lat": "34.9684", "lng": "-82.4417"}, {"name": "Williams", "state": "SC", "lat": "33.0341", "lng": "-80.8428"}, {"name": "Shell Point", "state": "SC", "lat": "32.3744", "lng": "-80.7523"}, {"name": "Cope", "state": "SC", "lat": "33.3777", "lng": "-81.0079"}, {"name": "Newberry", "state": "SC", "lat": "34.2822", "lng": "-81.6012"}, {"name": "Greenwood", "state": "SC", "lat": "34.1945", "lng": "-82.1542"}, {"name": "Mount Croghan", "state": "SC", "lat": "34.7697", "lng": "-80.2264"}, {"name": "Heath Springs", "state": "SC", "lat": "34.5931", "lng": "-80.6750"}, {"name": "Isle of Palms", "state": "SC", "lat": "32.8043", "lng": "-79.7552"}, {"name": "Murrells Inlet", "state": "SC", "lat": "33.5567", "lng": "-79.0591"}, {"name": "Windsor", "state": "SC", "lat": "33.4809", "lng": "-81.5135"}, {"name": "Prosperity", "state": "SC", "lat": "34.2117", "lng": "-81.5335"}, {"name": "Clearwater", "state": "SC", "lat": "33.5038", "lng": "-81.9100"}, {"name": "Jefferson", "state": "SC", "lat": "34.6512", "lng": "-80.3866"}, {"name": "Converse", "state": "SC", "lat": "34.9940", "lng": "-81.8421"}, {"name": "Wedgefield", "state": "SC", "lat": "33.8829", "lng": "-80.5157"}, {"name": "Eutawville", "state": "SC", "lat": "33.3977", "lng": "-80.3430"}, {"name": "North Myrtle Beach", "state": "SC", "lat": "33.8230", "lng": "-78.7090"}, {"name": "Due West", "state": "SC", "lat": "34.3335", "lng": "-82.3886"}, {"name": "Smoaks", "state": "SC", "lat": "33.0895", "lng": "-80.8142"}, {"name": "Bucksport", "state": "SC", "lat": "33.6706", "lng": "-79.1102"}, {"name": "Troy", "state": "SC", "lat": "33.9880", "lng": "-82.2975"}, {"name": "Williston", "state": "SC", "lat": "33.4018", "lng": "-81.4220"}, {"name": "Silverstreet", "state": "SC", "lat": "34.2177", "lng": "-81.7146"}, {"name": "Monarch Mill", "state": "SC", "lat": "34.7162", "lng": "-81.5847"}, {"name": "Jenkinsville", "state": "SC", "lat": "34.3129", "lng": "-81.2874"}, {"name": "Coronaca", "state": "SC", "lat": "34.2595", "lng": "-82.0969"}, {"name": "Loris", "state": "SC", "lat": "34.0575", "lng": "-78.8876"}, {"name": "Tega Cay", "state": "SC", "lat": "35.0390", "lng": "-81.0111"}, {"name": "Gantt", "state": "SC", "lat": "34.7837", "lng": "-82.4027"}, {"name": "Seneca", "state": "SC", "lat": "34.6816", "lng": "-82.9609"}, {"name": "Lake Wylie", "state": "SC", "lat": "35.0997", "lng": "-81.0677"}, {"name": "Lyman", "state": "SC", "lat": "34.9660", "lng": "-82.1230"}, {"name": "Cokesbury", "state": "SC", "lat": "34.2900", "lng": "-82.2088"}, {"name": "Elgin", "state": "SC", "lat": "34.1702", "lng": "-80.7930"}, {"name": "Iva", "state": "SC", "lat": "34.3070", "lng": "-82.6636"}, {"name": "Centerville", "state": "SC", "lat": "34.5256", "lng": "-82.7161"}, {"name": "Yemassee", "state": "SC", "lat": "32.6688", "lng": "-80.8493"}, {"name": "Russellville", "state": "SC", "lat": "33.3970", "lng": "-79.9637"}, {"name": "West Pelzer", "state": "SC", "lat": "34.6451", "lng": "-82.4737"}, {"name": "Wilkinson Heights", "state": "SC", "lat": "33.4919", "lng": "-80.8285"}, {"name": "Sans Souci", "state": "SC", "lat": "34.8901", "lng": "-82.4241"}, {"name": "Lugoff", "state": "SC", "lat": "34.2216", "lng": "-80.6849"}, {"name": "Patrick", "state": "SC", "lat": "34.5752", "lng": "-80.0445"}, {"name": "Gaffney", "state": "SC", "lat": "35.0742", "lng": "-81.6558"}, {"name": "Woodfield", "state": "SC", "lat": "34.0587", "lng": "-80.9309"}, {"name": "Watts Mills", "state": "SC", "lat": "34.5164", "lng": "-81.9857"}, {"name": "Saluda", "state": "SC", "lat": "34.0009", "lng": "-81.7713"}, {"name": "Central", "state": "SC", "lat": "34.7234", "lng": "-82.7788"}, {"name": "Hopkins", "state": "SC", "lat": "33.8983", "lng": "-80.8600"}, {"name": "Gray Court", "state": "SC", "lat": "34.6079", "lng": "-82.1144"}, {"name": "Salley", "state": "SC", "lat": "33.5678", "lng": "-81.3037"}, {"name": "India Hook", "state": "SC", "lat": "35.0142", "lng": "-81.0377"}, {"name": "Johnston", "state": "SC", "lat": "33.8327", "lng": "-81.8051"}, {"name": "Mayesville", "state": "SC", "lat": "33.9849", "lng": "-80.2044"}, {"name": "Roebuck", "state": "SC", "lat": "34.8788", "lng": "-81.9646"}, {"name": "Hilton Head Island", "state": "SC", "lat": "32.1896", "lng": "-80.7499"}, {"name": "Burton", "state": "SC", "lat": "32.4233", "lng": "-80.7454"}, {"name": "Lesslie", "state": "SC", "lat": "34.8856", "lng": "-80.9541"}, {"name": "Starr", "state": "SC", "lat": "34.3774", "lng": "-82.6954"}, {"name": "Kingstree", "state": "SC", "lat": "33.6665", "lng": "-79.8293"}, {"name": "Little River", "state": "SC", "lat": "33.8787", "lng": "-78.6393"}, {"name": "Pine Ridge", "state": "SC", "lat": "33.9084", "lng": "-81.0975"}, {"name": "Salem", "state": "SC", "lat": "34.8879", "lng": "-82.9752"}, {"name": "Lowndesville", "state": "SC", "lat": "34.2099", "lng": "-82.6476"}, {"name": "Ehrhardt", "state": "SC", "lat": "33.0985", "lng": "-81.0138"}, {"name": "Peak", "state": "SC", "lat": "34.2365", "lng": "-81.3295"}, {"name": "Scranton", "state": "SC", "lat": "33.9174", "lng": "-79.7441"}, {"name": "South Congaree", "state": "SC", "lat": "33.9094", "lng": "-81.1375"}, {"name": "Cameron", "state": "SC", "lat": "33.5579", "lng": "-80.7150"}, {"name": "Ruby", "state": "SC", "lat": "34.7461", "lng": "-80.1799"}, {"name": "Seabrook Island", "state": "SC", "lat": "32.5825", "lng": "-80.1736"}, {"name": "Southern Shops", "state": "SC", "lat": "34.9846", "lng": "-81.9934"}, {"name": "Lakewood", "state": "SC", "lat": "33.8429", "lng": "-80.3492"}, {"name": "Hodges", "state": "SC", "lat": "34.2876", "lng": "-82.2480"}, {"name": "Atlantic Beach", "state": "SC", "lat": "33.8035", "lng": "-78.7177"}, {"name": "Marion", "state": "SC", "lat": "34.1787", "lng": "-79.3966"}, {"name": "Belton", "state": "SC", "lat": "34.5237", "lng": "-82.4937"}, {"name": "Greenville", "state": "SC", "lat": "34.8362", "lng": "-82.3649"}, {"name": "Lowrys", "state": "SC", "lat": "34.8040", "lng": "-81.2373"}, {"name": "Andrews", "state": "SC", "lat": "33.4494", "lng": "-79.5659"}, {"name": "Summerville", "state": "SC", "lat": "33.0016", "lng": "-80.1795"}, {"name": "Boiling Springs", "state": "SC", "lat": "35.0450", "lng": "-81.9779"}, {"name": "Florence", "state": "SC", "lat": "34.1782", "lng": "-79.7872"}, {"name": "New Ellenton", "state": "SC", "lat": "33.4198", "lng": "-81.6825"}, {"name": "Valley Falls", "state": "SC", "lat": "35.0073", "lng": "-81.9692"}, {"name": "Scotia", "state": "SC", "lat": "32.6805", "lng": "-81.2433"}, {"name": "Fountain Inn", "state": "SC", "lat": "34.6995", "lng": "-82.1999"}, {"name": "Stuckey", "state": "SC", "lat": "33.7322", "lng": "-79.5132"}, {"name": "Dalzell", "state": "SC", "lat": "34.0189", "lng": "-80.4299"}, {"name": "Batesburg-Leesville", "state": "SC", "lat": "33.9124", "lng": "-81.5312"}, {"name": "Langley", "state": "SC", "lat": "33.5120", "lng": "-81.8343"}, {"name": "Pinopolis", "state": "SC", "lat": "33.2286", "lng": "-80.0385"}, {"name": "Eastover", "state": "SC", "lat": "33.8779", "lng": "-80.6950"}, {"name": "Varnville", "state": "SC", "lat": "32.8521", "lng": "-81.0802"}, {"name": "Pinewood", "state": "SC", "lat": "33.7396", "lng": "-80.4620"}, {"name": "Darlington", "state": "SC", "lat": "34.3015", "lng": "-79.8672"}, {"name": "Arial", "state": "SC", "lat": "34.8462", "lng": "-82.6404"}, {"name": "McConnells", "state": "SC", "lat": "34.8695", "lng": "-81.2266"}, {"name": "Socastee", "state": "SC", "lat": "33.6871", "lng": "-79.0086"}, {"name": "Gifford", "state": "SC", "lat": "32.8600", "lng": "-81.2385"}, {"name": "Berea", "state": "SC", "lat": "34.8802", "lng": "-82.4653"}, {"name": "Perry", "state": "SC", "lat": "33.6277", "lng": "-81.3086"}, {"name": "St. Matthews", "state": "SC", "lat": "33.6640", "lng": "-80.7780"}, {"name": "Red Hill", "state": "SC", "lat": "33.7778", "lng": "-79.0111"}, {"name": "Mount Pleasant", "state": "SC", "lat": "32.8533", "lng": "-79.8269"}, {"name": "Newport", "state": "SC", "lat": "34.9832", "lng": "-81.0992"}, {"name": "Dentsville", "state": "SC", "lat": "34.0754", "lng": "-80.9546"}, {"name": "Piedmont", "state": "SC", "lat": "34.7074", "lng": "-82.4651"}, {"name": "Hickory Grove", "state": "SC", "lat": "34.9785", "lng": "-81.4181"}, {"name": "Kline", "state": "SC", "lat": "33.1252", "lng": "-81.3426"}, {"name": "Gadsden", "state": "SC", "lat": "33.8480", "lng": "-80.7663"}, {"name": "Chester", "state": "SC", "lat": "34.7050", "lng": "-81.2132"}, {"name": "City View", "state": "SC", "lat": "34.8620", "lng": "-82.4249"}, {"name": "Duncan", "state": "SC", "lat": "34.9369", "lng": "-82.1404"}, {"name": "Inman Mills", "state": "SC", "lat": "35.0410", "lng": "-82.1022"}, {"name": "Lake Murray of Richland", "state": "SC", "lat": "34.1209", "lng": "-81.2653"}, {"name": "Edgefield", "state": "SC", "lat": "33.7871", "lng": "-81.9292"}, {"name": "Graniteville", "state": "SC", "lat": "33.5646", "lng": "-81.8079"}, {"name": "Manning", "state": "SC", "lat": "33.6933", "lng": "-80.2168"}, {"name": "Six Mile", "state": "SC", "lat": "34.8082", "lng": "-82.8154"}, {"name": "Kiawah Island", "state": "SC", "lat": "32.6159", "lng": "-80.0607"}, {"name": "Swansea", "state": "SC", "lat": "33.7396", "lng": "-81.1053"}, {"name": "Bluffton", "state": "SC", "lat": "32.2135", "lng": "-80.9316"}, {"name": "Cross Hill", "state": "SC", "lat": "34.3045", "lng": "-81.9836"}, {"name": "Seven Oaks", "state": "SC", "lat": "34.0474", "lng": "-81.1434"}, {"name": "Rembert", "state": "SC", "lat": "34.1037", "lng": "-80.5305"}, {"name": "Ridgeville", "state": "SC", "lat": "33.0900", "lng": "-80.3071"}, {"name": "Bishopville", "state": "SC", "lat": "34.2202", "lng": "-80.2483"}, {"name": "Pendleton", "state": "SC", "lat": "34.6453", "lng": "-82.7822"}, {"name": "Luray", "state": "SC", "lat": "32.8142", "lng": "-81.2403"}, {"name": "Quinby", "state": "SC", "lat": "34.2282", "lng": "-79.7358"}, {"name": "Fort Mill", "state": "SC", "lat": "35.0062", "lng": "-80.9388"}, {"name": "West Union", "state": "SC", "lat": "34.7589", "lng": "-83.0431"}, {"name": "Snelling", "state": "SC", "lat": "33.2416", "lng": "-81.4622"}, {"name": "Chesterfield", "state": "SC", "lat": "34.7330", "lng": "-80.0780"}, {"name": "Pacolet", "state": "SC", "lat": "34.9033", "lng": "-81.7628"}, {"name": "Calhoun Falls", "state": "SC", "lat": "34.0933", "lng": "-82.5963"}, {"name": "Pawleys Island", "state": "SC", "lat": "33.4270", "lng": "-79.1245"}, {"name": "Greeleyville", "state": "SC", "lat": "33.5801", "lng": "-79.9901"}, {"name": "Honea Path", "state": "SC", "lat": "34.4476", "lng": "-82.3950"}, {"name": "Mount Carmel", "state": "SC", "lat": "34.0185", "lng": "-82.5044"}, {"name": "Clinton", "state": "SC", "lat": "34.4777", "lng": "-81.8636"}, {"name": "Hemingway", "state": "SC", "lat": "33.7533", "lng": "-79.4462"}, {"name": "Enoree", "state": "SC", "lat": "34.6593", "lng": "-81.9609"}, {"name": "Ware Shoals", "state": "SC", "lat": "34.3922", "lng": "-82.2421"}, {"name": "Elko", "state": "SC", "lat": "33.3807", "lng": "-81.3805"}, {"name": "Mulberry", "state": "SC", "lat": "33.9565", "lng": "-80.3315"}, {"name": "Lydia", "state": "SC", "lat": "34.2866", "lng": "-80.1185"}, {"name": "Beaufort", "state": "SC", "lat": "32.4606", "lng": "-80.7245"}, {"name": "Govan", "state": "SC", "lat": "33.2227", "lng": "-81.1748"}, {"name": "Estill", "state": "SC", "lat": "32.7538", "lng": "-81.2412"}, {"name": "Bonneau", "state": "SC", "lat": "33.3081", "lng": "-79.9573"}, {"name": "Lane", "state": "SC", "lat": "33.5251", "lng": "-79.8797"}, {"name": "Summit", "state": "SC", "lat": "33.9246", "lng": "-81.4226"}, {"name": "Buffalo", "state": "SC", "lat": "34.7245", "lng": "-81.6843"}, {"name": "Hampton", "state": "SC", "lat": "32.8676", "lng": "-81.1092"}, {"name": "Hilda", "state": "SC", "lat": "33.2740", "lng": "-81.2466"}, {"name": "Wagener", "state": "SC", "lat": "33.6521", "lng": "-81.3636"}, {"name": "Sumter", "state": "SC", "lat": "33.9392", "lng": "-80.3930"}, {"name": "Nichols", "state": "SC", "lat": "34.2352", "lng": "-79.1492"}, {"name": "Oak Grove", "state": "SC", "lat": "33.9809", "lng": "-81.1438"}, {"name": "Olar", "state": "SC", "lat": "33.1799", "lng": "-81.1854"}, {"name": "Eureka Mill", "state": "SC", "lat": "34.7180", "lng": "-81.1930"}, {"name": "Kershaw", "state": "SC", "lat": "34.5462", "lng": "-80.5873"}, {"name": "Cordova", "state": "SC", "lat": "33.4345", "lng": "-80.9211"}, {"name": "Slater-Marietta", "state": "SC", "lat": "35.0348", "lng": "-82.4927"}, {"name": "Whitmire", "state": "SC", "lat": "34.5041", "lng": "-81.6144"}, {"name": "Springdale", "state": "SC", "lat": "33.9616", "lng": "-81.1119"}, {"name": "Lake City", "state": "SC", "lat": "33.8676", "lng": "-79.7533"}, {"name": "Spartanburg", "state": "SC", "lat": "34.9437", "lng": "-81.9256"}, {"name": "Startex", "state": "SC", "lat": "34.9309", "lng": "-82.0941"}, {"name": "Blacksburg", "state": "SC", "lat": "35.1221", "lng": "-81.5182"}, {"name": "Promised Land", "state": "SC", "lat": "34.1276", "lng": "-82.2307"}, {"name": "Inman", "state": "SC", "lat": "35.0468", "lng": "-82.0914"}, {"name": "Taylors", "state": "SC", "lat": "34.9157", "lng": "-82.3124"}, {"name": "Aiken", "state": "SC", "lat": "33.5304", "lng": "-81.7270"}, {"name": "Reevesville", "state": "SC", "lat": "33.2021", "lng": "-80.6456"}, {"name": "Blythewood", "state": "SC", "lat": "34.2121", "lng": "-80.9921"}, {"name": "Harleyville", "state": "SC", "lat": "33.2126", "lng": "-80.4478"}, {"name": "Winnsboro Mills", "state": "SC", "lat": "34.3561", "lng": "-81.0709"}, {"name": "Camden", "state": "SC", "lat": "34.2565", "lng": "-80.6087"}, {"name": "Hanahan", "state": "SC", "lat": "32.9302", "lng": "-80.0031"}, {"name": "South Sumter", "state": "SC", "lat": "33.8855", "lng": "-80.3378"}, {"name": "Jamestown", "state": "SC", "lat": "33.2859", "lng": "-79.6945"}, {"name": "York", "state": "SC", "lat": "34.9967", "lng": "-81.2340"}, {"name": "Murphys Estates", "state": "SC", "lat": "33.6003", "lng": "-81.9439"}, {"name": "Lynchburg", "state": "SC", "lat": "34.0600", "lng": "-80.0770"}, {"name": "Waterloo", "state": "SC", "lat": "34.3562", "lng": "-82.0571"}, {"name": "Bowman", "state": "SC", "lat": "33.3483", "lng": "-80.6844"}, {"name": "Georgetown", "state": "SC", "lat": "33.3595", "lng": "-79.2958"}, {"name": "St. Stephen", "state": "SC", "lat": "33.4046", "lng": "-79.9264"}, {"name": "Woodford", "state": "SC", "lat": "33.6687", "lng": "-81.1120"}, {"name": "Forestbrook", "state": "SC", "lat": "33.7243", "lng": "-78.9678"}, {"name": "Clemson", "state": "SC", "lat": "34.6838", "lng": "-82.8124"}, {"name": "Clio", "state": "SC", "lat": "34.5791", "lng": "-79.5461"}, {"name": "Hardeeville", "state": "SC", "lat": "32.2950", "lng": "-81.0318"}, {"name": "Red Bank", "state": "SC", "lat": "33.9296", "lng": "-81.2321"}, {"name": "Laurens", "state": "SC", "lat": "34.5022", "lng": "-82.0207"}, {"name": "Pelion", "state": "SC", "lat": "33.7749", "lng": "-81.2502"}, {"name": "Parker", "state": "SC", "lat": "34.8514", "lng": "-82.4512"}, {"name": "Cottageville", "state": "SC", "lat": "32.9362", "lng": "-80.4803"}, {"name": "Cane Savannah", "state": "SC", "lat": "33.8923", "lng": "-80.4395"}, {"name": "Denmark", "state": "SC", "lat": "33.3152", "lng": "-81.1366"}, {"name": "Glendale", "state": "SC", "lat": "34.9451", "lng": "-81.8364"}, {"name": "Joanna", "state": "SC", "lat": "34.4149", "lng": "-81.8086"}, {"name": "Chesnee", "state": "SC", "lat": "35.1459", "lng": "-81.8627"}, {"name": "Dillon", "state": "SC", "lat": "34.4230", "lng": "-79.3690"}, {"name": "Plum Branch", "state": "SC", "lat": "33.8481", "lng": "-82.2587"}, {"name": "Gilbert", "state": "SC", "lat": "33.9245", "lng": "-81.3928"}, {"name": "Edisto Beach", "state": "SC", "lat": "32.4922", "lng": "-80.3239"}, {"name": "Oakland", "state": "SC", "lat": "33.9868", "lng": "-80.4972"}, {"name": "East Sumter", "state": "SC", "lat": "33.9261", "lng": "-80.2950"}, {"name": "Mullins", "state": "SC", "lat": "34.2042", "lng": "-79.2535"}, {"name": "Allendale", "state": "SC", "lat": "33.0080", "lng": "-81.3092"}, {"name": "Rock Hill", "state": "SC", "lat": "34.9413", "lng": "-81.0250"}, {"name": "Homeland Park", "state": "SC", "lat": "34.4644", "lng": "-82.6593"}, {"name": "Belvedere", "state": "SC", "lat": "33.5369", "lng": "-81.9424"}, {"name": "Brunson", "state": "SC", "lat": "32.9242", "lng": "-81.1886"}, {"name": "Bamberg", "state": "SC", "lat": "33.2995", "lng": "-81.0323"}, {"name": "Garden City", "state": "SC", "lat": "33.5927", "lng": "-79.0070"}, {"name": "Cherryvale", "state": "SC", "lat": "33.9543", "lng": "-80.4609"}, {"name": "Landrum", "state": "SC", "lat": "35.1746", "lng": "-82.1849"}, {"name": "Mauldin", "state": "SC", "lat": "34.7866", "lng": "-82.2997"}, {"name": "Rowesville", "state": "SC", "lat": "33.3722", "lng": "-80.8361"}, {"name": "Myrtle Beach", "state": "SC", "lat": "33.7096", "lng": "-78.8842"}, {"name": "Utica", "state": "SC", "lat": "34.6778", "lng": "-82.9250"}, {"name": "Ridge Spring", "state": "SC", "lat": "33.8453", "lng": "-81.6617"}, {"name": "Columbia", "state": "SC", "lat": "34.0376", "lng": "-80.9037"}, {"name": "East Gaffney", "state": "SC", "lat": "35.0846", "lng": "-81.6219"}, {"name": "Ridgeway", "state": "SC", "lat": "34.3066", "lng": "-80.9601"}, {"name": "Blackville", "state": "SC", "lat": "33.3552", "lng": "-81.2835"}, {"name": "Branchville", "state": "SC", "lat": "33.2516", "lng": "-80.8162"}, {"name": "Shiloh", "state": "SC", "lat": "33.9461", "lng": "-80.0208"}, {"name": "Holly Hill", "state": "SC", "lat": "33.3245", "lng": "-80.4130"}, {"name": "Gayle Mill", "state": "SC", "lat": "34.7022", "lng": "-81.2392"}, {"name": "Sullivan's Island", "state": "SC", "lat": "32.7684", "lng": "-79.8354"}, {"name": "Hartsville", "state": "SC", "lat": "34.3679", "lng": "-80.0829"}, {"name": "Pageland", "state": "SC", "lat": "34.7720", "lng": "-80.3897"}, {"name": "McBee", "state": "SC", "lat": "34.4670", "lng": "-80.2571"}, {"name": "Conway", "state": "SC", "lat": "33.8403", "lng": "-79.0422"}, {"name": "St. Andrews", "state": "SC", "lat": "34.0510", "lng": "-81.1057"}, {"name": "Alcolu", "state": "SC", "lat": "33.7546", "lng": "-80.2221"}, {"name": "North", "state": "SC", "lat": "33.6164", "lng": "-81.1031"}, {"name": "Turbeville", "state": "SC", "lat": "33.8896", "lng": "-80.0161"}, {"name": "Cheraw", "state": "SC", "lat": "34.6954", "lng": "-79.9083"}, {"name": "Walterboro", "state": "SC", "lat": "32.9010", "lng": "-80.6760"}, {"name": "Westminster", "state": "SC", "lat": "34.6657", "lng": "-83.0911"}, {"name": "Parksville", "state": "SC", "lat": "33.7866", "lng": "-82.2173"}, {"name": "Richburg", "state": "SC", "lat": "34.7167", "lng": "-81.0197"}]