[{"name": "White Horse", "state": "SD", "lat": "43.3061", "lng": "-100.5948"}, {"name": "Marion", "state": "SD", "lat": "43.4236", "lng": "-97.2605"}, {"name": "Roslyn", "state": "SD", "lat": "45.4965", "lng": "-97.4932"}, {"name": "Whitehorse", "state": "SD", "lat": "45.2746", "lng": "-100.9012"}, {"name": "Winfred", "state": "SD", "lat": "44.0009", "lng": "-97.3598"}, {"name": "Little Eagle", "state": "SD", "lat": "45.6832", "lng": "-100.7967"}, {"name": "New Effington", "state": "SD", "lat": "45.8557", "lng": "-96.9173"}, {"name": "Presho", "state": "SD", "lat": "43.9071", "lng": "-100.0583"}, {"name": "Ortley", "state": "SD", "lat": "45.3349", "lng": "-97.2050"}, {"name": "Waverly", "state": "SD", "lat": "44.9987", "lng": "-96.9742"}, {"name": "Lake Andes", "state": "SD", "lat": "43.1559", "lng": "-98.5362"}, {"name": "Hot Springs", "state": "SD", "lat": "43.4313", "lng": "-103.4836"}, {"name": "Aurora", "state": "SD", "lat": "44.2834", "lng": "-96.6854"}, {"name": "Bryant", "state": "SD", "lat": "44.5899", "lng": "-97.4673"}, {"name": "Timber Lake", "state": "SD", "lat": "45.4279", "lng": "-101.0747"}, {"name": "Aurora Center", "state": "SD", "lat": "43.5272", "lng": "-98.5894"}, {"name": "Sturgis", "state": "SD", "lat": "44.4110", "lng": "-103.4976"}, {"name": "Hermosa", "state": "SD", "lat": "43.8398", "lng": "-103.1929"}, {"name": "Yale", "state": "SD", "lat": "44.4338", "lng": "-97.9885"}, {"name": "Oelrichs", "state": "SD", "lat": "43.1820", "lng": "-103.2334"}, {"name": "Fairfax", "state": "SD", "lat": "43.0281", "lng": "-98.8891"}, {"name": "Summerset", "state": "SD", "lat": "44.1913", "lng": "-103.3394"}, {"name": "Rapid Valley", "state": "SD", "lat": "44.0674", "lng": "-103.1225"}, {"name": "Miller", "state": "SD", "lat": "44.5205", "lng": "-98.9869"}, {"name": "Pine Ridge", "state": "SD", "lat": "43.0270", "lng": "-102.5525"}, {"name": "Wessington", "state": "SD", "lat": "44.4552", "lng": "-98.6967"}, {"name": "Trent", "state": "SD", "lat": "43.9063", "lng": "-96.6578"}, {"name": "Colonial Pine Hills", "state": "SD", "lat": "44.0142", "lng": "-103.3145"}, {"name": "Lennox", "state": "SD", "lat": "43.3479", "lng": "-96.8939"}, {"name": "Carthage", "state": "SD", "lat": "44.1686", "lng": "-97.7150"}, {"name": "Vivian", "state": "SD", "lat": "43.9273", "lng": "-100.3011"}, {"name": "Buffalo Gap", "state": "SD", "lat": "43.4922", "lng": "-103.3155"}, {"name": "Milltown", "state": "SD", "lat": "43.4252", "lng": "-97.8081"}, {"name": "Rosholt", "state": "SD", "lat": "45.8662", "lng": "-96.7318"}, {"name": "Brookings", "state": "SD", "lat": "44.3022", "lng": "-96.7859"}, {"name": "Tulare", "state": "SD", "lat": "44.7382", "lng": "-98.5089"}, {"name": "Northville", "state": "SD", "lat": "45.1554", "lng": "-98.5793"}, {"name": "Manderson-White Horse Creek", "state": "SD", "lat": "43.2349", "lng": "-102.4916"}, {"name": "Vale", "state": "SD", "lat": "44.6182", "lng": "-103.3986"}, {"name": "Alpena", "state": "SD", "lat": "44.1829", "lng": "-98.3683"}, {"name": "Waubay", "state": "SD", "lat": "45.3346", "lng": "-97.3054"}, {"name": "Blackhawk", "state": "SD", "lat": "44.1514", "lng": "-103.3340"}, {"name": "Strandburg", "state": "SD", "lat": "45.0441", "lng": "-96.7604"}, {"name": "Crocker", "state": "SD", "lat": "45.1070", "lng": "-97.7806"}, {"name": "De Smet", "state": "SD", "lat": "44.3862", "lng": "-97.5498"}, {"name": "Verdon", "state": "SD", "lat": "45.2442", "lng": "-98.0992"}, {"name": "Glenham", "state": "SD", "lat": "45.5330", "lng": "-100.2711"}, {"name": "Onaka", "state": "SD", "lat": "45.1913", "lng": "-99.4659"}, {"name": "Volga", "state": "SD", "lat": "44.3232", "lng": "-96.9223"}, {"name": "Pukwana", "state": "SD", "lat": "43.7792", "lng": "-99.1843"}, {"name": "Soldier Creek", "state": "SD", "lat": "43.3237", "lng": "-100.8883"}, {"name": "Fort Pierre", "state": "SD", "lat": "44.3679", "lng": "-100.3831"}, {"name": "Selby", "state": "SD", "lat": "45.5057", "lng": "-100.0329"}, {"name": "Alexandria", "state": "SD", "lat": "43.6541", "lng": "-97.7800"}, {"name": "Clark", "state": "SD", "lat": "44.8813", "lng": "-97.7346"}, {"name": "Elk Point", "state": "SD", "lat": "42.6816", "lng": "-96.6800"}, {"name": "Florence", "state": "SD", "lat": "45.0548", "lng": "-97.3263"}, {"name": "Oldham", "state": "SD", "lat": "44.2281", "lng": "-97.3096"}, {"name": "Lake City", "state": "SD", "lat": "45.7248", "lng": "-97.4139"}, {"name": "Batesland", "state": "SD", "lat": "43.1278", "lng": "-102.1017"}, {"name": "Butler", "state": "SD", "lat": "45.2620", "lng": "-97.7117"}, {"name": "Wentworth", "state": "SD", "lat": "43.9970", "lng": "-96.9645"}, {"name": "Ramona", "state": "SD", "lat": "44.1199", "lng": "-97.2154"}, {"name": "Astoria", "state": "SD", "lat": "44.5577", "lng": "-96.5465"}, {"name": "Ward", "state": "SD", "lat": "44.1548", "lng": "-96.4626"}, {"name": "Running Water", "state": "SD", "lat": "42.7822", "lng": "-97.9816"}, {"name": "Pine Lakes Addition", "state": "SD", "lat": "43.5511", "lng": "-96.6354"}, {"name": "Eden", "state": "SD", "lat": "45.6169", "lng": "-97.4198"}, {"name": "Ree Heights", "state": "SD", "lat": "44.5158", "lng": "-99.2005"}, {"name": "Roscoe", "state": "SD", "lat": "45.4501", "lng": "-99.3370"}, {"name": "Erwin", "state": "SD", "lat": "44.4880", "lng": "-97.4409"}, {"name": "Henry", "state": "SD", "lat": "44.8809", "lng": "-97.4616"}, {"name": "Webster", "state": "SD", "lat": "45.3366", "lng": "-97.5219"}, {"name": "Leola", "state": "SD", "lat": "45.7212", "lng": "-98.9385"}, {"name": "Fulton", "state": "SD", "lat": "43.7288", "lng": "-97.8226"}, {"name": "Porcupine", "state": "SD", "lat": "43.2687", "lng": "-102.3353"}, {"name": "Bullhead", "state": "SD", "lat": "45.7693", "lng": "-101.0808"}, {"name": "Kennebec", "state": "SD", "lat": "43.9035", "lng": "-99.8620"}, {"name": "Lowry", "state": "SD", "lat": "45.3155", "lng": "-99.9812"}, {"name": "Andover", "state": "SD", "lat": "45.4102", "lng": "-97.9037"}, {"name": "North Sioux City", "state": "SD", "lat": "42.5354", "lng": "-96.4998"}, {"name": "Colman", "state": "SD", "lat": "43.9835", "lng": "-96.8149"}, {"name": "Richland", "state": "SD", "lat": "42.7639", "lng": "-96.6480"}, {"name": "Bushnell", "state": "SD", "lat": "44.3274", "lng": "-96.6424"}, {"name": "St. Onge", "state": "SD", "lat": "44.5458", "lng": "-103.7200"}, {"name": "Mount Vernon", "state": "SD", "lat": "43.7127", "lng": "-98.2609"}, {"name": "Springfield", "state": "SD", "lat": "42.8625", "lng": "-97.8963"}, {"name": "Parkston", "state": "SD", "lat": "43.3929", "lng": "-97.9864"}, {"name": "Dakota Dunes", "state": "SD", "lat": "42.4919", "lng": "-96.4867"}, {"name": "Yankton", "state": "SD", "lat": "42.8901", "lng": "-97.3926"}, {"name": "Blucksberg Mountain", "state": "SD", "lat": "44.3593", "lng": "-103.4538"}, {"name": "Morningside", "state": "SD", "lat": "44.3662", "lng": "-98.1835"}, {"name": "Herreid", "state": "SD", "lat": "45.8377", "lng": "-100.0749"}, {"name": "Bonesteel", "state": "SD", "lat": "43.0775", "lng": "-98.9467"}, {"name": "Rosebud", "state": "SD", "lat": "43.2399", "lng": "-100.8229"}, {"name": "Corona", "state": "SD", "lat": "45.3352", "lng": "-96.7646"}, {"name": "Nunda", "state": "SD", "lat": "44.1599", "lng": "-97.0194"}, {"name": "Green Valley", "state": "SD", "lat": "44.0390", "lng": "-103.1116"}, {"name": "Antelope", "state": "SD", "lat": "43.3087", "lng": "-100.6307"}, {"name": "Tolstoy", "state": "SD", "lat": "45.2082", "lng": "-99.6140"}, {"name": "Cow Creek", "state": "SD", "lat": "44.5538", "lng": "-100.4753"}, {"name": "Mission", "state": "SD", "lat": "43.3063", "lng": "-100.6610"}, {"name": "Irene", "state": "SD", "lat": "43.0837", "lng": "-97.1576"}, {"name": "Badger", "state": "SD", "lat": "44.4855", "lng": "-97.2079"}, {"name": "Wallace", "state": "SD", "lat": "45.0845", "lng": "-97.4781"}, {"name": "Redfield", "state": "SD", "lat": "44.8725", "lng": "-98.5186"}, {"name": "Okaton", "state": "SD", "lat": "43.8621", "lng": "-100.9049"}, {"name": "Brant Lake", "state": "SD", "lat": "43.9308", "lng": "-96.9435"}, {"name": "Farmer", "state": "SD", "lat": "43.7252", "lng": "-97.6890"}, {"name": "Ipswich", "state": "SD", "lat": "45.4434", "lng": "-99.0300"}, {"name": "Rockham", "state": "SD", "lat": "44.9043", "lng": "-98.8234"}, {"name": "Freeman", "state": "SD", "lat": "43.3501", "lng": "-97.4290"}, {"name": "Groton", "state": "SD", "lat": "45.4517", "lng": "-98.1001"}, {"name": "Bath Corner", "state": "SD", "lat": "45.4627", "lng": "-98.3329"}, {"name": "Harrisburg", "state": "SD", "lat": "43.4337", "lng": "-96.7061"}, {"name": "Worthing", "state": "SD", "lat": "43.3300", "lng": "-96.7683"}, {"name": "St. Francis", "state": "SD", "lat": "43.1426", "lng": "-100.9028"}, {"name": "Long Hollow", "state": "SD", "lat": "45.6823", "lng": "-97.1611"}, {"name": "Storla", "state": "SD", "lat": "43.8625", "lng": "-98.3526"}, {"name": "Stockholm", "state": "SD", "lat": "45.1018", "lng": "-96.7998"}, {"name": "Estelline", "state": "SD", "lat": "44.5768", "lng": "-96.9011"}, {"name": "Warner", "state": "SD", "lat": "45.3251", "lng": "-98.4952"}, {"name": "Belle Fourche", "state": "SD", "lat": "44.6642", "lng": "-103.8564"}, {"name": "Bradley", "state": "SD", "lat": "45.0904", "lng": "-97.6420"}, {"name": "Goodwin", "state": "SD", "lat": "44.8775", "lng": "-96.8497"}, {"name": "Orient", "state": "SD", "lat": "44.9017", "lng": "-99.0888"}, {"name": "Buffalo Chip", "state": "SD", "lat": "44.4166", "lng": "-103.4058"}, {"name": "Custer", "state": "SD", "lat": "43.7668", "lng": "-103.6005"}, {"name": "Plankinton", "state": "SD", "lat": "43.7155", "lng": "-98.4837"}, {"name": "Doland", "state": "SD", "lat": "44.8944", "lng": "-98.0997"}, {"name": "Sisseton", "state": "SD", "lat": "45.6625", "lng": "-97.0453"}, {"name": "Burke", "state": "SD", "lat": "43.1828", "lng": "-99.2923"}, {"name": "Langford", "state": "SD", "lat": "45.6025", "lng": "-97.8303"}, {"name": "Hill City", "state": "SD", "lat": "43.9338", "lng": "-103.5693"}, {"name": "Philip", "state": "SD", "lat": "44.0408", "lng": "-101.6646"}, {"name": "Ashton", "state": "SD", "lat": "44.9931", "lng": "-98.4991"}, {"name": "Lesterville", "state": "SD", "lat": "43.0385", "lng": "-97.5904"}, {"name": "Davis", "state": "SD", "lat": "43.2595", "lng": "-96.9945"}, {"name": "Baltic", "state": "SD", "lat": "43.7603", "lng": "-96.7371"}, {"name": "Deadwood", "state": "SD", "lat": "44.3871", "lng": "-103.7207"}, {"name": "Kidder", "state": "SD", "lat": "45.8817", "lng": "-97.7138"}, {"name": "Humboldt", "state": "SD", "lat": "43.6447", "lng": "-97.0741"}, {"name": "South Shore", "state": "SD", "lat": "45.1016", "lng": "-96.9300"}, {"name": "Central City", "state": "SD", "lat": "44.3685", "lng": "-103.7705"}, {"name": "Delmont", "state": "SD", "lat": "43.2666", "lng": "-98.1592"}, {"name": "Oglala", "state": "SD", "lat": "43.1849", "lng": "-102.7267"}, {"name": "Arlington", "state": "SD", "lat": "44.3635", "lng": "-97.1338"}, {"name": "Wakonda", "state": "SD", "lat": "43.0081", "lng": "-97.1060"}, {"name": "Eagle Butte", "state": "SD", "lat": "44.9907", "lng": "-101.2275"}, {"name": "Anderson", "state": "SD", "lat": "43.5208", "lng": "-96.6132"}, {"name": "Tea", "state": "SD", "lat": "43.4511", "lng": "-96.8339"}, {"name": "White", "state": "SD", "lat": "44.4359", "lng": "-96.6460"}, {"name": "Milbank", "state": "SD", "lat": "45.2194", "lng": "-96.6340"}, {"name": "Piedmont", "state": "SD", "lat": "44.2135", "lng": "-103.3715"}, {"name": "Draper", "state": "SD", "lat": "43.9261", "lng": "-100.5372"}, {"name": "North Eagle Butte", "state": "SD", "lat": "45.0169", "lng": "-101.2365"}, {"name": "Newell", "state": "SD", "lat": "44.7174", "lng": "-103.4183"}, {"name": "Hartford", "state": "SD", "lat": "43.6210", "lng": "-96.9424"}, {"name": "Oacoma", "state": "SD", "lat": "43.8038", "lng": "-99.3721"}, {"name": "Toronto", "state": "SD", "lat": "44.5724", "lng": "-96.6414"}, {"name": "McLaughlin", "state": "SD", "lat": "45.8133", "lng": "-100.8107"}, {"name": "Dupree", "state": "SD", "lat": "45.0495", "lng": "-101.6013"}, {"name": "Brentford", "state": "SD", "lat": "45.1591", "lng": "-98.3223"}, {"name": "Mission Hill", "state": "SD", "lat": "42.9208", "lng": "-97.2791"}, {"name": "Kaylor", "state": "SD", "lat": "43.1930", "lng": "-97.8434"}, {"name": "St. Lawrence", "state": "SD", "lat": "44.5166", "lng": "-98.9379"}, {"name": "Rapid City", "state": "SD", "lat": "44.0716", "lng": "-103.2205"}, {"name": "Sioux Falls", "state": "SD", "lat": "43.5397", "lng": "-96.7321"}, {"name": "Long Lake", "state": "SD", "lat": "45.8567", "lng": "-99.2058"}, {"name": "Pickstown", "state": "SD", "lat": "43.0671", "lng": "-98.5295"}, {"name": "Clear Lake", "state": "SD", "lat": "44.7646", "lng": "-96.6767"}, {"name": "Kyle", "state": "SD", "lat": "43.4245", "lng": "-102.1802"}, {"name": "Woonsocket", "state": "SD", "lat": "44.0541", "lng": "-98.2724"}, {"name": "Mobridge", "state": "SD", "lat": "45.5411", "lng": "-100.4349"}, {"name": "Allen", "state": "SD", "lat": "43.2792", "lng": "-101.9265"}, {"name": "Wilmot", "state": "SD", "lat": "45.4091", "lng": "-96.8545"}, {"name": "Tyndall", "state": "SD", "lat": "42.9899", "lng": "-97.8642"}, {"name": "Aberdeen", "state": "SD", "lat": "45.4646", "lng": "-98.4680"}, {"name": "Scotland", "state": "SD", "lat": "43.1481", "lng": "-97.7199"}, {"name": "Brandon", "state": "SD", "lat": "43.5928", "lng": "-96.5799"}, {"name": "Morristown", "state": "SD", "lat": "45.9386", "lng": "-101.7188"}, {"name": "Jefferson", "state": "SD", "lat": "42.6042", "lng": "-96.5661"}, {"name": "Interior", "state": "SD", "lat": "43.7269", "lng": "-101.9837"}, {"name": "New Holland", "state": "SD", "lat": "43.4287", "lng": "-98.6073"}, {"name": "Lily", "state": "SD", "lat": "45.1818", "lng": "-97.6835"}, {"name": "Belvidere", "state": "SD", "lat": "43.8321", "lng": "-101.2711"}, {"name": "Bowdle", "state": "SD", "lat": "45.4512", "lng": "-99.6566"}, {"name": "Lake Preston", "state": "SD", "lat": "44.3617", "lng": "-97.3760"}, {"name": "Canistota", "state": "SD", "lat": "43.5978", "lng": "-97.2926"}, {"name": "Bruce", "state": "SD", "lat": "44.4378", "lng": "-96.8906"}, {"name": "Claremont", "state": "SD", "lat": "45.6719", "lng": "-98.0157"}, {"name": "Sherman", "state": "SD", "lat": "43.7577", "lng": "-96.4762"}, {"name": "Britton", "state": "SD", "lat": "45.7924", "lng": "-97.7530"}, {"name": "Caputa", "state": "SD", "lat": "43.9961", "lng": "-102.9848"}, {"name": "Cottonwood", "state": "SD", "lat": "43.9657", "lng": "-101.9020"}, {"name": "Hurley", "state": "SD", "lat": "43.2793", "lng": "-97.0895"}, {"name": "Frederick", "state": "SD", "lat": "45.8321", "lng": "-98.5069"}, {"name": "Camp Crook", "state": "SD", "lat": "45.5501", "lng": "-103.9749"}, {"name": "Chester", "state": "SD", "lat": "43.8996", "lng": "-96.9277"}, {"name": "Box Elder", "state": "SD", "lat": "44.1129", "lng": "-103.0806"}, {"name": "Madison", "state": "SD", "lat": "44.0062", "lng": "-97.1084"}, {"name": "Parker", "state": "SD", "lat": "43.3978", "lng": "-97.1334"}, {"name": "Stickney", "state": "SD", "lat": "43.5894", "lng": "-98.4376"}, {"name": "Garretson", "state": "SD", "lat": "43.7147", "lng": "-96.5028"}, {"name": "Vermillion", "state": "SD", "lat": "42.7811", "lng": "-96.9255"}, {"name": "Parmelee", "state": "SD", "lat": "43.3241", "lng": "-101.0410"}, {"name": "Johnson Siding", "state": "SD", "lat": "44.0846", "lng": "-103.4380"}, {"name": "Winner", "state": "SD", "lat": "43.3776", "lng": "-99.8550"}, {"name": "Mound City", "state": "SD", "lat": "45.7262", "lng": "-100.0688"}, {"name": "Wood", "state": "SD", "lat": "43.4971", "lng": "-100.4802"}, {"name": "Letcher", "state": "SD", "lat": "43.8995", "lng": "-98.1442"}, {"name": "Ethan", "state": "SD", "lat": "43.5463", "lng": "-97.9832"}, {"name": "New Underwood", "state": "SD", "lat": "44.0978", "lng": "-102.8362"}, {"name": "Chamberlain", "state": "SD", "lat": "43.7861", "lng": "-99.3269"}, {"name": "Gettysburg", "state": "SD", "lat": "45.0060", "lng": "-99.9539"}, {"name": "Agency Village", "state": "SD", "lat": "45.5808", "lng": "-97.0831"}, {"name": "Veblen", "state": "SD", "lat": "45.8620", "lng": "-97.2869"}, {"name": "Fairview", "state": "SD", "lat": "43.2222", "lng": "-96.4878"}, {"name": "Big Stone City", "state": "SD", "lat": "45.2985", "lng": "-96.4657"}, {"name": "Platte", "state": "SD", "lat": "43.3868", "lng": "-98.8437"}, {"name": "Faulkton", "state": "SD", "lat": "45.0342", "lng": "-99.1267"}, {"name": "Dante", "state": "SD", "lat": "43.0399", "lng": "-98.1856"}, {"name": "Bison", "state": "SD", "lat": "45.5235", "lng": "-102.4677"}, {"name": "Gann Valley", "state": "SD", "lat": "44.0335", "lng": "-98.9886"}, {"name": "Isabel", "state": "SD", "lat": "45.3938", "lng": "-101.4325"}, {"name": "White River", "state": "SD", "lat": "43.5671", "lng": "-100.7448"}, {"name": "Frankfort", "state": "SD", "lat": "44.8777", "lng": "-98.3092"}, {"name": "Herrick", "state": "SD", "lat": "43.1150", "lng": "-99.1882"}, {"name": "Bridgewater", "state": "SD", "lat": "43.5502", "lng": "-97.4984"}, {"name": "Hosmer", "state": "SD", "lat": "45.5788", "lng": "-99.4736"}, {"name": "Lower Brule", "state": "SD", "lat": "44.0741", "lng": "-99.5838"}, {"name": "Hecla", "state": "SD", "lat": "45.8822", "lng": "-98.1520"}, {"name": "Ferney", "state": "SD", "lat": "45.3346", "lng": "-98.0939"}, {"name": "McIntosh", "state": "SD", "lat": "45.9213", "lng": "-101.3491"}, {"name": "Marvin", "state": "SD", "lat": "45.2605", "lng": "-96.9154"}, {"name": "La Bolt", "state": "SD", "lat": "45.0490", "lng": "-96.6752"}, {"name": "Conde", "state": "SD", "lat": "45.1573", "lng": "-98.0955"}, {"name": "Avon", "state": "SD", "lat": "43.0052", "lng": "-98.0592"}, {"name": "Gayville", "state": "SD", "lat": "42.8890", "lng": "-97.1737"}, {"name": "Marty", "state": "SD", "lat": "42.9965", "lng": "-98.4302"}, {"name": "North Spearfish", "state": "SD", "lat": "44.5123", "lng": "-103.8955"}, {"name": "Colton", "state": "SD", "lat": "43.7871", "lng": "-96.9280"}, {"name": "Bristol", "state": "SD", "lat": "45.3466", "lng": "-97.7485"}, {"name": "Ravinia", "state": "SD", "lat": "43.1365", "lng": "-98.4268"}, {"name": "Artesian", "state": "SD", "lat": "44.0079", "lng": "-97.9237"}, {"name": "Wall", "state": "SD", "lat": "43.9914", "lng": "-102.2421"}, {"name": "Hudson", "state": "SD", "lat": "43.1301", "lng": "-96.4556"}, {"name": "Valley Springs", "state": "SD", "lat": "43.5825", "lng": "-96.4648"}, {"name": "Quinn", "state": "SD", "lat": "43.9866", "lng": "-102.1264"}, {"name": "Wounded Knee", "state": "SD", "lat": "43.1435", "lng": "-102.3682"}, {"name": "Elkton", "state": "SD", "lat": "44.2351", "lng": "-96.4796"}, {"name": "Java", "state": "SD", "lat": "45.5038", "lng": "-99.8839"}, {"name": "Olivet", "state": "SD", "lat": "43.2432", "lng": "-97.6749"}, {"name": "Midland", "state": "SD", "lat": "44.0711", "lng": "-101.1554"}, {"name": "Howard", "state": "SD", "lat": "44.0117", "lng": "-97.5247"}, {"name": "Mansfield", "state": "SD", "lat": "45.2465", "lng": "-98.5581"}, {"name": "Roswell", "state": "SD", "lat": "44.0060", "lng": "-97.6975"}, {"name": "Geddes", "state": "SD", "lat": "43.2540", "lng": "-98.6974"}, {"name": "Westport", "state": "SD", "lat": "45.6478", "lng": "-98.4981"}, {"name": "Naples", "state": "SD", "lat": "44.7716", "lng": "-97.5131"}, {"name": "Wasta", "state": "SD", "lat": "44.0695", "lng": "-102.4465"}, {"name": "Onida", "state": "SD", "lat": "44.7048", "lng": "-100.0675"}, {"name": "Turton", "state": "SD", "lat": "45.0490", "lng": "-98.0974"}, {"name": "Fairburn", "state": "SD", "lat": "43.6870", "lng": "-103.2088"}, {"name": "Pringle", "state": "SD", "lat": "43.6090", "lng": "-103.5946"}, {"name": "Nisland", "state": "SD", "lat": "44.6731", "lng": "-103.5539"}, {"name": "Hamill", "state": "SD", "lat": "43.5939", "lng": "-99.6907"}, {"name": "Wolsey", "state": "SD", "lat": "44.4105", "lng": "-98.4738"}, {"name": "Hitchcock", "state": "SD", "lat": "44.6294", "lng": "-98.4082"}, {"name": "Beresford", "state": "SD", "lat": "43.0797", "lng": "-96.7802"}, {"name": "Twin Brooks", "state": "SD", "lat": "45.2090", "lng": "-96.7854"}, {"name": "Agar", "state": "SD", "lat": "44.8398", "lng": "-100.0733"}, {"name": "Volin", "state": "SD", "lat": "42.9586", "lng": "-97.1812"}, {"name": "Garden City", "state": "SD", "lat": "44.9592", "lng": "-97.5806"}, {"name": "Mitchell", "state": "SD", "lat": "43.7296", "lng": "-98.0337"}, {"name": "Artas", "state": "SD", "lat": "45.8873", "lng": "-99.8067"}, {"name": "Kimball", "state": "SD", "lat": "43.7468", "lng": "-98.9569"}, {"name": "Meadow View Addition", "state": "SD", "lat": "43.6233", "lng": "-96.7023"}, {"name": "Wetonka", "state": "SD", "lat": "45.6242", "lng": "-98.7717"}, {"name": "Pierpont", "state": "SD", "lat": "45.4953", "lng": "-97.8321"}, {"name": "Wanblee", "state": "SD", "lat": "43.5706", "lng": "-101.6627"}, {"name": "Pollock", "state": "SD", "lat": "45.9005", "lng": "-100.2885"}, {"name": "Kadoka", "state": "SD", "lat": "43.8325", "lng": "-101.5081"}, {"name": "New Witten", "state": "SD", "lat": "43.4407", "lng": "-100.0819"}, {"name": "Centerville", "state": "SD", "lat": "43.1165", "lng": "-96.9596"}, {"name": "Monroe", "state": "SD", "lat": "43.4865", "lng": "-97.2166"}, {"name": "Loomis", "state": "SD", "lat": "43.7931", "lng": "-98.1036"}, {"name": "Fedora", "state": "SD", "lat": "44.0067", "lng": "-97.7895"}, {"name": "La Plant", "state": "SD", "lat": "45.1352", "lng": "-100.6648"}, {"name": "Revillo", "state": "SD", "lat": "45.0155", "lng": "-96.5713"}, {"name": "Utica", "state": "SD", "lat": "42.9813", "lng": "-97.4968"}, {"name": "Columbia", "state": "SD", "lat": "45.6148", "lng": "-98.3107"}, {"name": "Raymond", "state": "SD", "lat": "44.9105", "lng": "-97.9372"}, {"name": "Bijou Hills", "state": "SD", "lat": "43.5285", "lng": "-99.1439"}, {"name": "Norris", "state": "SD", "lat": "43.4721", "lng": "-101.1928"}, {"name": "Renner Corner", "state": "SD", "lat": "43.6524", "lng": "-96.7043"}, {"name": "Vilas", "state": "SD", "lat": "44.0083", "lng": "-97.5960"}, {"name": "Wessington Springs", "state": "SD", "lat": "44.0805", "lng": "-98.5712"}, {"name": "Dallas", "state": "SD", "lat": "43.2379", "lng": "-99.5175"}, {"name": "Eureka", "state": "SD", "lat": "45.7707", "lng": "-99.6208"}, {"name": "Corn Creek", "state": "SD", "lat": "43.5744", "lng": "-101.2059"}, {"name": "Murdo", "state": "SD", "lat": "43.8893", "lng": "-100.7142"}, {"name": "Two Strike", "state": "SD", "lat": "43.2141", "lng": "-100.8988"}, {"name": "Cavour", "state": "SD", "lat": "44.3693", "lng": "-98.0421"}, {"name": "Spencer", "state": "SD", "lat": "43.7273", "lng": "-97.5911"}, {"name": "Armour", "state": "SD", "lat": "43.3190", "lng": "-98.3448"}, {"name": "Wagner", "state": "SD", "lat": "43.0768", "lng": "-98.2934"}, {"name": "Bancroft", "state": "SD", "lat": "44.4894", "lng": "-97.7505"}, {"name": "Dolton", "state": "SD", "lat": "43.4911", "lng": "-97.3848"}, {"name": "Harrison", "state": "SD", "lat": "43.4311", "lng": "-98.5267"}, {"name": "Whitewood", "state": "SD", "lat": "44.4617", "lng": "-103.6381"}, {"name": "Canton", "state": "SD", "lat": "43.3033", "lng": "-96.5844"}, {"name": "Prairie City", "state": "SD", "lat": "45.5312", "lng": "-102.8164"}, {"name": "Dell Rapids", "state": "SD", "lat": "43.8247", "lng": "-96.7148"}, {"name": "Altamont", "state": "SD", "lat": "44.8408", "lng": "-96.6901"}, {"name": "Highmore", "state": "SD", "lat": "44.5214", "lng": "-99.4393"}, {"name": "Flandreau", "state": "SD", "lat": "44.0465", "lng": "-96.5984"}, {"name": "Egan", "state": "SD", "lat": "44.0004", "lng": "-96.6485"}, {"name": "Menno", "state": "SD", "lat": "43.2386", "lng": "-97.5773"}, {"name": "Chancellor", "state": "SD", "lat": "43.3719", "lng": "-96.9872"}, {"name": "Fruitdale", "state": "SD", "lat": "44.6692", "lng": "-103.6955"}, {"name": "Hoven", "state": "SD", "lat": "45.2416", "lng": "-99.7775"}, {"name": "Viborg", "state": "SD", "lat": "43.1715", "lng": "-97.0798"}, {"name": "Blunt", "state": "SD", "lat": "44.5159", "lng": "-99.9885"}, {"name": "Peever", "state": "SD", "lat": "45.5422", "lng": "-96.9560"}, {"name": "Ashland Heights", "state": "SD", "lat": "44.1294", "lng": "-103.1286"}, {"name": "White Lake", "state": "SD", "lat": "43.7283", "lng": "-98.7117"}, {"name": "Martin", "state": "SD", "lat": "43.1749", "lng": "-101.7324"}, {"name": "Iroquois", "state": "SD", "lat": "44.3679", "lng": "-97.8495"}, {"name": "Ola", "state": "SD", "lat": "43.6005", "lng": "-99.2114"}, {"name": "Kranzburg", "state": "SD", "lat": "44.8888", "lng": "-96.9092"}, {"name": "Lebanon", "state": "SD", "lat": "45.0688", "lng": "-99.7664"}, {"name": "Pierre", "state": "SD", "lat": "44.3748", "lng": "-100.3205"}, {"name": "Lake Madison", "state": "SD", "lat": "43.9593", "lng": "-97.0209"}, {"name": "Canova", "state": "SD", "lat": "43.8813", "lng": "-97.5040"}, {"name": "Harrold", "state": "SD", "lat": "44.5235", "lng": "-99.7393"}, {"name": "Lead", "state": "SD", "lat": "44.3527", "lng": "-103.7670"}, {"name": "Keystone", "state": "SD", "lat": "43.8955", "lng": "-103.4267"}, {"name": "Broadland", "state": "SD", "lat": "44.4938", "lng": "-98.3466"}, {"name": "Hazel", "state": "SD", "lat": "44.7582", "lng": "-97.3810"}, {"name": "Tabor", "state": "SD", "lat": "42.9476", "lng": "-97.6594"}, {"name": "Crooks", "state": "SD", "lat": "43.6594", "lng": "-96.8092"}, {"name": "Hayti", "state": "SD", "lat": "44.6571", "lng": "-97.2046"}, {"name": "Lake Poinsett", "state": "SD", "lat": "44.5664", "lng": "-97.0798"}, {"name": "Shindler", "state": "SD", "lat": "43.4677", "lng": "-96.6355"}, {"name": "Spring Creek", "state": "SD", "lat": "43.1154", "lng": "-101.0306"}, {"name": "Faith", "state": "SD", "lat": "45.0258", "lng": "-102.0363"}, {"name": "Fort Thompson", "state": "SD", "lat": "44.0527", "lng": "-99.4079"}, {"name": "Albee", "state": "SD", "lat": "45.0513", "lng": "-96.5535"}, {"name": "Gregory", "state": "SD", "lat": "43.2299", "lng": "-99.4208"}, {"name": "Cresbard", "state": "SD", "lat": "45.1693", "lng": "-98.9478"}, {"name": "Bath", "state": "SD", "lat": "45.4692", "lng": "-98.3236"}, {"name": "Stratford", "state": "SD", "lat": "45.3174", "lng": "-98.3043"}, {"name": "Gary", "state": "SD", "lat": "44.7941", "lng": "-96.4574"}, {"name": "Corsica", "state": "SD", "lat": "43.4223", "lng": "-98.4073"}, {"name": "Green Grass", "state": "SD", "lat": "45.1714", "lng": "-101.2573"}, {"name": "Reliance", "state": "SD", "lat": "43.8800", "lng": "-99.6018"}, {"name": "Virgil", "state": "SD", "lat": "44.2909", "lng": "-98.4276"}, {"name": "Alcester", "state": "SD", "lat": "43.0230", "lng": "-96.6280"}, {"name": "Brandt", "state": "SD", "lat": "44.6669", "lng": "-96.6252"}, {"name": "Sinai", "state": "SD", "lat": "44.2445", "lng": "-97.0440"}, {"name": "Vienna", "state": "SD", "lat": "44.7032", "lng": "-97.5000"}, {"name": "Lemmon", "state": "SD", "lat": "45.9385", "lng": "-102.1589"}, {"name": "Grenville", "state": "SD", "lat": "45.4667", "lng": "-97.3900"}, {"name": "Hetland", "state": "SD", "lat": "44.3771", "lng": "-97.2345"}, {"name": "Claire City", "state": "SD", "lat": "45.8566", "lng": "-97.1035"}, {"name": "Goodwill", "state": "SD", "lat": "45.5673", "lng": "-97.0612"}, {"name": "Forestburg", "state": "SD", "lat": "44.0213", "lng": "-98.1032"}, {"name": "Mellette", "state": "SD", "lat": "45.1544", "lng": "-98.4983"}, {"name": "Castlewood", "state": "SD", "lat": "44.7242", "lng": "-97.0309"}, {"name": "Chelsea", "state": "SD", "lat": "45.1676", "lng": "-98.7434"}, {"name": "Tripp", "state": "SD", "lat": "43.2255", "lng": "-97.9658"}, {"name": "Seneca", "state": "SD", "lat": "45.0608", "lng": "-99.5092"}, {"name": "Dimock", "state": "SD", "lat": "43.4763", "lng": "-97.9884"}, {"name": "Akaska", "state": "SD", "lat": "45.3310", "lng": "-100.1209"}, {"name": "Hillsview", "state": "SD", "lat": "45.6642", "lng": "-99.5607"}, {"name": "Salem", "state": "SD", "lat": "43.7228", "lng": "-97.3893"}, {"name": "Huron", "state": "SD", "lat": "44.3622", "lng": "-98.2102"}, {"name": "Edgemont", "state": "SD", "lat": "43.2983", "lng": "-103.8271"}, {"name": "St. Charles", "state": "SD", "lat": "43.0882", "lng": "-99.0949"}, {"name": "White Rock", "state": "SD", "lat": "45.9248", "lng": "-96.5760"}, {"name": "Lake Norden", "state": "SD", "lat": "44.5799", "lng": "-97.2108"}, {"name": "Summit", "state": "SD", "lat": "45.3056", "lng": "-97.0391"}, {"name": "Colome", "state": "SD", "lat": "43.2599", "lng": "-99.7174"}, {"name": "Okreek", "state": "SD", "lat": "43.3534", "lng": "-100.3826"}, {"name": "Lane", "state": "SD", "lat": "44.0697", "lng": "-98.4246"}, {"name": "Willow Lake", "state": "SD", "lat": "44.6279", "lng": "-97.6387"}, {"name": "Montrose", "state": "SD", "lat": "43.7002", "lng": "-97.1843"}, {"name": "Spearfish", "state": "SD", "lat": "44.4912", "lng": "-103.8167"}, {"name": "Emery", "state": "SD", "lat": "43.6020", "lng": "-97.6195"}, {"name": "Watertown", "state": "SD", "lat": "44.9094", "lng": "-97.1532"}, {"name": "Buffalo", "state": "SD", "lat": "45.5864", "lng": "-103.5434"}]