[{"name": "Trenton", "state": "TX", "lat": "33.4275", "lng": "-96.3407"}, {"name": "Cuevitas", "state": "TX", "lat": "26.2585", "lng": "-98.5787"}, {"name": "Union Valley", "state": "TX", "lat": "32.9324", "lng": "-96.2471"}, {"name": "Brazoria", "state": "TX", "lat": "29.0455", "lng": "-95.5673"}, {"name": "Strawn", "state": "TX", "lat": "32.5509", "lng": "-98.4979"}, {"name": "Lake Kiowa", "state": "TX", "lat": "33.5703", "lng": "-97.0129"}, {"name": "Homestead Meadows South", "state": "TX", "lat": "31.8110", "lng": "-106.1643"}, {"name": "Del Mar Heights", "state": "TX", "lat": "26.0566", "lng": "-97.4235"}, {"name": "Sanford", "state": "TX", "lat": "35.7026", "lng": "-101.5317"}, {"name": "Oak Trail Shores", "state": "TX", "lat": "32.4885", "lng": "-97.8357"}, {"name": "Paris", "state": "TX", "lat": "33.6689", "lng": "-95.5462"}, {"name": "San Saba", "state": "TX", "lat": "31.1965", "lng": "-98.7244"}, {"name": "Zapata", "state": "TX", "lat": "26.9027", "lng": "-99.2612"}, {"name": "Hearne", "state": "TX", "lat": "30.8770", "lng": "-96.5956"}, {"name": "Hudson Oaks", "state": "TX", "lat": "32.7508", "lng": "-97.6999"}, {"name": "Lake Jackson", "state": "TX", "lat": "29.0516", "lng": "-95.4521"}, {"name": "Los Alvarez", "state": "TX", "lat": "26.3859", "lng": "-98.8990"}, {"name": "Stanton", "state": "TX", "lat": "32.1315", "lng": "-101.7928"}, {"name": "Normanna", "state": "TX", "lat": "28.5277", "lng": "-97.7831"}, {"name": "Blanket", "state": "TX", "lat": "31.8249", "lng": "-98.7895"}, {"name": "Martinez", "state": "TX", "lat": "26.4221", "lng": "-98.7529"}, {"name": "Casas", "state": "TX", "lat": "26.4753", "lng": "-98.9333"}, {"name": "Oyster Creek", "state": "TX", "lat": "28.9978", "lng": "-95.3282"}, {"name": "Alpine", "state": "TX", "lat": "30.3640", "lng": "-103.6651"}, {"name": "Roman Forest", "state": "TX", "lat": "30.1811", "lng": "-95.1550"}, {"name": "Sarita", "state": "TX", "lat": "27.2236", "lng": "-97.7951"}, {"name": "Manuel Garcia", "state": "TX", "lat": "26.3337", "lng": "-98.7017"}, {"name": "Eustace", "state": "TX", "lat": "32.3075", "lng": "-96.0138"}, {"name": "Burke", "state": "TX", "lat": "31.2345", "lng": "-94.7665"}, {"name": "Edmonson", "state": "TX", "lat": "34.2791", "lng": "-101.8968"}, {"name": "Venus", "state": "TX", "lat": "32.4311", "lng": "-97.1021"}, {"name": "Presidio", "state": "TX", "lat": "29.5603", "lng": "-104.3653"}, {"name": "Nocona", "state": "TX", "lat": "33.7835", "lng": "-97.7302"}, {"name": "McDade", "state": "TX", "lat": "30.2819", "lng": "-97.2448"}, {"name": "Round Mountain", "state": "TX", "lat": "30.4298", "lng": "-98.3609"}, {"name": "Sanderson", "state": "TX", "lat": "30.1508", "lng": "-102.4080"}, {"name": "DISH", "state": "TX", "lat": "33.1330", "lng": "-97.3014"}, {"name": "Gorman", "state": "TX", "lat": "32.2136", "lng": "-98.6721"}, {"name": "Melvin", "state": "TX", "lat": "31.1993", "lng": "-99.5809"}, {"name": "Reklaw", "state": "TX", "lat": "31.8662", "lng": "-94.9833"}, {"name": "Port O'Connor", "state": "TX", "lat": "28.4463", "lng": "-96.4205"}, {"name": "Blum", "state": "TX", "lat": "32.1419", "lng": "-97.3972"}, {"name": "Blooming Grove", "state": "TX", "lat": "32.0925", "lng": "-96.7174"}, {"name": "Liberty", "state": "TX", "lat": "30.0470", "lng": "-94.7908"}, {"name": "Hull", "state": "TX", "lat": "30.1464", "lng": "-94.6422"}, {"name": "Llano Grande", "state": "TX", "lat": "26.1309", "lng": "-97.9687"}, {"name": "Gardendale", "state": "TX", "lat": "32.0105", "lng": "-102.3587"}, {"name": "New London", "state": "TX", "lat": "32.2686", "lng": "-94.9297"}, {"name": "Porter Heights", "state": "TX", "lat": "30.1501", "lng": "-95.3217"}, {"name": "Shallowater", "state": "TX", "lat": "33.6901", "lng": "-101.9893"}, {"name": "Hempstead", "state": "TX", "lat": "30.0996", "lng": "-96.0781"}, {"name": "Avery", "state": "TX", "lat": "33.5523", "lng": "-94.7804"}, {"name": "Gladewater", "state": "TX", "lat": "32.5426", "lng": "-94.9465"}, {"name": "China", "state": "TX", "lat": "30.0522", "lng": "-94.3332"}, {"name": "Harper", "state": "TX", "lat": "30.2903", "lng": "-99.2459"}, {"name": "Fort Stockton", "state": "TX", "lat": "30.8926", "lng": "-102.8847"}, {"name": "Loma Grande", "state": "TX", "lat": "28.7221", "lng": "-99.8327"}, {"name": "Tatum", "state": "TX", "lat": "32.3159", "lng": "-94.5189"}, {"name": "Manvel", "state": "TX", "lat": "29.4793", "lng": "-95.3658"}, {"name": "Juarez", "state": "TX", "lat": "26.2009", "lng": "-97.7296"}, {"name": "Garza-Salinas II", "state": "TX", "lat": "26.3519", "lng": "-98.7595"}, {"name": "Wortham", "state": "TX", "lat": "31.7897", "lng": "-96.4610"}, {"name": "Ratamosa", "state": "TX", "lat": "26.2005", "lng": "-97.8445"}, {"name": "Rancho Banquete", "state": "TX", "lat": "27.8094", "lng": "-97.8455"}, {"name": "Rockwall", "state": "TX", "lat": "32.9170", "lng": "-96.4377"}, {"name": "Payne Springs", "state": "TX", "lat": "32.2871", "lng": "-96.0888"}, {"name": "Solis", "state": "TX", "lat": "26.1708", "lng": "-97.8441"}, {"name": "Paloma Creek", "state": "TX", "lat": "33.2253", "lng": "-96.9371"}, {"name": "Midway", "state": "TX", "lat": "31.0252", "lng": "-95.7539"}, {"name": "Brownsville", "state": "TX", "lat": "25.9980", "lng": "-97.4565"}, {"name": "Joshua", "state": "TX", "lat": "32.4583", "lng": "-97.3851"}, {"name": "Rosenberg", "state": "TX", "lat": "29.5460", "lng": "-95.8220"}, {"name": "Bridgeport", "state": "TX", "lat": "33.2099", "lng": "-97.7709"}, {"name": "Jardin de San Julian", "state": "TX", "lat": "26.5254", "lng": "-99.0999"}, {"name": "Los Fresnos", "state": "TX", "lat": "26.0750", "lng": "-97.4877"}, {"name": "Amherst", "state": "TX", "lat": "34.0120", "lng": "-102.4147"}, {"name": "Moran", "state": "TX", "lat": "32.5472", "lng": "-99.1666"}, {"name": "Tierra Bonita", "state": "TX", "lat": "26.2727", "lng": "-97.8276"}, {"name": "Welch", "state": "TX", "lat": "32.9307", "lng": "-102.1256"}, {"name": "Gallatin", "state": "TX", "lat": "31.8968", "lng": "-95.1520"}, {"name": "Dalhart", "state": "TX", "lat": "36.0579", "lng": "-102.5123"}, {"name": "Olmito and Olmito", "state": "TX", "lat": "26.3400", "lng": "-98.6420"}, {"name": "Granbury", "state": "TX", "lat": "32.4484", "lng": "-97.7685"}, {"name": "Asherton", "state": "TX", "lat": "28.4461", "lng": "-99.7604"}, {"name": "Live Oak", "state": "TX", "lat": "29.5545", "lng": "-98.3404"}, {"name": "Hamlin", "state": "TX", "lat": "32.8898", "lng": "-100.1329"}, {"name": "Saline\u00c3\u00b1o", "state": "TX", "lat": "26.5176", "lng": "-99.1121"}, {"name": "Kempner", "state": "TX", "lat": "31.0755", "lng": "-97.9727"}, {"name": "Coyote Acres", "state": "TX", "lat": "27.7132", "lng": "-98.1346"}, {"name": "McKinney", "state": "TX", "lat": "33.2016", "lng": "-96.6669"}, {"name": "Barrett", "state": "TX", "lat": "29.8671", "lng": "-95.0537"}, {"name": "Crockett", "state": "TX", "lat": "31.3177", "lng": "-95.4564"}, {"name": "Texas City", "state": "TX", "lat": "29.4128", "lng": "-94.9658"}, {"name": "Quemado", "state": "TX", "lat": "28.9470", "lng": "-100.6237"}, {"name": "Murchison", "state": "TX", "lat": "32.2750", "lng": "-95.7561"}, {"name": "Laguna Vista", "state": "TX", "lat": "26.1075", "lng": "-97.2967"}, {"name": "Lasara", "state": "TX", "lat": "26.4634", "lng": "-97.9088"}, {"name": "Los Lobos", "state": "TX", "lat": "26.6065", "lng": "-99.1610"}, {"name": "Wolfe City", "state": "TX", "lat": "33.3686", "lng": "-96.0720"}, {"name": "Westbrook", "state": "TX", "lat": "32.3571", "lng": "-101.0132"}, {"name": "Hedwig Village", "state": "TX", "lat": "29.7799", "lng": "-95.5193"}, {"name": "Central Gardens", "state": "TX", "lat": "29.9892", "lng": "-94.0216"}, {"name": "St. Paul", "state": "TX", "lat": "33.0442", "lng": "-96.5499"}, {"name": "Blessing", "state": "TX", "lat": "28.8727", "lng": "-96.2172"}, {"name": "Quanah", "state": "TX", "lat": "34.2954", "lng": "-99.7429"}, {"name": "Briarcliff", "state": "TX", "lat": "30.4088", "lng": "-98.0451"}, {"name": "Cushing", "state": "TX", "lat": "31.8126", "lng": "-94.8411"}, {"name": "College Station", "state": "TX", "lat": "30.5852", "lng": "-96.2960"}, {"name": "Elbert", "state": "TX", "lat": "33.2748", "lng": "-99.0021"}, {"name": "Mountain City", "state": "TX", "lat": "30.0392", "lng": "-97.8915"}, {"name": "Doolittle", "state": "TX", "lat": "26.3598", "lng": "-98.1168"}, {"name": "Hillsboro", "state": "TX", "lat": "32.0092", "lng": "-97.1151"}, {"name": "Pattison", "state": "TX", "lat": "29.8190", "lng": "-95.9761"}, {"name": "Montague", "state": "TX", "lat": "33.6652", "lng": "-97.7210"}, {"name": "North Richland Hills", "state": "TX", "lat": "32.8605", "lng": "-97.2180"}, {"name": "West Odessa", "state": "TX", "lat": "31.8388", "lng": "-102.4996"}, {"name": "Los Minerales", "state": "TX", "lat": "27.6555", "lng": "-99.6178"}, {"name": "New Braunfels", "state": "TX", "lat": "29.6997", "lng": "-98.1148"}, {"name": "Tulia", "state": "TX", "lat": "34.5374", "lng": "-101.7743"}, {"name": "Rangerville", "state": "TX", "lat": "26.1050", "lng": "-97.7373"}, {"name": "The Hills", "state": "TX", "lat": "30.3465", "lng": "-97.9864"}, {"name": "Amaya", "state": "TX", "lat": "28.7121", "lng": "-99.8353"}, {"name": "Yantis", "state": "TX", "lat": "32.9305", "lng": "-95.5761"}, {"name": "Lockhart", "state": "TX", "lat": "29.8785", "lng": "-97.6831"}, {"name": "Lindsay", "state": "TX", "lat": "33.6414", "lng": "-97.2186"}, {"name": "Walnut Springs", "state": "TX", "lat": "32.0562", "lng": "-97.7507"}, {"name": "South Houston", "state": "TX", "lat": "29.6611", "lng": "-95.2285"}, {"name": "Hornsby Bend", "state": "TX", "lat": "30.2450", "lng": "-97.5833"}, {"name": "Vidor", "state": "TX", "lat": "30.1291", "lng": "-93.9967"}, {"name": "Hereford", "state": "TX", "lat": "34.8232", "lng": "-102.4001"}, {"name": "Rosita", "state": "TX", "lat": "28.6244", "lng": "-100.4287"}, {"name": "O'Donnell", "state": "TX", "lat": "32.9652", "lng": "-101.8309"}, {"name": "Redfield", "state": "TX", "lat": "31.6811", "lng": "-94.6629"}, {"name": "Pecan Plantation", "state": "TX", "lat": "32.3628", "lng": "-97.6554"}, {"name": "Lake Worth", "state": "TX", "lat": "32.8130", "lng": "-97.4306"}, {"name": "Bryson", "state": "TX", "lat": "33.1636", "lng": "-98.3891"}, {"name": "Timbercreek Canyon", "state": "TX", "lat": "35.0539", "lng": "-101.8186"}, {"name": "San Leanna", "state": "TX", "lat": "30.1442", "lng": "-97.8196"}, {"name": "Childress", "state": "TX", "lat": "34.4293", "lng": "-100.2516"}, {"name": "Loraine", "state": "TX", "lat": "32.4087", "lng": "-100.7124"}, {"name": "Slaton", "state": "TX", "lat": "33.4422", "lng": "-101.6477"}, {"name": "Lorena", "state": "TX", "lat": "31.3818", "lng": "-97.2127"}, {"name": "Giddings", "state": "TX", "lat": "30.1833", "lng": "-96.9279"}, {"name": "Detroit", "state": "TX", "lat": "33.6601", "lng": "-95.2665"}, {"name": "Oak Ridge North", "state": "TX", "lat": "30.1570", "lng": "-95.4421"}, {"name": "Estelline", "state": "TX", "lat": "34.5470", "lng": "-100.4400"}, {"name": "Brushy Creek", "state": "TX", "lat": "30.5130", "lng": "-97.7382"}, {"name": "Rose Hill Acres", "state": "TX", "lat": "30.1933", "lng": "-94.1930"}, {"name": "South Point", "state": "TX", "lat": "25.8730", "lng": "-97.3830"}, {"name": "Lake Brownwood", "state": "TX", "lat": "31.8177", "lng": "-99.1045"}, {"name": "Milam", "state": "TX", "lat": "31.4541", "lng": "-93.7979"}, {"name": "Falcon Village", "state": "TX", "lat": "26.5653", "lng": "-99.1339"}, {"name": "La Loma de Falcon", "state": "TX", "lat": "26.5370", "lng": "-99.0961"}, {"name": "Hackberry", "state": "TX", "lat": "33.1501", "lng": "-96.9184"}, {"name": "Bulverde", "state": "TX", "lat": "29.7736", "lng": "-98.4359"}, {"name": "Golinda", "state": "TX", "lat": "31.3711", "lng": "-97.0763"}, {"name": "New Berlin", "state": "TX", "lat": "29.4892", "lng": "-98.1094"}, {"name": "Kosse", "state": "TX", "lat": "31.3070", "lng": "-96.6293"}, {"name": "Mason", "state": "TX", "lat": "30.7480", "lng": "-99.2288"}, {"name": "Edgewater Estates", "state": "TX", "lat": "28.0969", "lng": "-97.8650"}, {"name": "Gutierrez", "state": "TX", "lat": "26.3401", "lng": "-98.6315"}, {"name": "Rollingwood", "state": "TX", "lat": "30.2736", "lng": "-97.7867"}, {"name": "Falconaire", "state": "TX", "lat": "26.5511", "lng": "-99.1169"}, {"name": "Abbott", "state": "TX", "lat": "31.8870", "lng": "-97.0800"}, {"name": "Circle D-KC Estates", "state": "TX", "lat": "30.1611", "lng": "-97.2349"}, {"name": "Daingerfield", "state": "TX", "lat": "33.0306", "lng": "-94.7250"}, {"name": "Round Top", "state": "TX", "lat": "30.0640", "lng": "-96.6958"}, {"name": "Jamaica Beach", "state": "TX", "lat": "29.1905", "lng": "-94.9801"}, {"name": "La Joya", "state": "TX", "lat": "26.2518", "lng": "-98.4699"}, {"name": "Ranchitos Las Lomas", "state": "TX", "lat": "27.6283", "lng": "-99.2344"}, {"name": "Ingleside", "state": "TX", "lat": "27.8701", "lng": "-97.2076"}, {"name": "Elmo", "state": "TX", "lat": "32.7315", "lng": "-96.1590"}, {"name": "Seagoville", "state": "TX", "lat": "32.6530", "lng": "-96.5455"}, {"name": "Tierra Verde", "state": "TX", "lat": "27.7616", "lng": "-97.7174"}, {"name": "Jonestown", "state": "TX", "lat": "30.4755", "lng": "-97.9294"}, {"name": "Flor del Rio", "state": "TX", "lat": "26.4013", "lng": "-98.9015"}, {"name": "Bogata", "state": "TX", "lat": "33.4698", "lng": "-95.2135"}, {"name": "Lyford", "state": "TX", "lat": "26.4145", "lng": "-97.7894"}, {"name": "Los Indios", "state": "TX", "lat": "26.0493", "lng": "-97.7351"}, {"name": "Scissors", "state": "TX", "lat": "26.1334", "lng": "-98.0475"}, {"name": "Tierra Dorada", "state": "TX", "lat": "26.4007", "lng": "-98.9213"}, {"name": "Bloomburg", "state": "TX", "lat": "33.1378", "lng": "-94.0591"}, {"name": "Plains", "state": "TX", "lat": "33.1896", "lng": "-102.8271"}, {"name": "El Brazil", "state": "TX", "lat": "26.4686", "lng": "-98.7269"}, {"name": "Fulshear", "state": "TX", "lat": "29.6930", "lng": "-95.8792"}, {"name": "Del Rio", "state": "TX", "lat": "29.3708", "lng": "-100.8800"}, {"name": "Hewitt", "state": "TX", "lat": "31.4519", "lng": "-97.1961"}, {"name": "Holiday Beach", "state": "TX", "lat": "28.1670", "lng": "-97.0060"}, {"name": "Tool", "state": "TX", "lat": "32.2803", "lng": "-96.1725"}, {"name": "Olivia Lopez de Gutierrez", "state": "TX", "lat": "26.3276", "lng": "-98.7167"}, {"name": "Round Rock", "state": "TX", "lat": "30.5254", "lng": "-97.6659"}, {"name": "South La Paloma", "state": "TX", "lat": "27.8947", "lng": "-97.9685"}, {"name": "Beach City", "state": "TX", "lat": "29.7269", "lng": "-94.8549"}, {"name": "Lucas", "state": "TX", "lat": "33.0950", "lng": "-96.5792"}, {"name": "Hays", "state": "TX", "lat": "30.1215", "lng": "-97.8724"}, {"name": "Valle Verde", "state": "TX", "lat": "27.6797", "lng": "-99.2010"}, {"name": "Princeton", "state": "TX", "lat": "33.1792", "lng": "-96.5046"}, {"name": "South Padre Island", "state": "TX", "lat": "26.1218", "lng": "-97.1703"}, {"name": "Coyote Flats", "state": "TX", "lat": "32.3528", "lng": "-97.2944"}, {"name": "Buckholts", "state": "TX", "lat": "30.8740", "lng": "-97.1289"}, {"name": "Belton", "state": "TX", "lat": "31.0525", "lng": "-97.4790"}, {"name": "Chireno", "state": "TX", "lat": "31.4989", "lng": "-94.3459"}, {"name": "Grapeland", "state": "TX", "lat": "31.4944", "lng": "-95.4802"}, {"name": "Citrus City", "state": "TX", "lat": "26.3281", "lng": "-98.3923"}, {"name": "McQueeney", "state": "TX", "lat": "29.6000", "lng": "-98.0439"}, {"name": "Corrigan", "state": "TX", "lat": "30.9988", "lng": "-94.8275"}, {"name": "Frankston", "state": "TX", "lat": "32.0561", "lng": "-95.5043"}, {"name": "Marble Falls", "state": "TX", "lat": "30.5677", "lng": "-98.2751"}, {"name": "Alice Acres", "state": "TX", "lat": "27.7119", "lng": "-98.1080"}, {"name": "Bartonville", "state": "TX", "lat": "33.0795", "lng": "-97.1506"}, {"name": "Spade", "state": "TX", "lat": "33.9260", "lng": "-102.1542"}, {"name": "Ponder", "state": "TX", "lat": "33.1776", "lng": "-97.2909"}, {"name": "Cactus", "state": "TX", "lat": "36.0444", "lng": "-102.0080"}, {"name": "Oilton", "state": "TX", "lat": "27.4693", "lng": "-98.9672"}, {"name": "Thornton", "state": "TX", "lat": "31.4111", "lng": "-96.5738"}, {"name": "San Diego", "state": "TX", "lat": "27.7609", "lng": "-98.2389"}, {"name": "McAllen", "state": "TX", "lat": "26.2273", "lng": "-98.2471"}, {"name": "Cotulla", "state": "TX", "lat": "28.4364", "lng": "-99.2367"}, {"name": "Archer City", "state": "TX", "lat": "33.5937", "lng": "-98.6257"}, {"name": "Hallsburg", "state": "TX", "lat": "31.5684", "lng": "-96.9464"}, {"name": "Rocksprings", "state": "TX", "lat": "30.0172", "lng": "-100.2128"}, {"name": "Elkhart", "state": "TX", "lat": "31.6276", "lng": "-95.5789"}, {"name": "Fronton Ranchettes", "state": "TX", "lat": "26.4253", "lng": "-99.0268"}, {"name": "Tye", "state": "TX", "lat": "32.4522", "lng": "-99.8666"}, {"name": "Hutto", "state": "TX", "lat": "30.5374", "lng": "-97.5516"}, {"name": "Wells", "state": "TX", "lat": "31.4916", "lng": "-94.9473"}, {"name": "Victoria", "state": "TX", "lat": "28.8285", "lng": "-96.9850"}, {"name": "Tanquecitos South Acres II", "state": "TX", "lat": "27.4870", "lng": "-99.3882"}, {"name": "Santa Monica", "state": "TX", "lat": "26.3654", "lng": "-97.5900"}, {"name": "Rogers", "state": "TX", "lat": "30.9301", "lng": "-97.2291"}, {"name": "Rosharon", "state": "TX", "lat": "29.3500", "lng": "-95.4530"}, {"name": "Mildred", "state": "TX", "lat": "32.0411", "lng": "-96.3484"}, {"name": "Daisetta", "state": "TX", "lat": "30.1135", "lng": "-94.6426"}, {"name": "Owl Ranch", "state": "TX", "lat": "27.8927", "lng": "-98.0934"}, {"name": "Pleasanton", "state": "TX", "lat": "28.9643", "lng": "-98.4957"}, {"name": "Earth", "state": "TX", "lat": "34.2338", "lng": "-102.4091"}, {"name": "Calvert", "state": "TX", "lat": "30.9791", "lng": "-96.6716"}, {"name": "Whitehouse", "state": "TX", "lat": "32.2222", "lng": "-95.2217"}, {"name": "Duncanville", "state": "TX", "lat": "32.6460", "lng": "-96.9127"}, {"name": "Brookside Village", "state": "TX", "lat": "29.5907", "lng": "-95.3180"}, {"name": "Brookshire", "state": "TX", "lat": "29.7826", "lng": "-95.9545"}, {"name": "Louise", "state": "TX", "lat": "29.1119", "lng": "-96.4123"}, {"name": "Claude", "state": "TX", "lat": "35.1075", "lng": "-101.3628"}, {"name": "Haltom City", "state": "TX", "lat": "32.8176", "lng": "-97.2707"}, {"name": "Rancho Alegre", "state": "TX", "lat": "27.7392", "lng": "-98.1027"}, {"name": "Shoreacres", "state": "TX", "lat": "29.6204", "lng": "-95.0188"}, {"name": "Whiteface", "state": "TX", "lat": "33.5997", "lng": "-102.6133"}, {"name": "Rice", "state": "TX", "lat": "32.2387", "lng": "-96.4978"}, {"name": "Aldine", "state": "TX", "lat": "29.9122", "lng": "-95.3785"}, {"name": "Vinton", "state": "TX", "lat": "31.9600", "lng": "-106.5936"}, {"name": "Hondo", "state": "TX", "lat": "29.3532", "lng": "-99.1621"}, {"name": "Iraan", "state": "TX", "lat": "30.9129", "lng": "-101.9001"}, {"name": "Guthrie", "state": "TX", "lat": "33.6216", "lng": "-100.3290"}, {"name": "K-Bar Ranch", "state": "TX", "lat": "27.9928", "lng": "-97.9267"}, {"name": "San Felipe", "state": "TX", "lat": "29.7965", "lng": "-96.1051"}, {"name": "Wallis", "state": "TX", "lat": "29.6317", "lng": "-96.0638"}, {"name": "Goree", "state": "TX", "lat": "33.4680", "lng": "-99.5236"}, {"name": "Skellytown", "state": "TX", "lat": "35.5707", "lng": "-101.1731"}, {"name": "Sandy Hollow-Escondidas", "state": "TX", "lat": "27.9452", "lng": "-97.8061"}, {"name": "Ransom Canyon", "state": "TX", "lat": "33.5303", "lng": "-101.6838"}, {"name": "Falcon Mesa", "state": "TX", "lat": "26.8706", "lng": "-99.2906"}, {"name": "Eugenio Saenz", "state": "TX", "lat": "26.3582", "lng": "-98.6331"}, {"name": "Lexington", "state": "TX", "lat": "30.4147", "lng": "-97.0093"}, {"name": "Navasota", "state": "TX", "lat": "30.3874", "lng": "-96.0895"}, {"name": "Alamo Heights", "state": "TX", "lat": "29.4828", "lng": "-98.4681"}, {"name": "El Quiote", "state": "TX", "lat": "26.3845", "lng": "-98.9084"}, {"name": "Seven Points", "state": "TX", "lat": "32.3291", "lng": "-96.2142"}, {"name": "Farmers Branch", "state": "TX", "lat": "32.9272", "lng": "-96.8806"}, {"name": "Blackwell", "state": "TX", "lat": "32.0851", "lng": "-100.3194"}, {"name": "Los Ebanos", "state": "TX", "lat": "26.4114", "lng": "-98.9185"}, {"name": "Guerra", "state": "TX", "lat": "26.8827", "lng": "-98.8948"}, {"name": "Spofford", "state": "TX", "lat": "29.1733", "lng": "-100.4112"}, {"name": "Casa Blanca", "state": "TX", "lat": "26.2976", "lng": "-98.6102"}, {"name": "Ramireno", "state": "TX", "lat": "27.0144", "lng": "-99.3822"}, {"name": "Lancaster", "state": "TX", "lat": "32.5922", "lng": "-96.7737"}, {"name": "Wichita Falls", "state": "TX", "lat": "33.9072", "lng": "-98.5290"}, {"name": "Rockdale", "state": "TX", "lat": "30.6542", "lng": "-97.0089"}, {"name": "Kenefick", "state": "TX", "lat": "30.1069", "lng": "-94.8502"}, {"name": "Lott", "state": "TX", "lat": "31.2059", "lng": "-97.0333"}, {"name": "Kennard", "state": "TX", "lat": "31.3575", "lng": "-95.1855"}, {"name": "Melissa", "state": "TX", "lat": "33.2890", "lng": "-96.5573"}, {"name": "Winfield", "state": "TX", "lat": "33.1658", "lng": "-95.1105"}, {"name": "Pampa", "state": "TX", "lat": "35.5479", "lng": "-100.9650"}, {"name": "Quitaque", "state": "TX", "lat": "34.3674", "lng": "-101.0555"}, {"name": "Lamar", "state": "TX", "lat": "28.1439", "lng": "-96.9888"}, {"name": "Latexo", "state": "TX", "lat": "31.3890", "lng": "-95.4724"}, {"name": "Lake Bridgeport", "state": "TX", "lat": "33.2074", "lng": "-97.8311"}, {"name": "Vernon", "state": "TX", "lat": "34.1480", "lng": "-99.3000"}, {"name": "Carbon", "state": "TX", "lat": "32.2684", "lng": "-98.8272"}, {"name": "Southmayd", "state": "TX", "lat": "33.6233", "lng": "-96.7286"}, {"name": "McKinney Acres", "state": "TX", "lat": "32.2963", "lng": "-102.5297"}, {"name": "Austwell", "state": "TX", "lat": "28.3911", "lng": "-96.8437"}, {"name": "Bailey's Prairie", "state": "TX", "lat": "29.1527", "lng": "-95.4977"}, {"name": "Mertzon", "state": "TX", "lat": "31.2619", "lng": "-100.8208"}, {"name": "Dripping Springs", "state": "TX", "lat": "30.1920", "lng": "-98.0811"}, {"name": "Callisburg", "state": "TX", "lat": "33.6987", "lng": "-97.0159"}, {"name": "Honey Grove", "state": "TX", "lat": "33.5866", "lng": "-95.9090"}, {"name": "Sunset Acres", "state": "TX", "lat": "27.7942", "lng": "-99.4566"}, {"name": "Hallettsville", "state": "TX", "lat": "29.4428", "lng": "-96.9436"}, {"name": "Grandview", "state": "TX", "lat": "32.2685", "lng": "-97.1775"}, {"name": "Goodrich", "state": "TX", "lat": "30.6093", "lng": "-94.9467"}, {"name": "Las Lomitas", "state": "TX", "lat": "27.3378", "lng": "-98.6629"}, {"name": "Canyon", "state": "TX", "lat": "34.9877", "lng": "-101.9179"}, {"name": "Jersey Village", "state": "TX", "lat": "29.8903", "lng": "-95.5721"}, {"name": "Kingsville", "state": "TX", "lat": "27.5095", "lng": "-97.8610"}, {"name": "Pearland", "state": "TX", "lat": "29.5585", "lng": "-95.3215"}, {"name": "Sabinal", "state": "TX", "lat": "29.3214", "lng": "-99.4696"}, {"name": "Rose City", "state": "TX", "lat": "30.1049", "lng": "-94.0506"}, {"name": "Devers", "state": "TX", "lat": "30.0287", "lng": "-94.5860"}, {"name": "Preston", "state": "TX", "lat": "33.8671", "lng": "-96.6596"}, {"name": "San Elizario", "state": "TX", "lat": "31.5793", "lng": "-106.2632"}, {"name": "Rowlett", "state": "TX", "lat": "32.9157", "lng": "-96.5488"}, {"name": "Irving", "state": "TX", "lat": "32.8584", "lng": "-96.9702"}, {"name": "Olmos Park", "state": "TX", "lat": "29.4749", "lng": "-98.4866"}, {"name": "Olivarez", "state": "TX", "lat": "26.2285", "lng": "-97.9931"}, {"name": "Euless", "state": "TX", "lat": "32.8508", "lng": "-97.0799"}, {"name": "Commerce", "state": "TX", "lat": "33.2421", "lng": "-95.8991"}, {"name": "Tradewinds", "state": "TX", "lat": "27.9950", "lng": "-97.2603"}, {"name": "Colorado Acres", "state": "TX", "lat": "27.6449", "lng": "-99.2143"}, {"name": "Redford", "state": "TX", "lat": "29.4342", "lng": "-104.1824"}, {"name": "Fort Davis", "state": "TX", "lat": "30.5784", "lng": "-103.8921"}, {"name": "Heidelberg", "state": "TX", "lat": "26.1831", "lng": "-97.8850"}, {"name": "Oak Ridge", "state": "TX", "lat": "32.6489", "lng": "-96.2598"}, {"name": "Maypearl", "state": "TX", "lat": "32.3140", "lng": "-97.0053"}, {"name": "Dimmitt", "state": "TX", "lat": "34.5324", "lng": "-102.3111"}, {"name": "San Juan", "state": "TX", "lat": "26.1903", "lng": "-98.1520"}, {"name": "Tenaha", "state": "TX", "lat": "31.9440", "lng": "-94.2457"}, {"name": "Van Vleck", "state": "TX", "lat": "29.0278", "lng": "-95.8800"}, {"name": "Pharr", "state": "TX", "lat": "26.1685", "lng": "-98.1904"}, {"name": "Elias-Fela Solis", "state": "TX", "lat": "26.3857", "lng": "-98.6236"}, {"name": "Volente", "state": "TX", "lat": "30.4454", "lng": "-97.9080"}, {"name": "Kingsbury", "state": "TX", "lat": "29.6541", "lng": "-97.8000"}, {"name": "Dallas", "state": "TX", "lat": "32.7936", "lng": "-96.7662"}, {"name": "Los Nopalitos", "state": "TX", "lat": "27.6195", "lng": "-99.2056"}, {"name": "Lake View", "state": "TX", "lat": "29.4590", "lng": "-100.9532"}, {"name": "Box Canyon", "state": "TX", "lat": "29.5335", "lng": "-101.1586"}, {"name": "Electra", "state": "TX", "lat": "34.0325", "lng": "-98.9200"}, {"name": "Mingus", "state": "TX", "lat": "32.5364", "lng": "-98.4249"}, {"name": "Bells", "state": "TX", "lat": "33.6167", "lng": "-96.4126"}, {"name": "Seadrift", "state": "TX", "lat": "28.4143", "lng": "-96.7158"}, {"name": "Morgan Farm", "state": "TX", "lat": "28.0055", "lng": "-97.5535"}, {"name": "Carrizo Springs", "state": "TX", "lat": "28.5266", "lng": "-99.8589"}, {"name": "Creedmoor", "state": "TX", "lat": "30.0943", "lng": "-97.7431"}, {"name": "Edinburg", "state": "TX", "lat": "26.3197", "lng": "-98.1596"}, {"name": "Humble", "state": "TX", "lat": "29.9921", "lng": "-95.2655"}, {"name": "Kyle", "state": "TX", "lat": "29.9936", "lng": "-97.8858"}, {"name": "El Paso", "state": "TX", "lat": "31.8479", "lng": "-106.4309"}, {"name": "Roma", "state": "TX", "lat": "26.4166", "lng": "-99.0061"}, {"name": "Olton", "state": "TX", "lat": "34.1802", "lng": "-102.1370"}, {"name": "Bayou Vista", "state": "TX", "lat": "29.3257", "lng": "-94.9390"}, {"name": "McLean", "state": "TX", "lat": "35.2323", "lng": "-100.6001"}, {"name": "Hudson Bend", "state": "TX", "lat": "30.4139", "lng": "-97.9280"}, {"name": "Benavides", "state": "TX", "lat": "27.5969", "lng": "-98.4137"}, {"name": "Newton", "state": "TX", "lat": "30.8502", "lng": "-93.7537"}, {"name": "Abernathy", "state": "TX", "lat": "33.8389", "lng": "-101.8229"}, {"name": "Campbell", "state": "TX", "lat": "33.1483", "lng": "-95.9532"}, {"name": "Somerville", "state": "TX", "lat": "30.3460", "lng": "-96.5311"}, {"name": "Pinehurst", "state": "TX", "lat": "30.1087", "lng": "-93.7704"}, {"name": "Denton", "state": "TX", "lat": "33.2176", "lng": "-97.1419"}, {"name": "Sugar Land", "state": "TX", "lat": "29.5935", "lng": "-95.6357"}, {"name": "Ramirez-Perez", "state": "TX", "lat": "26.3170", "lng": "-98.6933"}, {"name": "Borger", "state": "TX", "lat": "35.6598", "lng": "-101.4012"}, {"name": "White Settlement", "state": "TX", "lat": "32.7554", "lng": "-97.4605"}, {"name": "Clarksville", "state": "TX", "lat": "33.6110", "lng": "-95.0562"}, {"name": "Benbrook", "state": "TX", "lat": "32.6787", "lng": "-97.4638"}, {"name": "Amarillo", "state": "TX", "lat": "35.1989", "lng": "-101.8310"}, {"name": "Emhouse", "state": "TX", "lat": "32.1607", "lng": "-96.5772"}, {"name": "Newcastle", "state": "TX", "lat": "33.1950", "lng": "-98.7436"}, {"name": "Retreat", "state": "TX", "lat": "32.0508", "lng": "-96.4787"}, {"name": "Loma Linda West", "state": "TX", "lat": "26.4205", "lng": "-98.9304"}, {"name": "Alice", "state": "TX", "lat": "27.7556", "lng": "-98.0653"}, {"name": "Alamo", "state": "TX", "lat": "26.1811", "lng": "-98.1177"}, {"name": "Plainview", "state": "TX", "lat": "34.1911", "lng": "-101.7234"}, {"name": "Ennis", "state": "TX", "lat": "32.3239", "lng": "-96.6377"}, {"name": "Mexia", "state": "TX", "lat": "31.6809", "lng": "-96.4833"}, {"name": "Catarina", "state": "TX", "lat": "28.3499", "lng": "-99.6162"}, {"name": "Boerne", "state": "TX", "lat": "29.7844", "lng": "-98.7289"}, {"name": "Dean", "state": "TX", "lat": "33.9299", "lng": "-98.3676"}, {"name": "Diboll", "state": "TX", "lat": "31.1881", "lng": "-94.7830"}, {"name": "Colorado City", "state": "TX", "lat": "32.3995", "lng": "-100.8582"}, {"name": "Loma Vista", "state": "TX", "lat": "26.4169", "lng": "-98.9814"}, {"name": "Blue Mound", "state": "TX", "lat": "32.8543", "lng": "-97.3383"}, {"name": "Port Neches", "state": "TX", "lat": "29.9765", "lng": "-93.9460"}, {"name": "Cooper", "state": "TX", "lat": "33.3716", "lng": "-95.6912"}, {"name": "South Toledo Bend", "state": "TX", "lat": "31.1568", "lng": "-93.6074"}, {"name": "Brundage", "state": "TX", "lat": "28.5740", "lng": "-99.6700"}, {"name": "Dalworthington Gardens", "state": "TX", "lat": "32.6936", "lng": "-97.1565"}, {"name": "Laureles", "state": "TX", "lat": "26.1168", "lng": "-97.4875"}, {"name": "San Angelo", "state": "TX", "lat": "31.4426", "lng": "-100.4501"}, {"name": "Westwood Shores", "state": "TX", "lat": "30.9376", "lng": "-95.3254"}, {"name": "Columbus", "state": "TX", "lat": "29.7055", "lng": "-96.5563"}, {"name": "La Minita", "state": "TX", "lat": "26.5022", "lng": "-99.0734"}, {"name": "Winona", "state": "TX", "lat": "32.4928", "lng": "-95.1730"}, {"name": "Riesel", "state": "TX", "lat": "31.4763", "lng": "-96.9304"}, {"name": "Post", "state": "TX", "lat": "33.1911", "lng": "-101.3814"}, {"name": "Decatur", "state": "TX", "lat": "33.2269", "lng": "-97.5886"}, {"name": "Sebastian", "state": "TX", "lat": "26.3454", "lng": "-97.7964"}, {"name": "Bynum", "state": "TX", "lat": "31.9690", "lng": "-97.0031"}, {"name": "Clute", "state": "TX", "lat": "29.0257", "lng": "-95.3975"}, {"name": "West Lake Hills", "state": "TX", "lat": "30.2919", "lng": "-97.8084"}, {"name": "West Alto Bonito", "state": "TX", "lat": "26.3144", "lng": "-98.6632"}, {"name": "Kilgore", "state": "TX", "lat": "32.3979", "lng": "-94.8603"}, {"name": "Nixon", "state": "TX", "lat": "29.2698", "lng": "-97.7658"}, {"name": "Nevada", "state": "TX", "lat": "33.0463", "lng": "-96.3811"}, {"name": "Shenandoah", "state": "TX", "lat": "30.1840", "lng": "-95.4556"}, {"name": "Windcrest", "state": "TX", "lat": "29.5148", "lng": "-98.3819"}, {"name": "Haskell", "state": "TX", "lat": "33.1597", "lng": "-99.7320"}, {"name": "Patton Village", "state": "TX", "lat": "30.1956", "lng": "-95.1697"}, {"name": "Spring Valley Village", "state": "TX", "lat": "29.7898", "lng": "-95.5041"}, {"name": "Goldthwaite", "state": "TX", "lat": "31.4513", "lng": "-98.5736"}, {"name": "Granite Shoals", "state": "TX", "lat": "30.5895", "lng": "-98.3778"}, {"name": "Batesville", "state": "TX", "lat": "28.9553", "lng": "-99.6237"}, {"name": "Anderson", "state": "TX", "lat": "30.4871", "lng": "-95.9899"}, {"name": "Cleburne", "state": "TX", "lat": "32.3561", "lng": "-97.4145"}, {"name": "Happy", "state": "TX", "lat": "34.7416", "lng": "-101.8572"}, {"name": "Pearsall", "state": "TX", "lat": "28.8885", "lng": "-99.0988"}, {"name": "Danbury", "state": "TX", "lat": "29.2274", "lng": "-95.3461"}, {"name": "Converse", "state": "TX", "lat": "29.5091", "lng": "-98.3084"}, {"name": "Seguin", "state": "TX", "lat": "29.5891", "lng": "-97.9661"}, {"name": "Avinger", "state": "TX", "lat": "32.8981", "lng": "-94.5535"}, {"name": "Granger", "state": "TX", "lat": "30.7179", "lng": "-97.4411"}, {"name": "Hughes Springs", "state": "TX", "lat": "32.9986", "lng": "-94.6310"}, {"name": "Jayton", "state": "TX", "lat": "33.2502", "lng": "-100.5748"}, {"name": "Morgan's Point Resort", "state": "TX", "lat": "31.1518", "lng": "-97.4581"}, {"name": "Todd Mission", "state": "TX", "lat": "30.2612", "lng": "-95.8298"}, {"name": "Lackland AFB", "state": "TX", "lat": "29.3866", "lng": "-98.6179"}, {"name": "Yorktown", "state": "TX", "lat": "28.9829", "lng": "-97.5050"}, {"name": "Lowry Crossing", "state": "TX", "lat": "33.1709", "lng": "-96.5444"}, {"name": "San Marcos", "state": "TX", "lat": "29.8736", "lng": "-97.9380"}, {"name": "Highland Park", "state": "TX", "lat": "32.8311", "lng": "-96.8012"}, {"name": "Moore", "state": "TX", "lat": "29.0573", "lng": "-99.0068"}, {"name": "Loma Linda East", "state": "TX", "lat": "27.7663", "lng": "-98.1942"}, {"name": "Neylandville", "state": "TX", "lat": "33.2003", "lng": "-96.0059"}, {"name": "Kaufman", "state": "TX", "lat": "32.5769", "lng": "-96.3160"}, {"name": "Cinco Ranch", "state": "TX", "lat": "29.7395", "lng": "-95.7606"}, {"name": "Shiner", "state": "TX", "lat": "29.4332", "lng": "-97.1734"}, {"name": "Laredo Ranchettes", "state": "TX", "lat": "27.4911", "lng": "-99.3599"}, {"name": "Ravenna", "state": "TX", "lat": "33.6705", "lng": "-96.2409"}, {"name": "Windthorst", "state": "TX", "lat": "33.5760", "lng": "-98.4348"}, {"name": "H. Cuellar Estates", "state": "TX", "lat": "26.5611", "lng": "-99.1258"}, {"name": "Brownwood", "state": "TX", "lat": "31.7124", "lng": "-98.9766"}, {"name": "Pasadena", "state": "TX", "lat": "29.6584", "lng": "-95.1499"}, {"name": "Queen City", "state": "TX", "lat": "33.1507", "lng": "-94.1524"}, {"name": "Lolita", "state": "TX", "lat": "28.8325", "lng": "-96.5388"}, {"name": "San Antonio", "state": "TX", "lat": "29.4658", "lng": "-98.5254"}, {"name": "Evergreen", "state": "TX", "lat": "26.4247", "lng": "-99.0240"}, {"name": "Mustang Ridge", "state": "TX", "lat": "30.0576", "lng": "-97.6852"}, {"name": "Raymondville", "state": "TX", "lat": "26.4759", "lng": "-97.7769"}, {"name": "Bellevue", "state": "TX", "lat": "33.6334", "lng": "-98.0161"}, {"name": "Garland", "state": "TX", "lat": "32.9100", "lng": "-96.6305"}, {"name": "Hillside Acres", "state": "TX", "lat": "27.6761", "lng": "-99.1777"}, {"name": "Highland Haven", "state": "TX", "lat": "30.6073", "lng": "-98.3950"}, {"name": "Coupland", "state": "TX", "lat": "30.4568", "lng": "-97.3979"}, {"name": "Zuehl", "state": "TX", "lat": "29.4960", "lng": "-98.1535"}, {"name": "Uvalde", "state": "TX", "lat": "29.2153", "lng": "-99.7782"}, {"name": "Bay City", "state": "TX", "lat": "28.9838", "lng": "-95.9601"}, {"name": "Riviera", "state": "TX", "lat": "27.2992", "lng": "-97.7996"}, {"name": "Quinlan", "state": "TX", "lat": "32.9090", "lng": "-96.1312"}, {"name": "Banquete", "state": "TX", "lat": "27.8007", "lng": "-97.7972"}, {"name": "Lake Cherokee", "state": "TX", "lat": "32.3569", "lng": "-94.6513"}, {"name": "Oak Leaf", "state": "TX", "lat": "32.5138", "lng": "-96.8563"}, {"name": "Van Horn", "state": "TX", "lat": "31.0407", "lng": "-104.8340"}, {"name": "Sandia", "state": "TX", "lat": "28.0199", "lng": "-97.8701"}, {"name": "Oglesby", "state": "TX", "lat": "31.4187", "lng": "-97.5114"}, {"name": "Caddo Mills", "state": "TX", "lat": "33.0505", "lng": "-96.2279"}, {"name": "Dumas", "state": "TX", "lat": "35.8613", "lng": "-101.9642"}, {"name": "Mission Bend", "state": "TX", "lat": "29.6948", "lng": "-95.6657"}, {"name": "Marion", "state": "TX", "lat": "29.5726", "lng": "-98.1430"}, {"name": "Liberty Hill", "state": "TX", "lat": "30.6635", "lng": "-97.9077"}, {"name": "Newark", "state": "TX", "lat": "33.0049", "lng": "-97.4856"}, {"name": "J.F. Villareal", "state": "TX", "lat": "26.4199", "lng": "-98.9788"}, {"name": "Caldwell", "state": "TX", "lat": "30.5307", "lng": "-96.7007"}, {"name": "Santel", "state": "TX", "lat": "26.3756", "lng": "-98.8833"}, {"name": "Petersburg", "state": "TX", "lat": "33.8710", "lng": "-101.5974"}, {"name": "Henderson", "state": "TX", "lat": "32.1576", "lng": "-94.7960"}, {"name": "La Porte", "state": "TX", "lat": "29.6690", "lng": "-95.0483"}, {"name": "Port Mansfield", "state": "TX", "lat": "26.5623", "lng": "-97.4365"}, {"name": "Von Ormy", "state": "TX", "lat": "29.2802", "lng": "-98.6557"}, {"name": "Wharton", "state": "TX", "lat": "29.3138", "lng": "-96.1044"}, {"name": "Las Quintas Fronterizas", "state": "TX", "lat": "28.6898", "lng": "-100.4680"}, {"name": "Sonora", "state": "TX", "lat": "30.5707", "lng": "-100.6423"}, {"name": "Cool", "state": "TX", "lat": "32.8001", "lng": "-98.0113"}, {"name": "Henrietta", "state": "TX", "lat": "33.8147", "lng": "-98.1925"}, {"name": "Roaring Springs", "state": "TX", "lat": "33.8992", "lng": "-100.8561"}, {"name": "Corinth", "state": "TX", "lat": "33.1434", "lng": "-97.0681"}, {"name": "Holliday", "state": "TX", "lat": "33.8141", "lng": "-98.6899"}, {"name": "Clear Lake Shores", "state": "TX", "lat": "29.5457", "lng": "-95.0328"}, {"name": "Lantana", "state": "TX", "lat": "33.0920", "lng": "-97.1216"}, {"name": "Meadow", "state": "TX", "lat": "33.3377", "lng": "-102.2059"}, {"name": "Post Oak Bend City", "state": "TX", "lat": "32.6343", "lng": "-96.3186"}, {"name": "Seco Mines", "state": "TX", "lat": "28.7467", "lng": "-100.5027"}, {"name": "Pflugerville", "state": "TX", "lat": "30.4525", "lng": "-97.6020"}, {"name": "Stamford", "state": "TX", "lat": "33.0155", "lng": "-99.6717"}, {"name": "Rhome", "state": "TX", "lat": "33.0647", "lng": "-97.4779"}, {"name": "Briar", "state": "TX", "lat": "32.9884", "lng": "-97.5528"}, {"name": "Barstow", "state": "TX", "lat": "31.4616", "lng": "-103.3955"}, {"name": "Westdale", "state": "TX", "lat": "27.9657", "lng": "-97.9938"}, {"name": "Groves", "state": "TX", "lat": "29.9457", "lng": "-93.9164"}, {"name": "Beasley", "state": "TX", "lat": "29.4946", "lng": "-95.9146"}, {"name": "Falcon Lake Estates", "state": "TX", "lat": "26.8719", "lng": "-99.2585"}, {"name": "El Lago", "state": "TX", "lat": "29.5733", "lng": "-95.0440"}, {"name": "Dell City", "state": "TX", "lat": "31.9349", "lng": "-105.1998"}, {"name": "Tira", "state": "TX", "lat": "33.3222", "lng": "-95.5606"}, {"name": "Weir", "state": "TX", "lat": "30.6759", "lng": "-97.5929"}, {"name": "Byers", "state": "TX", "lat": "34.0696", "lng": "-98.1913"}, {"name": "Ranchitos East", "state": "TX", "lat": "27.4901", "lng": "-99.3668"}, {"name": "Los Barreras", "state": "TX", "lat": "26.3911", "lng": "-98.9184"}, {"name": "Easton", "state": "TX", "lat": "32.3820", "lng": "-94.5912"}, {"name": "Alto", "state": "TX", "lat": "31.6510", "lng": "-95.0708"}, {"name": "El Castillo", "state": "TX", "lat": "26.3349", "lng": "-98.6384"}, {"name": "Canadian", "state": "TX", "lat": "35.9097", "lng": "-100.3839"}, {"name": "New Fairview", "state": "TX", "lat": "33.1122", "lng": "-97.4489"}, {"name": "Dublin", "state": "TX", "lat": "32.0875", "lng": "-98.3391"}, {"name": "Muenster", "state": "TX", "lat": "33.6586", "lng": "-97.3874"}, {"name": "Cumings", "state": "TX", "lat": "29.5835", "lng": "-95.7965"}, {"name": "Bangs", "state": "TX", "lat": "31.7162", "lng": "-99.1303"}, {"name": "Franklin", "state": "TX", "lat": "31.0250", "lng": "-96.4876"}, {"name": "Kemp", "state": "TX", "lat": "32.4349", "lng": "-96.2234"}, {"name": "Burkburnett", "state": "TX", "lat": "34.0746", "lng": "-98.5672"}, {"name": "Hawk Cove", "state": "TX", "lat": "32.8839", "lng": "-96.0833"}, {"name": "La Paloma Addition", "state": "TX", "lat": "28.0170", "lng": "-97.5009"}, {"name": "Macdona", "state": "TX", "lat": "29.3205", "lng": "-98.6973"}, {"name": "Plum Grove", "state": "TX", "lat": "30.2007", "lng": "-95.0958"}, {"name": "Sand Springs", "state": "TX", "lat": "32.2795", "lng": "-101.3496"}, {"name": "Indio", "state": "TX", "lat": "26.5489", "lng": "-99.0959"}, {"name": "El Socio", "state": "TX", "lat": "26.3404", "lng": "-98.6371"}, {"name": "Sachse", "state": "TX", "lat": "32.9726", "lng": "-96.5793"}, {"name": "Big Sandy", "state": "TX", "lat": "32.5860", "lng": "-95.1127"}, {"name": "Trinidad", "state": "TX", "lat": "32.1562", "lng": "-96.1054"}, {"name": "Northlake", "state": "TX", "lat": "33.0802", "lng": "-97.2545"}, {"name": "Lipscomb", "state": "TX", "lat": "36.2215", "lng": "-100.2621"}, {"name": "Athens", "state": "TX", "lat": "32.2041", "lng": "-95.8321"}, {"name": "Fairfield", "state": "TX", "lat": "31.7184", "lng": "-96.1697"}, {"name": "Bellville", "state": "TX", "lat": "29.9472", "lng": "-96.2597"}, {"name": "Matador", "state": "TX", "lat": "34.0150", "lng": "-100.8211"}, {"name": "Milford", "state": "TX", "lat": "32.1214", "lng": "-96.9498"}, {"name": "Mansfield", "state": "TX", "lat": "32.5690", "lng": "-97.1211"}, {"name": "Palo Blanco", "state": "TX", "lat": "26.3875", "lng": "-98.9024"}, {"name": "Markham", "state": "TX", "lat": "28.9627", "lng": "-96.0645"}, {"name": "Seagraves", "state": "TX", "lat": "32.9419", "lng": "-102.5657"}, {"name": "Roscoe", "state": "TX", "lat": "32.4419", "lng": "-100.5322"}, {"name": "Grand Prairie", "state": "TX", "lat": "32.6870", "lng": "-97.0209"}, {"name": "Horseshoe Bend", "state": "TX", "lat": "32.5752", "lng": "-97.8782"}, {"name": "Ropesville", "state": "TX", "lat": "33.4133", "lng": "-102.1552"}, {"name": "Glen Rose", "state": "TX", "lat": "32.2461", "lng": "-97.7441"}, {"name": "Vega", "state": "TX", "lat": "35.2456", "lng": "-102.4262"}, {"name": "Waller", "state": "TX", "lat": "30.0629", "lng": "-95.9221"}, {"name": "Webster", "state": "TX", "lat": "29.5317", "lng": "-95.1188"}, {"name": "Hartley", "state": "TX", "lat": "35.8914", "lng": "-102.3933"}, {"name": "Fort Hancock", "state": "TX", "lat": "31.2837", "lng": "-105.8446"}, {"name": "Fulton", "state": "TX", "lat": "28.0706", "lng": "-97.0428"}, {"name": "San Isidro", "state": "TX", "lat": "26.7136", "lng": "-98.4479"}, {"name": "Edna", "state": "TX", "lat": "28.9756", "lng": "-96.6483"}, {"name": "Hermleigh", "state": "TX", "lat": "32.6366", "lng": "-100.7523"}, {"name": "Stonewall", "state": "TX", "lat": "30.2497", "lng": "-98.6593"}, {"name": "Longview", "state": "TX", "lat": "32.5192", "lng": "-94.7622"}, {"name": "Richland", "state": "TX", "lat": "31.9176", "lng": "-96.4266"}, {"name": "Lubbock", "state": "TX", "lat": "33.5642", "lng": "-101.8871"}, {"name": "Monte Alto", "state": "TX", "lat": "26.3744", "lng": "-97.9727"}, {"name": "Aurora", "state": "TX", "lat": "33.0560", "lng": "-97.5096"}, {"name": "Cuero", "state": "TX", "lat": "29.1023", "lng": "-97.2871"}, {"name": "Sammy Martinez", "state": "TX", "lat": "26.4329", "lng": "-98.7512"}, {"name": "Coleman", "state": "TX", "lat": "31.8317", "lng": "-99.4222"}, {"name": "Stockdale", "state": "TX", "lat": "29.2358", "lng": "-97.9636"}, {"name": "Chillicothe", "state": "TX", "lat": "34.2560", "lng": "-99.5144"}, {"name": "Tuscola", "state": "TX", "lat": "32.2105", "lng": "-99.7993"}, {"name": "Coldspring", "state": "TX", "lat": "30.5898", "lng": "-95.1307"}, {"name": "San Perlita", "state": "TX", "lat": "26.5007", "lng": "-97.6394"}, {"name": "Hedley", "state": "TX", "lat": "34.8674", "lng": "-100.6592"}, {"name": "Clyde", "state": "TX", "lat": "32.4056", "lng": "-99.5039"}, {"name": "Deweyville", "state": "TX", "lat": "30.3034", "lng": "-93.7592"}, {"name": "Tomball", "state": "TX", "lat": "30.0964", "lng": "-95.6186"}, {"name": "Ballinger", "state": "TX", "lat": "31.7396", "lng": "-99.9559"}, {"name": "Killeen", "state": "TX", "lat": "31.0755", "lng": "-97.7297"}, {"name": "El Rancho Vela", "state": "TX", "lat": "26.4038", "lng": "-98.7691"}, {"name": "Lufkin", "state": "TX", "lat": "31.3217", "lng": "-94.7277"}, {"name": "Cedar Park", "state": "TX", "lat": "30.5105", "lng": "-97.8197"}, {"name": "Southlake", "state": "TX", "lat": "32.9545", "lng": "-97.1503"}, {"name": "Hilltop", "state": "TX", "lat": "28.6938", "lng": "-99.1761"}, {"name": "Fairview", "state": "TX", "lat": "33.1399", "lng": "-96.6117"}, {"name": "Comfort", "state": "TX", "lat": "29.9714", "lng": "-98.9040"}, {"name": "Josephine", "state": "TX", "lat": "33.0617", "lng": "-96.3188"}, {"name": "Beaumont", "state": "TX", "lat": "30.0850", "lng": "-94.1451"}, {"name": "Bear Creek", "state": "TX", "lat": "30.1826", "lng": "-97.9400"}, {"name": "Grey Forest", "state": "TX", "lat": "29.6169", "lng": "-98.6833"}, {"name": "La Casita", "state": "TX", "lat": "26.3367", "lng": "-98.7334"}, {"name": "Tierra Grande", "state": "TX", "lat": "27.7037", "lng": "-97.5718"}, {"name": "Kress", "state": "TX", "lat": "34.3658", "lng": "-101.7484"}, {"name": "Windom", "state": "TX", "lat": "33.5647", "lng": "-95.9985"}, {"name": "Winnsboro", "state": "TX", "lat": "32.9557", "lng": "-95.2909"}, {"name": "Agua Dulce", "state": "TX", "lat": "27.7828", "lng": "-97.9098"}, {"name": "De Kalb", "state": "TX", "lat": "33.5076", "lng": "-94.6167"}, {"name": "DeSoto", "state": "TX", "lat": "32.5992", "lng": "-96.8633"}, {"name": "C\u00c3\u00a9sar Ch\u00c3\u00a1vez", "state": "TX", "lat": "26.3118", "lng": "-98.1117"}, {"name": "Meridian", "state": "TX", "lat": "31.9261", "lng": "-97.6500"}, {"name": "Douglassville", "state": "TX", "lat": "33.1917", "lng": "-94.3519"}, {"name": "B and E", "state": "TX", "lat": "26.3565", "lng": "-98.7537"}, {"name": "Anson", "state": "TX", "lat": "32.7550", "lng": "-99.8962"}, {"name": "Hamilton", "state": "TX", "lat": "31.6997", "lng": "-98.1208"}, {"name": "Abram", "state": "TX", "lat": "26.2181", "lng": "-98.4180"}, {"name": "Port Aransas", "state": "TX", "lat": "27.8102", "lng": "-97.0875"}, {"name": "Cross Mountain", "state": "TX", "lat": "29.6535", "lng": "-98.6564"}, {"name": "Fifth Street", "state": "TX", "lat": "29.5982", "lng": "-95.5520"}, {"name": "Shady Hollow", "state": "TX", "lat": "30.1645", "lng": "-97.8631"}, {"name": "Briaroaks", "state": "TX", "lat": "32.4958", "lng": "-97.3033"}, {"name": "Edcouch", "state": "TX", "lat": "26.2938", "lng": "-97.9631"}, {"name": "Blue Berry Hill", "state": "TX", "lat": "28.3855", "lng": "-97.7920"}, {"name": "Salado", "state": "TX", "lat": "30.9462", "lng": "-97.5281"}, {"name": "Pantego", "state": "TX", "lat": "32.7147", "lng": "-97.1540"}, {"name": "Hargill", "state": "TX", "lat": "26.4423", "lng": "-98.0146"}, {"name": "Bovina", "state": "TX", "lat": "34.5157", "lng": "-102.8846"}, {"name": "Skidmore", "state": "TX", "lat": "28.2626", "lng": "-97.6855"}, {"name": "Cross Plains", "state": "TX", "lat": "32.1271", "lng": "-99.1658"}, {"name": "Garceno", "state": "TX", "lat": "26.4124", "lng": "-98.9405"}, {"name": "Big Spring", "state": "TX", "lat": "32.2387", "lng": "-101.4802"}, {"name": "Watauga", "state": "TX", "lat": "32.8718", "lng": "-97.2515"}, {"name": "Holly Lake Ranch", "state": "TX", "lat": "32.7125", "lng": "-95.2003"}, {"name": "Gonzales", "state": "TX", "lat": "29.5126", "lng": "-97.4472"}, {"name": "East Mountain", "state": "TX", "lat": "32.6006", "lng": "-94.8527"}, {"name": "El Campo", "state": "TX", "lat": "29.1986", "lng": "-96.2725"}, {"name": "Perrin", "state": "TX", "lat": "33.0348", "lng": "-98.0693"}, {"name": "D'Hanis", "state": "TX", "lat": "29.3305", "lng": "-99.2753"}, {"name": "Lone Oak", "state": "TX", "lat": "32.9961", "lng": "-95.9406"}, {"name": "Bardwell", "state": "TX", "lat": "32.2671", "lng": "-96.6954"}, {"name": "Rancho Chico", "state": "TX", "lat": "28.0243", "lng": "-97.4966"}, {"name": "Livingston", "state": "TX", "lat": "30.7100", "lng": "-94.9381"}, {"name": "Gordon", "state": "TX", "lat": "32.5455", "lng": "-98.3672"}, {"name": "Los Corralitos", "state": "TX", "lat": "27.6412", "lng": "-99.5574"}, {"name": "San Carlos I", "state": "TX", "lat": "27.4906", "lng": "-99.3726"}, {"name": "Rio Hondo", "state": "TX", "lat": "26.2346", "lng": "-97.5817"}, {"name": "West Columbia", "state": "TX", "lat": "29.1421", "lng": "-95.6489"}, {"name": "Siesta Acres", "state": "TX", "lat": "28.7564", "lng": "-100.4910"}, {"name": "Grandfalls", "state": "TX", "lat": "31.3405", "lng": "-102.8545"}, {"name": "Westlake", "state": "TX", "lat": "32.9810", "lng": "-97.2038"}, {"name": "The Colony", "state": "TX", "lat": "33.0927", "lng": "-96.8977"}, {"name": "Los Ybanez", "state": "TX", "lat": "32.7188", "lng": "-101.9174"}, {"name": "Runaway Bay", "state": "TX", "lat": "33.1773", "lng": "-97.8710"}, {"name": "Lago", "state": "TX", "lat": "26.0885", "lng": "-97.6132"}, {"name": "Alfred", "state": "TX", "lat": "27.8742", "lng": "-97.9799"}, {"name": "Darrouzett", "state": "TX", "lat": "36.4450", "lng": "-100.3257"}, {"name": "Nordheim", "state": "TX", "lat": "28.9239", "lng": "-97.6141"}, {"name": "Godley", "state": "TX", "lat": "32.4513", "lng": "-97.5322"}, {"name": "Butterfield", "state": "TX", "lat": "31.8426", "lng": "-106.0822"}, {"name": "Bloomington", "state": "TX", "lat": "28.6504", "lng": "-96.9022"}, {"name": "Redland", "state": "TX", "lat": "31.4033", "lng": "-94.7182"}, {"name": "Crosbyton", "state": "TX", "lat": "33.6413", "lng": "-101.2377"}, {"name": "La Vernia", "state": "TX", "lat": "29.3542", "lng": "-98.1220"}, {"name": "Bertram", "state": "TX", "lat": "30.7428", "lng": "-98.0591"}, {"name": "Hale Center", "state": "TX", "lat": "34.0661", "lng": "-101.8462"}, {"name": "Woodsboro", "state": "TX", "lat": "28.2379", "lng": "-97.3255"}, {"name": "Ranchos Penitas West", "state": "TX", "lat": "27.6745", "lng": "-99.6035"}, {"name": "Marfa", "state": "TX", "lat": "30.3107", "lng": "-104.0255"}, {"name": "Brownfield", "state": "TX", "lat": "33.1757", "lng": "-102.2730"}, {"name": "Reno", "state": "TX", "lat": "33.6659", "lng": "-95.4768"}, {"name": "Mesquite", "state": "TX", "lat": "32.7623", "lng": "-96.5889"}, {"name": "Denver City", "state": "TX", "lat": "32.9680", "lng": "-102.8318"}, {"name": "Allen", "state": "TX", "lat": "33.1088", "lng": "-96.6735"}, {"name": "Marathon", "state": "TX", "lat": "30.2157", "lng": "-103.2433"}, {"name": "Piney Point Village", "state": "TX", "lat": "29.7588", "lng": "-95.5156"}, {"name": "Fabens", "state": "TX", "lat": "31.5136", "lng": "-106.1521"}, {"name": "Wink", "state": "TX", "lat": "31.7545", "lng": "-103.1541"}, {"name": "Canton", "state": "TX", "lat": "32.5540", "lng": "-95.8639"}, {"name": "Jefferson", "state": "TX", "lat": "32.7634", "lng": "-94.3511"}, {"name": "Missouri City", "state": "TX", "lat": "29.5630", "lng": "-95.5365"}, {"name": "Nazareth", "state": "TX", "lat": "34.5416", "lng": "-102.1021"}, {"name": "Bailey", "state": "TX", "lat": "33.4336", "lng": "-96.1651"}, {"name": "Cloverleaf", "state": "TX", "lat": "29.7882", "lng": "-95.1724"}, {"name": "Frost", "state": "TX", "lat": "32.0788", "lng": "-96.8086"}, {"name": "North Alamo", "state": "TX", "lat": "26.2160", "lng": "-98.1264"}, {"name": "Sherman", "state": "TX", "lat": "33.6266", "lng": "-96.6195"}, {"name": "Rankin", "state": "TX", "lat": "31.2253", "lng": "-101.9394"}, {"name": "Jacinto City", "state": "TX", "lat": "29.7663", "lng": "-95.2410"}, {"name": "Mineral Wells", "state": "TX", "lat": "32.8169", "lng": "-98.0776"}, {"name": "Little River-Academy", "state": "TX", "lat": "30.9876", "lng": "-97.3531"}, {"name": "Canutillo", "state": "TX", "lat": "31.9185", "lng": "-106.6006"}, {"name": "Winters", "state": "TX", "lat": "31.9564", "lng": "-99.9293"}, {"name": "Los Arrieros", "state": "TX", "lat": "26.5164", "lng": "-99.0844"}, {"name": "Lawn", "state": "TX", "lat": "32.1366", "lng": "-99.7501"}, {"name": "Log Cabin", "state": "TX", "lat": "32.2231", "lng": "-96.0222"}, {"name": "Linn", "state": "TX", "lat": "26.5662", "lng": "-98.1297"}, {"name": "Enchanted Oaks", "state": "TX", "lat": "32.2667", "lng": "-96.1090"}, {"name": "Sunset", "state": "TX", "lat": "33.4479", "lng": "-97.7663"}, {"name": "Airport Heights", "state": "TX", "lat": "26.4087", "lng": "-98.8366"}, {"name": "Hutchins", "state": "TX", "lat": "32.6421", "lng": "-96.7093"}, {"name": "Pecan Gap", "state": "TX", "lat": "33.4382", "lng": "-95.8519"}, {"name": "Troy", "state": "TX", "lat": "31.2000", "lng": "-97.3019"}, {"name": "San Carlos", "state": "TX", "lat": "26.2957", "lng": "-98.0630"}, {"name": "Roby", "state": "TX", "lat": "32.7460", "lng": "-100.3794"}, {"name": "Lake Colorado City", "state": "TX", "lat": "32.3491", "lng": "-100.9376"}, {"name": "Floresville", "state": "TX", "lat": "29.1400", "lng": "-98.1630"}, {"name": "Beckville", "state": "TX", "lat": "32.2436", "lng": "-94.4561"}, {"name": "Kirbyville", "state": "TX", "lat": "30.6578", "lng": "-93.9001"}, {"name": "Lorenzo", "state": "TX", "lat": "33.6704", "lng": "-101.5361"}, {"name": "Manuel Garcia II", "state": "TX", "lat": "26.3126", "lng": "-98.6913"}, {"name": "Toco", "state": "TX", "lat": "33.6539", "lng": "-95.6492"}, {"name": "Merkel", "state": "TX", "lat": "32.4698", "lng": "-100.0111"}, {"name": "Zarate", "state": "TX", "lat": "26.3199", "lng": "-98.6369"}, {"name": "Morse", "state": "TX", "lat": "36.0660", "lng": "-101.4769"}, {"name": "Olmito", "state": "TX", "lat": "26.0232", "lng": "-97.5379"}, {"name": "Cedar Point", "state": "TX", "lat": "30.7975", "lng": "-95.0749"}, {"name": "Miles", "state": "TX", "lat": "31.6006", "lng": "-100.1853"}, {"name": "Lakeshore Gardens-Hidden Acres", "state": "TX", "lat": "28.1234", "lng": "-97.8653"}, {"name": "Hungerford", "state": "TX", "lat": "29.4040", "lng": "-96.0837"}, {"name": "Stinnett", "state": "TX", "lat": "35.8231", "lng": "-101.4436"}, {"name": "Comanche", "state": "TX", "lat": "31.9005", "lng": "-98.6044"}, {"name": "Rockport", "state": "TX", "lat": "28.0290", "lng": "-97.0722"}, {"name": "La Feria", "state": "TX", "lat": "26.1544", "lng": "-97.8256"}, {"name": "Kermit", "state": "TX", "lat": "31.8540", "lng": "-103.0924"}, {"name": "Weatherford", "state": "TX", "lat": "32.7535", "lng": "-97.7724"}, {"name": "Flatonia", "state": "TX", "lat": "29.6886", "lng": "-97.1060"}, {"name": "Everman", "state": "TX", "lat": "32.6296", "lng": "-97.2827"}, {"name": "Annona", "state": "TX", "lat": "33.5818", "lng": "-94.9130"}, {"name": "Holiday Lakes", "state": "TX", "lat": "29.2083", "lng": "-95.5146"}, {"name": "Hunters Creek Village", "state": "TX", "lat": "29.7715", "lng": "-95.4987"}, {"name": "La Pryor", "state": "TX", "lat": "28.9489", "lng": "-99.8484"}, {"name": "Bellmead", "state": "TX", "lat": "31.6025", "lng": "-97.0896"}, {"name": "Spring", "state": "TX", "lat": "30.0613", "lng": "-95.3830"}, {"name": "Simonton", "state": "TX", "lat": "29.6824", "lng": "-95.9910"}, {"name": "Marietta", "state": "TX", "lat": "33.1736", "lng": "-94.5425"}, {"name": "Como", "state": "TX", "lat": "33.0601", "lng": "-95.4757"}, {"name": "Brazos Bend", "state": "TX", "lat": "32.4752", "lng": "-97.7611"}, {"name": "Splendora", "state": "TX", "lat": "30.2321", "lng": "-95.1617"}, {"name": "Buena Vista", "state": "TX", "lat": "26.2941", "lng": "-98.6109"}, {"name": "Lipan", "state": "TX", "lat": "32.5187", "lng": "-98.0470"}, {"name": "Chula Vista", "state": "TX", "lat": "28.6573", "lng": "-100.4220"}, {"name": "Barton Creek", "state": "TX", "lat": "30.2818", "lng": "-97.8681"}, {"name": "Flowella", "state": "TX", "lat": "27.2200", "lng": "-98.0645"}, {"name": "Mabank", "state": "TX", "lat": "32.3682", "lng": "-96.1141"}, {"name": "Pecan Hill", "state": "TX", "lat": "32.4906", "lng": "-96.7815"}, {"name": "Cut and Shoot", "state": "TX", "lat": "30.3404", "lng": "-95.3540"}, {"name": "Iola", "state": "TX", "lat": "30.7719", "lng": "-96.0771"}, {"name": "Turkey", "state": "TX", "lat": "34.3939", "lng": "-100.8953"}, {"name": "Galena Park", "state": "TX", "lat": "29.7452", "lng": "-95.2333"}, {"name": "Leander", "state": "TX", "lat": "30.5728", "lng": "-97.8633"}, {"name": "Barry", "state": "TX", "lat": "32.0998", "lng": "-96.6377"}, {"name": "Odem", "state": "TX", "lat": "27.9464", "lng": "-97.5865"}, {"name": "Corpus Christi", "state": "TX", "lat": "27.7261", "lng": "-97.3755"}, {"name": "Odessa", "state": "TX", "lat": "31.8831", "lng": "-102.3406"}, {"name": "Tornillo", "state": "TX", "lat": "31.4366", "lng": "-106.1033"}, {"name": "Weston Lakes", "state": "TX", "lat": "29.6627", "lng": "-95.9353"}, {"name": "Millican", "state": "TX", "lat": "30.4670", "lng": "-96.2035"}, {"name": "Texhoma", "state": "TX", "lat": "36.4937", "lng": "-101.7937"}, {"name": "Morgan's Point", "state": "TX", "lat": "29.6765", "lng": "-95.0027"}, {"name": "Geronimo", "state": "TX", "lat": "29.6728", "lng": "-97.9686"}, {"name": "Balcones Heights", "state": "TX", "lat": "29.4899", "lng": "-98.5502"}, {"name": "Red Oak", "state": "TX", "lat": "32.5204", "lng": "-96.7862"}, {"name": "Crowley", "state": "TX", "lat": "32.5780", "lng": "-97.3584"}, {"name": "Elgin", "state": "TX", "lat": "30.3512", "lng": "-97.3876"}, {"name": "Crystal City", "state": "TX", "lat": "28.6909", "lng": "-99.8257"}, {"name": "Saline\u00c3\u00b1o North", "state": "TX", "lat": "26.5254", "lng": "-99.0906"}, {"name": "Bacliff", "state": "TX", "lat": "29.5077", "lng": "-94.9880"}, {"name": "Sweetwater", "state": "TX", "lat": "32.4693", "lng": "-100.4092"}, {"name": "Oak Point", "state": "TX", "lat": "33.1802", "lng": "-96.9911"}, {"name": "Zavalla", "state": "TX", "lat": "31.1584", "lng": "-94.4180"}, {"name": "Four Corners", "state": "TX", "lat": "29.6705", "lng": "-95.6597"}, {"name": "McGregor", "state": "TX", "lat": "31.4186", "lng": "-97.4283"}, {"name": "Broaddus", "state": "TX", "lat": "31.3050", "lng": "-94.2699"}, {"name": "Centerville", "state": "TX", "lat": "31.2579", "lng": "-95.9796"}, {"name": "Kirvin", "state": "TX", "lat": "31.7671", "lng": "-96.3300"}, {"name": "Oakwood", "state": "TX", "lat": "31.5848", "lng": "-95.8499"}, {"name": "Schertz", "state": "TX", "lat": "29.5648", "lng": "-98.2537"}, {"name": "Poteet", "state": "TX", "lat": "29.0372", "lng": "-98.5728"}, {"name": "Airport Road Addition", "state": "TX", "lat": "27.2190", "lng": "-98.0981"}, {"name": "Port Arthur", "state": "TX", "lat": "29.8554", "lng": "-93.9264"}, {"name": "O'Brien", "state": "TX", "lat": "33.3802", "lng": "-99.8438"}, {"name": "Runge", "state": "TX", "lat": "28.8858", "lng": "-97.7134"}, {"name": "Chapeno", "state": "TX", "lat": "26.5507", "lng": "-99.1339"}, {"name": "Cockrell Hill", "state": "TX", "lat": "32.7382", "lng": "-96.8886"}, {"name": "Port Lavaca", "state": "TX", "lat": "28.6181", "lng": "-96.6278"}, {"name": "Tolar", "state": "TX", "lat": "32.3894", "lng": "-97.9191"}, {"name": "Bronte", "state": "TX", "lat": "31.8857", "lng": "-100.2954"}, {"name": "Lewisville", "state": "TX", "lat": "33.0452", "lng": "-96.9823"}, {"name": "DeCordova", "state": "TX", "lat": "32.4280", "lng": "-97.6911"}, {"name": "Indian Springs", "state": "TX", "lat": "30.6879", "lng": "-94.7449"}, {"name": "Jacksboro", "state": "TX", "lat": "33.2235", "lng": "-98.1589"}, {"name": "Balch Springs", "state": "TX", "lat": "32.7194", "lng": "-96.6151"}, {"name": "Driftwood", "state": "TX", "lat": "30.1330", "lng": "-98.0373"}, {"name": "Valley Mills", "state": "TX", "lat": "31.6583", "lng": "-97.4716"}, {"name": "Wellington", "state": "TX", "lat": "34.8538", "lng": "-100.2141"}, {"name": "Poynor", "state": "TX", "lat": "32.0793", "lng": "-95.5924"}, {"name": "Taylor Lake Village", "state": "TX", "lat": "29.5764", "lng": "-95.0562"}, {"name": "East Bernard", "state": "TX", "lat": "29.5242", "lng": "-96.0622"}, {"name": "Sunnyvale", "state": "TX", "lat": "32.7974", "lng": "-96.5576"}, {"name": "Evadale", "state": "TX", "lat": "30.3369", "lng": "-94.0600"}, {"name": "Rising Star", "state": "TX", "lat": "32.0976", "lng": "-98.9665"}, {"name": "Del Sol", "state": "TX", "lat": "28.0132", "lng": "-97.5202"}, {"name": "Petrolia", "state": "TX", "lat": "34.0132", "lng": "-98.2311"}, {"name": "Iowa Park", "state": "TX", "lat": "33.9622", "lng": "-98.6819"}, {"name": "Sheldon", "state": "TX", "lat": "29.8596", "lng": "-95.1340"}, {"name": "Bowie", "state": "TX", "lat": "33.5566", "lng": "-97.8440"}, {"name": "Wells Branch", "state": "TX", "lat": "30.4432", "lng": "-97.6792"}, {"name": "Sulphur Springs", "state": "TX", "lat": "33.1421", "lng": "-95.6124"}, {"name": "Dodson", "state": "TX", "lat": "34.7654", "lng": "-100.0204"}, {"name": "Bedias", "state": "TX", "lat": "30.7792", "lng": "-95.9469"}, {"name": "Howardwick", "state": "TX", "lat": "35.0348", "lng": "-100.9079"}, {"name": "New Falcon", "state": "TX", "lat": "26.6382", "lng": "-99.0947"}, {"name": "Gatesville", "state": "TX", "lat": "31.4419", "lng": "-97.7351"}, {"name": "Ross", "state": "TX", "lat": "31.7282", "lng": "-97.1123"}, {"name": "Kirby", "state": "TX", "lat": "29.4611", "lng": "-98.3860"}, {"name": "Selma", "state": "TX", "lat": "29.5865", "lng": "-98.3134"}, {"name": "Early", "state": "TX", "lat": "31.7450", "lng": "-98.9374"}, {"name": "Carrollton", "state": "TX", "lat": "32.9890", "lng": "-96.8999"}, {"name": "Tom Bean", "state": "TX", "lat": "33.5201", "lng": "-96.4843"}, {"name": "Myrtle Springs", "state": "TX", "lat": "32.6151", "lng": "-95.9329"}, {"name": "Cantu Addition", "state": "TX", "lat": "27.2020", "lng": "-98.1555"}, {"name": "Bonanza Hills", "state": "TX", "lat": "27.7948", "lng": "-99.4695"}, {"name": "Christine", "state": "TX", "lat": "28.7863", "lng": "-98.4979"}, {"name": "South Mountain", "state": "TX", "lat": "31.4398", "lng": "-97.6793"}, {"name": "Rio Vista", "state": "TX", "lat": "32.2351", "lng": "-97.3744"}, {"name": "Villa Verde", "state": "TX", "lat": "26.1303", "lng": "-97.9956"}, {"name": "River Oaks", "state": "TX", "lat": "32.7767", "lng": "-97.3984"}, {"name": "Cedar Hill", "state": "TX", "lat": "32.5809", "lng": "-96.9592"}, {"name": "Wimberley", "state": "TX", "lat": "29.9849", "lng": "-98.0906"}, {"name": "Cisco", "state": "TX", "lat": "32.3848", "lng": "-98.9805"}, {"name": "Pittsburg", "state": "TX", "lat": "32.9997", "lng": "-94.9668"}, {"name": "Big Wells", "state": "TX", "lat": "28.5698", "lng": "-99.5701"}, {"name": "Edom", "state": "TX", "lat": "32.3743", "lng": "-95.6099"}, {"name": "Southside Place", "state": "TX", "lat": "29.7089", "lng": "-95.4367"}, {"name": "Hurst", "state": "TX", "lat": "32.8353", "lng": "-97.1808"}, {"name": "Stagecoach", "state": "TX", "lat": "30.1438", "lng": "-95.7079"}, {"name": "Pecos", "state": "TX", "lat": "31.4046", "lng": "-103.5057"}, {"name": "Sudan", "state": "TX", "lat": "34.0663", "lng": "-102.5242"}, {"name": "Freer", "state": "TX", "lat": "27.8823", "lng": "-98.6181"}, {"name": "Willis", "state": "TX", "lat": "30.4314", "lng": "-95.4832"}, {"name": "Morales-Sanchez", "state": "TX", "lat": "26.7876", "lng": "-99.1147"}, {"name": "New Deal", "state": "TX", "lat": "33.7322", "lng": "-101.8436"}, {"name": "Hawkins", "state": "TX", "lat": "32.5917", "lng": "-95.2027"}, {"name": "Pyote", "state": "TX", "lat": "31.5381", "lng": "-103.1225"}, {"name": "Arroyo Colorado Estates", "state": "TX", "lat": "26.1864", "lng": "-97.6113"}, {"name": "St. Jo", "state": "TX", "lat": "33.6950", "lng": "-97.5231"}, {"name": "Potosi", "state": "TX", "lat": "32.3404", "lng": "-99.6789"}, {"name": "Sandy Point", "state": "TX", "lat": "29.4013", "lng": "-95.4816"}, {"name": "Industry", "state": "TX", "lat": "29.9715", "lng": "-96.4992"}, {"name": "Brenham", "state": "TX", "lat": "30.1586", "lng": "-96.3965"}, {"name": "West", "state": "TX", "lat": "31.8032", "lng": "-97.0942"}, {"name": "Gregory", "state": "TX", "lat": "27.9221", "lng": "-97.2918"}, {"name": "Glenn Heights", "state": "TX", "lat": "32.5506", "lng": "-96.8548"}, {"name": "Fritch", "state": "TX", "lat": "35.6431", "lng": "-101.5964"}, {"name": "Brownsboro", "state": "TX", "lat": "32.2985", "lng": "-95.6130"}, {"name": "Ganado", "state": "TX", "lat": "29.0412", "lng": "-96.5110"}, {"name": "Bullard", "state": "TX", "lat": "32.1451", "lng": "-95.3196"}, {"name": "Powderly", "state": "TX", "lat": "33.8091", "lng": "-95.5049"}, {"name": "Penelope", "state": "TX", "lat": "31.8585", "lng": "-96.9281"}, {"name": "Taft Southwest", "state": "TX", "lat": "27.9707", "lng": "-97.4047"}, {"name": "Lakeview", "state": "TX", "lat": "34.6729", "lng": "-100.6973"}, {"name": "Jasper", "state": "TX", "lat": "30.9221", "lng": "-93.9947"}, {"name": "Burton", "state": "TX", "lat": "30.1813", "lng": "-96.5999"}, {"name": "Follett", "state": "TX", "lat": "36.4340", "lng": "-100.1408"}, {"name": "Hidalgo", "state": "TX", "lat": "26.1080", "lng": "-98.2481"}, {"name": "Mart", "state": "TX", "lat": "31.5421", "lng": "-96.8299"}, {"name": "Gunter", "state": "TX", "lat": "33.4646", "lng": "-96.7645"}, {"name": "Ferris", "state": "TX", "lat": "32.5369", "lng": "-96.6738"}, {"name": "Buda", "state": "TX", "lat": "30.0847", "lng": "-97.8440"}, {"name": "Breckenridge", "state": "TX", "lat": "32.7566", "lng": "-98.9125"}, {"name": "Somerset", "state": "TX", "lat": "29.2285", "lng": "-98.6567"}, {"name": "Three Rivers", "state": "TX", "lat": "28.4668", "lng": "-98.1784"}, {"name": "La Coma", "state": "TX", "lat": "27.5029", "lng": "-99.3014"}, {"name": "Gruver", "state": "TX", "lat": "36.2562", "lng": "-101.4122"}, {"name": "New Boston", "state": "TX", "lat": "33.4612", "lng": "-94.4182"}, {"name": "Opdyke West", "state": "TX", "lat": "33.5927", "lng": "-102.3006"}, {"name": "Sam Rayburn", "state": "TX", "lat": "31.0789", "lng": "-94.0266"}, {"name": "Chaparrito", "state": "TX", "lat": "26.3408", "lng": "-98.7354"}, {"name": "Rusk", "state": "TX", "lat": "31.7978", "lng": "-95.1491"}, {"name": "La Feria North", "state": "TX", "lat": "26.1778", "lng": "-97.8232"}, {"name": "Crawford", "state": "TX", "lat": "31.5377", "lng": "-97.4427"}, {"name": "Beverly Hills", "state": "TX", "lat": "31.5224", "lng": "-97.1564"}, {"name": "Falman", "state": "TX", "lat": "27.9281", "lng": "-97.1713"}, {"name": "Boys Ranch", "state": "TX", "lat": "35.5331", "lng": "-102.2536"}, {"name": "Netos", "state": "TX", "lat": "26.4108", "lng": "-98.7585"}, {"name": "Taylor", "state": "TX", "lat": "30.5743", "lng": "-97.4233"}, {"name": "Collinsville", "state": "TX", "lat": "33.5594", "lng": "-96.9071"}, {"name": "Orange Grove", "state": "TX", "lat": "27.9562", "lng": "-97.9386"}, {"name": "Leakey", "state": "TX", "lat": "29.7254", "lng": "-99.7631"}, {"name": "Bishop", "state": "TX", "lat": "27.5851", "lng": "-97.7977"}, {"name": "Novice", "state": "TX", "lat": "31.9871", "lng": "-99.6253"}, {"name": "Krum", "state": "TX", "lat": "33.2652", "lng": "-97.2257"}, {"name": "Lake Medina Shores", "state": "TX", "lat": "29.6383", "lng": "-98.9869"}, {"name": "Huntsville", "state": "TX", "lat": "30.7050", "lng": "-95.5545"}, {"name": "Eagle Pass", "state": "TX", "lat": "28.7125", "lng": "-100.4840"}, {"name": "Miller's Cove", "state": "TX", "lat": "33.1560", "lng": "-95.1147"}, {"name": "Pawnee", "state": "TX", "lat": "28.6483", "lng": "-98.0083"}, {"name": "San Benito", "state": "TX", "lat": "26.1298", "lng": "-97.6440"}, {"name": "Cove", "state": "TX", "lat": "29.8122", "lng": "-94.8201"}, {"name": "Buna", "state": "TX", "lat": "30.4458", "lng": "-93.9625"}, {"name": "Havana", "state": "TX", "lat": "26.2507", "lng": "-98.5090"}, {"name": "Natalia", "state": "TX", "lat": "29.1877", "lng": "-98.8524"}, {"name": "Escobares", "state": "TX", "lat": "26.4120", "lng": "-98.9598"}, {"name": "Groom", "state": "TX", "lat": "35.2050", "lng": "-101.1071"}, {"name": "Cross Timber", "state": "TX", "lat": "32.4832", "lng": "-97.3260"}, {"name": "Mi Ranchito Estate", "state": "TX", "lat": "26.3878", "lng": "-98.8733"}, {"name": "Samnorwood", "state": "TX", "lat": "35.0500", "lng": "-100.2814"}, {"name": "Booker", "state": "TX", "lat": "36.4561", "lng": "-100.5402"}, {"name": "Stowell", "state": "TX", "lat": "29.7814", "lng": "-94.3794"}, {"name": "Encantada-Ranchito-El Calaboz", "state": "TX", "lat": "26.0333", "lng": "-97.6331"}, {"name": "Sealy", "state": "TX", "lat": "29.7674", "lng": "-96.1679"}, {"name": "Arroyo Gardens", "state": "TX", "lat": "26.2052", "lng": "-97.5021"}, {"name": "Amargosa", "state": "TX", "lat": "27.8916", "lng": "-98.1086"}, {"name": "Devine", "state": "TX", "lat": "29.1457", "lng": "-98.9048"}, {"name": "Cameron", "state": "TX", "lat": "30.8608", "lng": "-96.9762"}, {"name": "Hebbronville", "state": "TX", "lat": "27.3240", "lng": "-98.6861"}, {"name": "Coolidge", "state": "TX", "lat": "31.7514", "lng": "-96.6524"}, {"name": "Lasana", "state": "TX", "lat": "26.2585", "lng": "-97.6950"}, {"name": "Mineola", "state": "TX", "lat": "32.6461", "lng": "-95.4775"}, {"name": "Palo Pinto", "state": "TX", "lat": "32.7692", "lng": "-98.3008"}, {"name": "La Villa", "state": "TX", "lat": "26.2964", "lng": "-97.9270"}, {"name": "Socorro", "state": "TX", "lat": "31.6384", "lng": "-106.2601"}, {"name": "Amada Acres", "state": "TX", "lat": "26.3433", "lng": "-98.7393"}, {"name": "Whitesboro", "state": "TX", "lat": "33.6612", "lng": "-96.9022"}, {"name": "Matagorda", "state": "TX", "lat": "28.6973", "lng": "-95.9667"}, {"name": "Benjamin Perez", "state": "TX", "lat": "26.4060", "lng": "-98.8997"}, {"name": "Alma", "state": "TX", "lat": "32.2813", "lng": "-96.5506"}, {"name": "Higgins", "state": "TX", "lat": "36.1210", "lng": "-100.0274"}, {"name": "Angus", "state": "TX", "lat": "31.9976", "lng": "-96.4270"}, {"name": "Fabrica", "state": "TX", "lat": "28.7446", "lng": "-100.4934"}, {"name": "Annetta South", "state": "TX", "lat": "32.6743", "lng": "-97.6483"}, {"name": "Fernando Salinas", "state": "TX", "lat": "26.3979", "lng": "-98.8311"}, {"name": "Point Venture", "state": "TX", "lat": "30.3817", "lng": "-98.0010"}, {"name": "Freeport", "state": "TX", "lat": "28.9454", "lng": "-95.3602"}, {"name": "Realitos", "state": "TX", "lat": "27.4454", "lng": "-98.5303"}, {"name": "Bandera", "state": "TX", "lat": "29.7253", "lng": "-99.0740"}, {"name": "Cottonwood", "state": "TX", "lat": "32.4622", "lng": "-96.3954"}, {"name": "Hico", "state": "TX", "lat": "31.9858", "lng": "-98.0290"}, {"name": "Magnolia", "state": "TX", "lat": "30.2117", "lng": "-95.7419"}, {"name": "Buffalo Gap", "state": "TX", "lat": "32.2835", "lng": "-99.8346"}, {"name": "Greenville", "state": "TX", "lat": "33.1116", "lng": "-96.1099"}, {"name": "West Tawakoni", "state": "TX", "lat": "32.8976", "lng": "-96.0218"}, {"name": "Pine Forest", "state": "TX", "lat": "30.1757", "lng": "-94.0367"}, {"name": "Sweeny", "state": "TX", "lat": "29.0464", "lng": "-95.6986"}, {"name": "Throckmorton", "state": "TX", "lat": "33.1820", "lng": "-99.1798"}, {"name": "Alto Bonito Heights", "state": "TX", "lat": "26.3158", "lng": "-98.6413"}, {"name": "Roanoke", "state": "TX", "lat": "33.0148", "lng": "-97.2268"}, {"name": "Murphy", "state": "TX", "lat": "33.0186", "lng": "-96.6105"}, {"name": "Cibolo", "state": "TX", "lat": "29.5640", "lng": "-98.2125"}, {"name": "Ranger", "state": "TX", "lat": "32.4693", "lng": "-98.6751"}, {"name": "Mila Doce", "state": "TX", "lat": "26.2230", "lng": "-97.9601"}, {"name": "Andrews", "state": "TX", "lat": "32.3208", "lng": "-102.5520"}, {"name": "Miguel Barrera", "state": "TX", "lat": "26.4120", "lng": "-98.9216"}, {"name": "Hickory Creek", "state": "TX", "lat": "33.1114", "lng": "-97.0313"}, {"name": "Monahans", "state": "TX", "lat": "31.6289", "lng": "-103.0404"}, {"name": "Thompsons", "state": "TX", "lat": "29.4906", "lng": "-95.6304"}, {"name": "Scurry", "state": "TX", "lat": "32.5125", "lng": "-96.3851"}, {"name": "Sherwood Shores", "state": "TX", "lat": "33.8478", "lng": "-96.8147"}, {"name": "Ramos", "state": "TX", "lat": "26.4280", "lng": "-99.0270"}, {"name": "Nesbitt", "state": "TX", "lat": "32.5886", "lng": "-94.4468"}, {"name": "Tehuacana", "state": "TX", "lat": "31.7410", "lng": "-96.5438"}, {"name": "Edgecliff Village", "state": "TX", "lat": "32.6561", "lng": "-97.3406"}, {"name": "Falls City", "state": "TX", "lat": "28.9822", "lng": "-98.0217"}, {"name": "El Refugio", "state": "TX", "lat": "26.3406", "lng": "-98.7589"}, {"name": "Lope\u00c3\u00b1o", "state": "TX", "lat": "26.7120", "lng": "-99.1008"}, {"name": "Angleton", "state": "TX", "lat": "29.1716", "lng": "-95.4292"}, {"name": "Florence", "state": "TX", "lat": "30.8406", "lng": "-97.7927"}, {"name": "Harker Heights", "state": "TX", "lat": "31.0572", "lng": "-97.6445"}, {"name": "Wixon Valley", "state": "TX", "lat": "30.7639", "lng": "-96.3193"}, {"name": "Woodbranch", "state": "TX", "lat": "30.1814", "lng": "-95.1835"}, {"name": "Santa Anna", "state": "TX", "lat": "31.7369", "lng": "-99.3254"}, {"name": "Seminole", "state": "TX", "lat": "32.7215", "lng": "-102.6504"}, {"name": "Berryville", "state": "TX", "lat": "32.0876", "lng": "-95.4666"}, {"name": "Linden", "state": "TX", "lat": "33.0110", "lng": "-94.3626"}, {"name": "Hollywood Park", "state": "TX", "lat": "29.5995", "lng": "-98.4840"}, {"name": "Leonard", "state": "TX", "lat": "33.3830", "lng": "-96.2467"}, {"name": "Trophy Club", "state": "TX", "lat": "33.0039", "lng": "-97.1898"}, {"name": "Lovelady", "state": "TX", "lat": "31.1279", "lng": "-95.4456"}, {"name": "Leming", "state": "TX", "lat": "29.0684", "lng": "-98.4722"}, {"name": "Valle Vista", "state": "TX", "lat": "26.3161", "lng": "-98.6546"}, {"name": "Willow Park", "state": "TX", "lat": "32.7548", "lng": "-97.6499"}, {"name": "Redwater", "state": "TX", "lat": "33.3586", "lng": "-94.2551"}, {"name": "Woodcreek", "state": "TX", "lat": "30.0266", "lng": "-98.1115"}, {"name": "Leary", "state": "TX", "lat": "33.4690", "lng": "-94.2191"}, {"name": "Bedford", "state": "TX", "lat": "32.8464", "lng": "-97.1350"}, {"name": "Valley View", "state": "TX", "lat": "33.4892", "lng": "-97.1534"}, {"name": "Eden", "state": "TX", "lat": "31.2162", "lng": "-99.8440"}, {"name": "Rendon", "state": "TX", "lat": "32.5789", "lng": "-97.2350"}, {"name": "Hill Country Village", "state": "TX", "lat": "29.5831", "lng": "-98.4891"}, {"name": "Nina", "state": "TX", "lat": "26.2811", "lng": "-98.5810"}, {"name": "Laguna Heights", "state": "TX", "lat": "26.0804", "lng": "-97.2569"}, {"name": "Kurten", "state": "TX", "lat": "30.7896", "lng": "-96.2759"}, {"name": "Morgan", "state": "TX", "lat": "32.0156", "lng": "-97.6061"}, {"name": "Hawley", "state": "TX", "lat": "32.6037", "lng": "-99.8111"}, {"name": "Teague", "state": "TX", "lat": "31.6295", "lng": "-96.2801"}, {"name": "Hilshire Village", "state": "TX", "lat": "29.7908", "lng": "-95.4885"}, {"name": "Cross Roads", "state": "TX", "lat": "33.2290", "lng": "-96.9985"}, {"name": "Spearman", "state": "TX", "lat": "36.1982", "lng": "-101.1943"}, {"name": "Texarkana", "state": "TX", "lat": "33.4487", "lng": "-94.0815"}, {"name": "Alba", "state": "TX", "lat": "32.7905", "lng": "-95.6344"}, {"name": "Celina", "state": "TX", "lat": "33.3189", "lng": "-96.7866"}, {"name": "McCamey", "state": "TX", "lat": "31.1325", "lng": "-102.2200"}, {"name": "East Alto Bonito", "state": "TX", "lat": "26.3023", "lng": "-98.6358"}, {"name": "Robinson", "state": "TX", "lat": "31.4501", "lng": "-97.1201"}, {"name": "Weimar", "state": "TX", "lat": "29.7000", "lng": "-96.7773"}, {"name": "Sunset Valley", "state": "TX", "lat": "30.2258", "lng": "-97.8158"}, {"name": "Clint", "state": "TX", "lat": "31.5901", "lng": "-106.2289"}, {"name": "Johnson City", "state": "TX", "lat": "30.2743", "lng": "-98.4064"}, {"name": "Midway North", "state": "TX", "lat": "26.1872", "lng": "-98.0188"}, {"name": "Lozano", "state": "TX", "lat": "26.1896", "lng": "-97.5437"}, {"name": "Blue Ridge", "state": "TX", "lat": "33.2980", "lng": "-96.3994"}, {"name": "Grand Saline", "state": "TX", "lat": "32.6774", "lng": "-95.7113"}, {"name": "Carrizo Hill", "state": "TX", "lat": "28.5032", "lng": "-99.8294"}, {"name": "Idalou", "state": "TX", "lat": "33.6624", "lng": "-101.6837"}, {"name": "Laguna Seca", "state": "TX", "lat": "26.2793", "lng": "-97.9262"}, {"name": "Eagle Lake", "state": "TX", "lat": "29.5879", "lng": "-96.3282"}, {"name": "Los Veteranos II", "state": "TX", "lat": "27.7712", "lng": "-99.4433"}, {"name": "Plano", "state": "TX", "lat": "33.0502", "lng": "-96.7487"}, {"name": "Mullin", "state": "TX", "lat": "31.5552", "lng": "-98.6657"}, {"name": "Coppell", "state": "TX", "lat": "32.9638", "lng": "-96.9905"}, {"name": "Brady", "state": "TX", "lat": "31.1321", "lng": "-99.3703"}, {"name": "Orchard", "state": "TX", "lat": "29.6002", "lng": "-95.9694"}, {"name": "Perryton", "state": "TX", "lat": "36.3932", "lng": "-100.7974"}, {"name": "Leroy", "state": "TX", "lat": "31.7322", "lng": "-97.0214"}, {"name": "Nassau Bay", "state": "TX", "lat": "29.5448", "lng": "-95.0865"}, {"name": "Rosebud", "state": "TX", "lat": "31.0756", "lng": "-96.9749"}, {"name": "Providence Village", "state": "TX", "lat": "33.2363", "lng": "-96.9611"}, {"name": "New Summerfield", "state": "TX", "lat": "31.9807", "lng": "-95.1150"}, {"name": "Indian Lake", "state": "TX", "lat": "26.0877", "lng": "-97.5027"}, {"name": "Wildwood", "state": "TX", "lat": "30.5256", "lng": "-94.4456"}, {"name": "La Esperanza", "state": "TX", "lat": "26.4313", "lng": "-98.8923"}, {"name": "Serenada", "state": "TX", "lat": "30.6963", "lng": "-97.6968"}, {"name": "Argyle", "state": "TX", "lat": "33.1105", "lng": "-97.1864"}, {"name": "Brazos Country", "state": "TX", "lat": "29.7547", "lng": "-96.0424"}, {"name": "Mission", "state": "TX", "lat": "26.2040", "lng": "-98.3251"}, {"name": "Dayton Lakes", "state": "TX", "lat": "30.1446", "lng": "-94.8209"}, {"name": "Moulton", "state": "TX", "lat": "29.5722", "lng": "-97.1465"}, {"name": "Wilmer", "state": "TX", "lat": "32.5982", "lng": "-96.6816"}, {"name": "Rotan", "state": "TX", "lat": "32.8540", "lng": "-100.4655"}, {"name": "Surfside Beach", "state": "TX", "lat": "28.9560", "lng": "-95.2836"}, {"name": "Thunderbird Bay", "state": "TX", "lat": "31.9087", "lng": "-99.0207"}, {"name": "Timpson", "state": "TX", "lat": "31.9065", "lng": "-94.3971"}, {"name": "Ricardo", "state": "TX", "lat": "27.4186", "lng": "-97.8476"}, {"name": "Travis Ranch", "state": "TX", "lat": "32.8039", "lng": "-96.4760"}, {"name": "Pena", "state": "TX", "lat": "26.4155", "lng": "-98.9700"}, {"name": "University Park", "state": "TX", "lat": "32.8506", "lng": "-96.7937"}, {"name": "Villarreal", "state": "TX", "lat": "26.3072", "lng": "-98.6443"}, {"name": "Lake Tanglewood", "state": "TX", "lat": "35.0570", "lng": "-101.7816"}, {"name": "Damon", "state": "TX", "lat": "29.2832", "lng": "-95.7408"}, {"name": "Staples", "state": "TX", "lat": "29.7664", "lng": "-97.8279"}, {"name": "Bryan", "state": "TX", "lat": "30.6657", "lng": "-96.3668"}, {"name": "Camp Swift", "state": "TX", "lat": "30.1885", "lng": "-97.2933"}, {"name": "Ector", "state": "TX", "lat": "33.5793", "lng": "-96.2731"}, {"name": "China Spring", "state": "TX", "lat": "31.6492", "lng": "-97.3047"}, {"name": "Malone", "state": "TX", "lat": "31.9168", "lng": "-96.8947"}, {"name": "Garden Ridge", "state": "TX", "lat": "29.6379", "lng": "-98.2928"}, {"name": "Taft", "state": "TX", "lat": "27.9800", "lng": "-97.3929"}, {"name": "La Escondida", "state": "TX", "lat": "26.3807", "lng": "-98.8737"}, {"name": "Country Acres", "state": "TX", "lat": "27.9251", "lng": "-97.1661"}, {"name": "Portland", "state": "TX", "lat": "27.8913", "lng": "-97.3280"}, {"name": "Hart", "state": "TX", "lat": "34.3858", "lng": "-102.1151"}, {"name": "Streetman", "state": "TX", "lat": "31.8787", "lng": "-96.3306"}, {"name": "Hideaway", "state": "TX", "lat": "32.4890", "lng": "-95.4578"}, {"name": "Bonham", "state": "TX", "lat": "33.5880", "lng": "-96.1901"}, {"name": "Bellaire", "state": "TX", "lat": "29.7040", "lng": "-95.4621"}, {"name": "Jolly", "state": "TX", "lat": "33.8827", "lng": "-98.3475"}, {"name": "Beeville", "state": "TX", "lat": "28.4059", "lng": "-97.7494"}, {"name": "Sour Lake", "state": "TX", "lat": "30.1378", "lng": "-94.4046"}, {"name": "Haslet", "state": "TX", "lat": "32.9610", "lng": "-97.3382"}, {"name": "Benjamin", "state": "TX", "lat": "33.5836", "lng": "-99.7929"}, {"name": "Mont Belvieu", "state": "TX", "lat": "29.8524", "lng": "-94.8785"}, {"name": "Kerens", "state": "TX", "lat": "32.1308", "lng": "-96.2251"}, {"name": "Combes", "state": "TX", "lat": "26.2439", "lng": "-97.7254"}, {"name": "Iago", "state": "TX", "lat": "29.2665", "lng": "-95.9630"}, {"name": "Cranfills Gap", "state": "TX", "lat": "31.7753", "lng": "-97.8302"}, {"name": "Redwood", "state": "TX", "lat": "29.8100", "lng": "-97.9103"}, {"name": "La Marque", "state": "TX", "lat": "29.3690", "lng": "-94.9957"}, {"name": "Paisano Park", "state": "TX", "lat": "28.0951", "lng": "-97.8592"}, {"name": "Rivereno", "state": "TX", "lat": "26.3052", "lng": "-98.6398"}, {"name": "El Mesquite", "state": "TX", "lat": "26.3847", "lng": "-98.7716"}, {"name": "Dilley", "state": "TX", "lat": "28.6675", "lng": "-99.1765"}, {"name": "Sierra Blanca", "state": "TX", "lat": "31.1834", "lng": "-105.3395"}, {"name": "Mount Pleasant", "state": "TX", "lat": "33.1613", "lng": "-94.9717"}, {"name": "Valentine", "state": "TX", "lat": "30.5885", "lng": "-104.4954"}, {"name": "Hebron", "state": "TX", "lat": "33.0438", "lng": "-96.8793"}, {"name": "Groesbeck", "state": "TX", "lat": "31.5259", "lng": "-96.5284"}, {"name": "Uvalde Estates", "state": "TX", "lat": "29.1695", "lng": "-99.8329"}, {"name": "Santa Clara", "state": "TX", "lat": "29.5911", "lng": "-98.1613"}, {"name": "South Fork Estates", "state": "TX", "lat": "27.2697", "lng": "-98.7239"}, {"name": "Nome", "state": "TX", "lat": "30.0364", "lng": "-94.4064"}, {"name": "Blossom", "state": "TX", "lat": "33.6633", "lng": "-95.3837"}, {"name": "Arlington", "state": "TX", "lat": "32.6998", "lng": "-97.1251"}, {"name": "East Tawakoni", "state": "TX", "lat": "32.9011", "lng": "-95.9397"}, {"name": "Highland Village", "state": "TX", "lat": "33.0897", "lng": "-97.0615"}, {"name": "Gilmer", "state": "TX", "lat": "32.7317", "lng": "-94.9460"}, {"name": "Uhland", "state": "TX", "lat": "29.9617", "lng": "-97.7925"}, {"name": "West University Place", "state": "TX", "lat": "29.7157", "lng": "-95.4321"}, {"name": "Las Haciendas", "state": "TX", "lat": "27.6347", "lng": "-99.1952"}, {"name": "Coyanosa", "state": "TX", "lat": "31.2410", "lng": "-103.0648"}, {"name": "Las Palmas", "state": "TX", "lat": "26.9516", "lng": "-99.2761"}, {"name": "Richland Springs", "state": "TX", "lat": "31.2715", "lng": "-98.9486"}, {"name": "Timberwood Park", "state": "TX", "lat": "29.6994", "lng": "-98.4838"}, {"name": "Texline", "state": "TX", "lat": "36.3765", "lng": "-103.0189"}, {"name": "Whitewright", "state": "TX", "lat": "33.5108", "lng": "-96.3957"}, {"name": "Marshall", "state": "TX", "lat": "32.5370", "lng": "-94.3515"}, {"name": "Hemphill", "state": "TX", "lat": "31.3431", "lng": "-93.8512"}, {"name": "Utopia", "state": "TX", "lat": "29.6188", "lng": "-99.5153"}, {"name": "Colleyville", "state": "TX", "lat": "32.8913", "lng": "-97.1486"}, {"name": "Lake Dallas", "state": "TX", "lat": "33.1277", "lng": "-97.0234"}, {"name": "Garrison", "state": "TX", "lat": "31.8252", "lng": "-94.4932"}, {"name": "Charlotte", "state": "TX", "lat": "28.8593", "lng": "-98.7006"}, {"name": "Trent", "state": "TX", "lat": "32.4884", "lng": "-100.1233"}, {"name": "Garfield", "state": "TX", "lat": "30.1961", "lng": "-97.5514"}, {"name": "Mount Enterprise", "state": "TX", "lat": "31.9113", "lng": "-94.6826"}, {"name": "Eureka", "state": "TX", "lat": "32.0120", "lng": "-96.2855"}, {"name": "Sienna Plantation", "state": "TX", "lat": "29.4834", "lng": "-95.5065"}, {"name": "Wilson", "state": "TX", "lat": "33.3194", "lng": "-101.7275"}, {"name": "Rochester", "state": "TX", "lat": "33.3142", "lng": "-99.8565"}, {"name": "Lakewood Village", "state": "TX", "lat": "33.1378", "lng": "-96.9749"}, {"name": "Blanco", "state": "TX", "lat": "30.0987", "lng": "-98.4169"}, {"name": "Scotland", "state": "TX", "lat": "33.6499", "lng": "-98.4677"}, {"name": "Midway South", "state": "TX", "lat": "26.1567", "lng": "-98.0209"}, {"name": "Anahuac", "state": "TX", "lat": "29.7649", "lng": "-94.6787"}, {"name": "Morning Glory", "state": "TX", "lat": "31.5648", "lng": "-106.2089"}, {"name": "Las Lomas", "state": "TX", "lat": "26.3638", "lng": "-98.7747"}, {"name": "Harlingen", "state": "TX", "lat": "26.1916", "lng": "-97.6976"}, {"name": "Goliad", "state": "TX", "lat": "28.6708", "lng": "-97.3916"}, {"name": "Dayton", "state": "TX", "lat": "30.0293", "lng": "-94.9039"}, {"name": "Concepcion", "state": "TX", "lat": "27.3951", "lng": "-98.3555"}, {"name": "Woodloch", "state": "TX", "lat": "30.2172", "lng": "-95.4130"}, {"name": "Chester", "state": "TX", "lat": "30.9213", "lng": "-94.6001"}, {"name": "Boling", "state": "TX", "lat": "29.2584", "lng": "-95.9436"}, {"name": "Frisco", "state": "TX", "lat": "33.1554", "lng": "-96.8217"}, {"name": "Impact", "state": "TX", "lat": "32.5002", "lng": "-99.7464"}, {"name": "Pineland", "state": "TX", "lat": "31.2467", "lng": "-93.9744"}, {"name": "Relampago", "state": "TX", "lat": "26.0851", "lng": "-97.9059"}, {"name": "Carmine", "state": "TX", "lat": "30.1485", "lng": "-96.6908"}, {"name": "Shepherd", "state": "TX", "lat": "30.4910", "lng": "-95.0021"}, {"name": "Pecan Grove", "state": "TX", "lat": "29.6235", "lng": "-95.7331"}, {"name": "Ingram", "state": "TX", "lat": "30.0772", "lng": "-99.2381"}, {"name": "Quesada", "state": "TX", "lat": "26.2819", "lng": "-98.5819"}, {"name": "La Paloma", "state": "TX", "lat": "26.0518", "lng": "-97.6552"}, {"name": "Cresson", "state": "TX", "lat": "32.5299", "lng": "-97.6155"}, {"name": "Kennedale", "state": "TX", "lat": "32.6434", "lng": "-97.2173"}, {"name": "Hardin", "state": "TX", "lat": "30.1493", "lng": "-94.7377"}, {"name": "North Escobares", "state": "TX", "lat": "26.4325", "lng": "-98.9719"}, {"name": "Double Oak", "state": "TX", "lat": "33.0633", "lng": "-97.1117"}, {"name": "New Waverly", "state": "TX", "lat": "30.5374", "lng": "-95.4822"}, {"name": "New Home", "state": "TX", "lat": "33.3269", "lng": "-101.9117"}, {"name": "Wellman", "state": "TX", "lat": "33.0470", "lng": "-102.4274"}, {"name": "Kountze", "state": "TX", "lat": "30.3724", "lng": "-94.3161"}, {"name": "Hilltop Lakes", "state": "TX", "lat": "31.0755", "lng": "-96.1914"}, {"name": "San Patricio", "state": "TX", "lat": "27.9772", "lng": "-97.7765"}, {"name": "Arp", "state": "TX", "lat": "32.2279", "lng": "-95.0536"}, {"name": "George West", "state": "TX", "lat": "28.3300", "lng": "-98.1184"}, {"name": "Tahoka", "state": "TX", "lat": "33.1640", "lng": "-101.7949"}, {"name": "Bruceville-Eddy", "state": "TX", "lat": "31.3102", "lng": "-97.2479"}, {"name": "Burnet", "state": "TX", "lat": "30.7496", "lng": "-98.2382"}, {"name": "Seth Ward", "state": "TX", "lat": "34.2163", "lng": "-101.6945"}, {"name": "North Cleveland", "state": "TX", "lat": "30.3577", "lng": "-95.1003"}, {"name": "Glidden", "state": "TX", "lat": "29.6975", "lng": "-96.5907"}, {"name": "Knippa", "state": "TX", "lat": "29.3076", "lng": "-99.6329"}, {"name": "Buchanan Dam", "state": "TX", "lat": "30.7807", "lng": "-98.4393"}, {"name": "Leon Valley", "state": "TX", "lat": "29.4954", "lng": "-98.6142"}, {"name": "West Sharyland", "state": "TX", "lat": "26.2718", "lng": "-98.3404"}, {"name": "Vanderbilt", "state": "TX", "lat": "28.8208", "lng": "-96.6096"}, {"name": "Seven Oaks", "state": "TX", "lat": "30.8517", "lng": "-94.8580"}, {"name": "Coffee City", "state": "TX", "lat": "32.1383", "lng": "-95.4871"}, {"name": "Conroe", "state": "TX", "lat": "30.3224", "lng": "-95.4820"}, {"name": "Tulsita", "state": "TX", "lat": "28.6422", "lng": "-97.8180"}, {"name": "Sansom Park", "state": "TX", "lat": "32.8028", "lng": "-97.4021"}, {"name": "Coahoma", "state": "TX", "lat": "32.2957", "lng": "-101.3089"}, {"name": "Port Isabel", "state": "TX", "lat": "26.0538", "lng": "-97.2505"}, {"name": "Terrell Hills", "state": "TX", "lat": "29.4771", "lng": "-98.4471"}, {"name": "Pueblo East", "state": "TX", "lat": "27.6750", "lng": "-99.1899"}, {"name": "Jones Creek", "state": "TX", "lat": "28.9752", "lng": "-95.4714"}, {"name": "Point", "state": "TX", "lat": "32.9301", "lng": "-95.8689"}, {"name": "Celeste", "state": "TX", "lat": "33.2897", "lng": "-96.1946"}, {"name": "Lumberton", "state": "TX", "lat": "30.2562", "lng": "-94.2071"}, {"name": "El Indio", "state": "TX", "lat": "28.5091", "lng": "-100.3068"}, {"name": "Thorntonville", "state": "TX", "lat": "31.5789", "lng": "-102.9221"}, {"name": "Waskom", "state": "TX", "lat": "32.4766", "lng": "-94.0646"}, {"name": "Toyah", "state": "TX", "lat": "31.3125", "lng": "-103.7946"}, {"name": "Paint Rock", "state": "TX", "lat": "31.5100", "lng": "-99.9253"}, {"name": "Chandler", "state": "TX", "lat": "32.3065", "lng": "-95.4781"}, {"name": "Addison", "state": "TX", "lat": "32.9586", "lng": "-96.8356"}, {"name": "Dorchester", "state": "TX", "lat": "33.5331", "lng": "-96.6960"}, {"name": "Elsa", "state": "TX", "lat": "26.2969", "lng": "-97.9937"}, {"name": "Las Palmas II", "state": "TX", "lat": "26.2032", "lng": "-97.7395"}, {"name": "Whitney", "state": "TX", "lat": "31.9520", "lng": "-97.3192"}, {"name": "Deport", "state": "TX", "lat": "33.5291", "lng": "-95.3174"}, {"name": "Riverside", "state": "TX", "lat": "30.8471", "lng": "-95.3985"}, {"name": "Yznaga", "state": "TX", "lat": "26.3188", "lng": "-97.8153"}, {"name": "Hitchcock", "state": "TX", "lat": "29.2945", "lng": "-95.0250"}, {"name": "Uncertain", "state": "TX", "lat": "32.7066", "lng": "-94.1264"}, {"name": "Lindale", "state": "TX", "lat": "32.4933", "lng": "-95.4069"}, {"name": "Point Blank", "state": "TX", "lat": "30.7473", "lng": "-95.2163"}, {"name": "Loop", "state": "TX", "lat": "32.9142", "lng": "-102.4147"}, {"name": "Lefors", "state": "TX", "lat": "35.4396", "lng": "-100.8040"}, {"name": "Llano", "state": "TX", "lat": "30.7508", "lng": "-98.6763"}, {"name": "Western Lake", "state": "TX", "lat": "32.6215", "lng": "-97.8160"}, {"name": "Mobeetie", "state": "TX", "lat": "35.5291", "lng": "-100.4394"}, {"name": "Ladonia", "state": "TX", "lat": "33.4283", "lng": "-95.9482"}, {"name": "Shamrock", "state": "TX", "lat": "35.2153", "lng": "-100.2461"}, {"name": "Quail", "state": "TX", "lat": "34.9151", "lng": "-100.3919"}, {"name": "Cape Royale", "state": "TX", "lat": "30.6531", "lng": "-95.1265"}, {"name": "Albany", "state": "TX", "lat": "32.7273", "lng": "-99.2956"}, {"name": "Italy", "state": "TX", "lat": "32.1856", "lng": "-96.8865"}, {"name": "Moraida", "state": "TX", "lat": "26.4150", "lng": "-98.9767"}, {"name": "Elm Creek", "state": "TX", "lat": "28.7782", "lng": "-100.4911"}, {"name": "La Paloma-Lost Creek", "state": "TX", "lat": "27.7195", "lng": "-97.7391"}, {"name": "South Alamo", "state": "TX", "lat": "26.1518", "lng": "-98.1079"}, {"name": "Canyon Creek", "state": "TX", "lat": "32.3927", "lng": "-97.7406"}, {"name": "Millsap", "state": "TX", "lat": "32.7493", "lng": "-98.0117"}, {"name": "Bartlett", "state": "TX", "lat": "30.7952", "lng": "-97.4325"}, {"name": "Quitman", "state": "TX", "lat": "32.7951", "lng": "-95.4443"}, {"name": "Kerrville", "state": "TX", "lat": "30.0398", "lng": "-99.1319"}, {"name": "Abilene", "state": "TX", "lat": "32.4543", "lng": "-99.7384"}, {"name": "Westway", "state": "TX", "lat": "31.9603", "lng": "-106.5760"}, {"name": "Howe", "state": "TX", "lat": "33.5066", "lng": "-96.6154"}, {"name": "Leona", "state": "TX", "lat": "31.1537", "lng": "-95.9759"}, {"name": "Robert Lee", "state": "TX", "lat": "31.8954", "lng": "-100.4856"}, {"name": "Alvin", "state": "TX", "lat": "29.3870", "lng": "-95.2936"}, {"name": "Gary City", "state": "TX", "lat": "32.0277", "lng": "-94.3679"}, {"name": "La Blanca", "state": "TX", "lat": "26.3048", "lng": "-98.0286"}, {"name": "Study Butte", "state": "TX", "lat": "29.3351", "lng": "-103.5421"}, {"name": "Fowlerton", "state": "TX", "lat": "28.4608", "lng": "-98.8114"}, {"name": "San Ygnacio", "state": "TX", "lat": "27.0480", "lng": "-99.4321"}, {"name": "Ranchitos del Norte", "state": "TX", "lat": "26.4003", "lng": "-98.8715"}, {"name": "Knollwood", "state": "TX", "lat": "33.6892", "lng": "-96.6184"}, {"name": "Denison", "state": "TX", "lat": "33.7672", "lng": "-96.5807"}, {"name": "Putnam", "state": "TX", "lat": "32.3704", "lng": "-99.1958"}, {"name": "Wolfforth", "state": "TX", "lat": "33.5149", "lng": "-102.0066"}, {"name": "Iowa Colony", "state": "TX", "lat": "29.4405", "lng": "-95.4168"}, {"name": "Westover Hills", "state": "TX", "lat": "32.7436", "lng": "-97.4123"}, {"name": "Cienegas Terrace", "state": "TX", "lat": "29.3687", "lng": "-100.9432"}, {"name": "Jacksonville", "state": "TX", "lat": "31.9642", "lng": "-95.2617"}, {"name": "Moody", "state": "TX", "lat": "31.3086", "lng": "-97.3596"}, {"name": "Jourdanton", "state": "TX", "lat": "28.9138", "lng": "-98.5411"}, {"name": "Saginaw", "state": "TX", "lat": "32.8657", "lng": "-97.3652"}, {"name": "Marlin", "state": "TX", "lat": "31.3085", "lng": "-96.8934"}, {"name": "Donna", "state": "TX", "lat": "26.1467", "lng": "-98.0560"}, {"name": "Lamesa", "state": "TX", "lat": "32.7333", "lng": "-101.9542"}, {"name": "Marquez", "state": "TX", "lat": "31.2361", "lng": "-96.2574"}, {"name": "Olney", "state": "TX", "lat": "33.3644", "lng": "-98.7585"}, {"name": "Homestead Meadows North", "state": "TX", "lat": "31.8483", "lng": "-106.1707"}, {"name": "Girard", "state": "TX", "lat": "33.3637", "lng": "-100.6598"}, {"name": "Copper Canyon", "state": "TX", "lat": "33.0961", "lng": "-97.0975"}, {"name": "Longoria", "state": "TX", "lat": "26.3024", "lng": "-98.6425"}, {"name": "Van Alstyne", "state": "TX", "lat": "33.4203", "lng": "-96.5834"}, {"name": "Pine Island", "state": "TX", "lat": "30.0554", "lng": "-96.0253"}, {"name": "Bunker Hill Village", "state": "TX", "lat": "29.7647", "lng": "-95.5317"}, {"name": "Mustang", "state": "TX", "lat": "32.0135", "lng": "-96.4303"}, {"name": "Ackerly", "state": "TX", "lat": "32.5251", "lng": "-101.7158"}, {"name": "Bluetown", "state": "TX", "lat": "26.0734", "lng": "-97.8199"}, {"name": "Malakoff", "state": "TX", "lat": "32.1727", "lng": "-96.0162"}, {"name": "La Victoria", "state": "TX", "lat": "26.3478", "lng": "-98.6295"}, {"name": "Mirando City", "state": "TX", "lat": "27.4402", "lng": "-99.0009"}, {"name": "Sterling City", "state": "TX", "lat": "31.8392", "lng": "-100.9860"}, {"name": "Terlingua", "state": "TX", "lat": "29.2991", "lng": "-103.5795"}, {"name": "Pettus", "state": "TX", "lat": "28.6156", "lng": "-97.8121"}, {"name": "Temple", "state": "TX", "lat": "31.1076", "lng": "-97.3894"}, {"name": "Anna", "state": "TX", "lat": "33.3470", "lng": "-96.5503"}, {"name": "El Camino Angosto", "state": "TX", "lat": "26.1115", "lng": "-97.6438"}, {"name": "Aguilares", "state": "TX", "lat": "27.4516", "lng": "-99.0933"}, {"name": "Sullivan City", "state": "TX", "lat": "26.2752", "lng": "-98.5644"}, {"name": "San Leon", "state": "TX", "lat": "29.4901", "lng": "-94.9403"}, {"name": "Friona", "state": "TX", "lat": "34.6394", "lng": "-102.7232"}, {"name": "Palmer", "state": "TX", "lat": "32.4250", "lng": "-96.6733"}, {"name": "Los Altos", "state": "TX", "lat": "27.4904", "lng": "-99.3858"}, {"name": "Panhandle", "state": "TX", "lat": "35.3460", "lng": "-101.3804"}, {"name": "Mauriceville", "state": "TX", "lat": "30.2187", "lng": "-93.8758"}, {"name": "Eastland", "state": "TX", "lat": "32.4030", "lng": "-98.8173"}, {"name": "Castroville", "state": "TX", "lat": "29.3512", "lng": "-98.8721"}, {"name": "Atascocita", "state": "TX", "lat": "29.9777", "lng": "-95.1953"}, {"name": "Chico", "state": "TX", "lat": "33.2960", "lng": "-97.7987"}, {"name": "Hallsville", "state": "TX", "lat": "32.5027", "lng": "-94.5700"}, {"name": "Lake City", "state": "TX", "lat": "28.0821", "lng": "-97.8828"}, {"name": "Fort Clark Springs", "state": "TX", "lat": "29.2938", "lng": "-100.4244"}, {"name": "Palmhurst", "state": "TX", "lat": "26.2583", "lng": "-98.2953"}, {"name": "Fredericksburg", "state": "TX", "lat": "30.2671", "lng": "-98.8757"}, {"name": "Nash", "state": "TX", "lat": "33.4422", "lng": "-94.1283"}, {"name": "Copperas Cove", "state": "TX", "lat": "31.1192", "lng": "-97.9140"}, {"name": "Tynan", "state": "TX", "lat": "28.1708", "lng": "-97.7492"}, {"name": "Cottonwood Shores", "state": "TX", "lat": "30.5521", "lng": "-98.3249"}, {"name": "Driscoll", "state": "TX", "lat": "27.6730", "lng": "-97.7511"}, {"name": "Tuleta", "state": "TX", "lat": "28.5767", "lng": "-97.7980"}, {"name": "Emerald Bay", "state": "TX", "lat": "32.1602", "lng": "-95.4380"}, {"name": "Pottsboro", "state": "TX", "lat": "33.7709", "lng": "-96.6710"}, {"name": "Springtown", "state": "TX", "lat": "32.9695", "lng": "-97.6805"}, {"name": "La Grange", "state": "TX", "lat": "29.9129", "lng": "-96.8767"}, {"name": "Boyd", "state": "TX", "lat": "33.0843", "lng": "-97.5632"}, {"name": "Amistad", "state": "TX", "lat": "29.5245", "lng": "-101.1530"}, {"name": "Kemah", "state": "TX", "lat": "29.5307", "lng": "-95.0194"}, {"name": "Crane", "state": "TX", "lat": "31.3919", "lng": "-102.3503"}, {"name": "Omaha", "state": "TX", "lat": "33.1820", "lng": "-94.7402"}, {"name": "Paducah", "state": "TX", "lat": "34.0144", "lng": "-100.3038"}, {"name": "Santa Fe", "state": "TX", "lat": "29.3891", "lng": "-95.1005"}, {"name": "Murillo", "state": "TX", "lat": "26.2642", "lng": "-98.1233"}, {"name": "Edroy", "state": "TX", "lat": "27.9609", "lng": "-97.6754"}, {"name": "Buffalo Springs", "state": "TX", "lat": "33.5327", "lng": "-101.7078"}, {"name": "Warren City", "state": "TX", "lat": "32.5530", "lng": "-94.9056"}, {"name": "Encino", "state": "TX", "lat": "26.9363", "lng": "-98.1153"}, {"name": "Muniz", "state": "TX", "lat": "26.2578", "lng": "-98.0897"}, {"name": "Aquilla", "state": "TX", "lat": "31.8548", "lng": "-97.2200"}, {"name": "Randolph AFB", "state": "TX", "lat": "29.5301", "lng": "-98.2787"}, {"name": "Bremond", "state": "TX", "lat": "31.1657", "lng": "-96.6760"}, {"name": "Indian Hills", "state": "TX", "lat": "26.2124", "lng": "-97.9165"}, {"name": "Siesta Shores", "state": "TX", "lat": "26.8548", "lng": "-99.2605"}, {"name": "Ralls", "state": "TX", "lat": "33.6788", "lng": "-101.3845"}, {"name": "Palisades", "state": "TX", "lat": "35.0614", "lng": "-101.8032"}, {"name": "Fair Oaks Ranch", "state": "TX", "lat": "29.7468", "lng": "-98.6375"}, {"name": "Graham", "state": "TX", "lat": "33.1017", "lng": "-98.5778"}, {"name": "Ranchette Estates", "state": "TX", "lat": "26.4844", "lng": "-97.8220"}, {"name": "Sinton", "state": "TX", "lat": "28.0392", "lng": "-97.5154"}, {"name": "Faysville", "state": "TX", "lat": "26.4054", "lng": "-98.1299"}, {"name": "Gainesville", "state": "TX", "lat": "33.6391", "lng": "-97.1487"}, {"name": "Lake Bryan", "state": "TX", "lat": "30.7188", "lng": "-96.4631"}, {"name": "Nacogdoches", "state": "TX", "lat": "31.6135", "lng": "-94.6528"}, {"name": "Westworth Village", "state": "TX", "lat": "32.7599", "lng": "-97.4239"}, {"name": "Premont", "state": "TX", "lat": "27.3586", "lng": "-98.1244"}, {"name": "Wickett", "state": "TX", "lat": "31.5673", "lng": "-103.0059"}, {"name": "Smiley", "state": "TX", "lat": "29.2713", "lng": "-97.6376"}, {"name": "Medina", "state": "TX", "lat": "26.9290", "lng": "-99.2614"}, {"name": "Pilot Point", "state": "TX", "lat": "33.3955", "lng": "-96.9501"}, {"name": "Crowell", "state": "TX", "lat": "33.9839", "lng": "-99.7241"}, {"name": "St. Hedwig", "state": "TX", "lat": "29.4197", "lng": "-98.2046"}, {"name": "Heath", "state": "TX", "lat": "32.8443", "lng": "-96.4679"}, {"name": "Overton", "state": "TX", "lat": "32.2760", "lng": "-94.9726"}, {"name": "Forsan", "state": "TX", "lat": "32.1103", "lng": "-101.3669"}, {"name": "White Oak", "state": "TX", "lat": "32.5313", "lng": "-94.8564"}, {"name": "Fayetteville", "state": "TX", "lat": "29.9063", "lng": "-96.6758"}, {"name": "Buffalo", "state": "TX", "lat": "31.4600", "lng": "-96.0660"}, {"name": "Katy", "state": "TX", "lat": "29.7905", "lng": "-95.8353"}, {"name": "Hooks", "state": "TX", "lat": "33.4707", "lng": "-94.2840"}, {"name": "Sanctuary", "state": "TX", "lat": "32.9132", "lng": "-97.5877"}, {"name": "Levelland", "state": "TX", "lat": "33.5806", "lng": "-102.3636"}, {"name": "El Chaparral", "state": "TX", "lat": "26.3489", "lng": "-98.7673"}, {"name": "Silsbee", "state": "TX", "lat": "30.3456", "lng": "-94.1764"}, {"name": "Bevil Oaks", "state": "TX", "lat": "30.1517", "lng": "-94.2711"}, {"name": "Smyer", "state": "TX", "lat": "33.5874", "lng": "-102.1635"}, {"name": "Bixby", "state": "TX", "lat": "26.1400", "lng": "-97.8562"}, {"name": "Huxley", "state": "TX", "lat": "31.7643", "lng": "-93.8848"}, {"name": "Graford", "state": "TX", "lat": "32.9374", "lng": "-98.2475"}, {"name": "Lakeway", "state": "TX", "lat": "30.3547", "lng": "-97.9854"}, {"name": "Dickinson", "state": "TX", "lat": "29.4545", "lng": "-95.0584"}, {"name": "Barrera", "state": "TX", "lat": "26.3925", "lng": "-98.8985"}, {"name": "Lakeside City", "state": "TX", "lat": "33.8292", "lng": "-98.5404"}, {"name": "Clarksville City", "state": "TX", "lat": "32.5329", "lng": "-94.8946"}, {"name": "Smithville", "state": "TX", "lat": "30.0069", "lng": "-97.1507"}, {"name": "Encinal", "state": "TX", "lat": "28.0412", "lng": "-99.3545"}, {"name": "Grape Creek", "state": "TX", "lat": "31.5817", "lng": "-100.5474"}, {"name": "Cashion Community", "state": "TX", "lat": "34.0365", "lng": "-98.5081"}, {"name": "Tioga", "state": "TX", "lat": "33.4718", "lng": "-96.9187"}, {"name": "Los Centenarios", "state": "TX", "lat": "27.6122", "lng": "-99.2130"}, {"name": "Oak Grove", "state": "TX", "lat": "32.5327", "lng": "-96.3186"}, {"name": "Mathis", "state": "TX", "lat": "28.0909", "lng": "-97.8170"}, {"name": "Waxahachie", "state": "TX", "lat": "32.4032", "lng": "-96.8444"}, {"name": "Zapata Ranch", "state": "TX", "lat": "26.3570", "lng": "-97.8243"}, {"name": "Los Arcos", "state": "TX", "lat": "27.6144", "lng": "-99.2105"}, {"name": "Webberville", "state": "TX", "lat": "30.2260", "lng": "-97.4995"}, {"name": "Narciso Pena", "state": "TX", "lat": "26.3019", "lng": "-98.6407"}, {"name": "Bolivar Peninsula", "state": "TX", "lat": "29.4860", "lng": "-94.5665"}, {"name": "Flower Mound", "state": "TX", "lat": "33.0344", "lng": "-97.1147"}, {"name": "San Carlos II", "state": "TX", "lat": "27.4901", "lng": "-99.3684"}, {"name": "Keene", "state": "TX", "lat": "32.3955", "lng": "-97.3225"}, {"name": "Fronton", "state": "TX", "lat": "26.4256", "lng": "-99.0761"}, {"name": "Pleak", "state": "TX", "lat": "29.4852", "lng": "-95.8097"}, {"name": "Camp Wood", "state": "TX", "lat": "29.6690", "lng": "-100.0108"}, {"name": "Needville", "state": "TX", "lat": "29.3957", "lng": "-95.8386"}, {"name": "Wylie", "state": "TX", "lat": "33.0362", "lng": "-96.5161"}, {"name": "Carthage", "state": "TX", "lat": "32.1526", "lng": "-94.3368"}, {"name": "Farmersville", "state": "TX", "lat": "33.1609", "lng": "-96.3608"}, {"name": "Anton", "state": "TX", "lat": "33.8113", "lng": "-102.1622"}, {"name": "Fort Hood", "state": "TX", "lat": "31.1345", "lng": "-97.7797"}, {"name": "Richmond", "state": "TX", "lat": "29.5824", "lng": "-95.7602"}, {"name": "Goodlow", "state": "TX", "lat": "32.1091", "lng": "-96.2152"}, {"name": "Terrell", "state": "TX", "lat": "32.7341", "lng": "-96.2939"}, {"name": "Cuney", "state": "TX", "lat": "32.0374", "lng": "-95.4147"}, {"name": "Val Verde Park", "state": "TX", "lat": "29.3746", "lng": "-100.8306"}, {"name": "Clarendon", "state": "TX", "lat": "34.9366", "lng": "-100.8918"}, {"name": "Lueders", "state": "TX", "lat": "32.8004", "lng": "-99.6232"}, {"name": "Bishop Hills", "state": "TX", "lat": "35.2614", "lng": "-101.9519"}, {"name": "Burleson", "state": "TX", "lat": "32.5170", "lng": "-97.3343"}, {"name": "Helotes", "state": "TX", "lat": "29.5693", "lng": "-98.6956"}, {"name": "Sandoval", "state": "TX", "lat": "26.4182", "lng": "-99.0794"}, {"name": "Fruitvale", "state": "TX", "lat": "32.6834", "lng": "-95.8036"}, {"name": "Friendswood", "state": "TX", "lat": "29.5112", "lng": "-95.1979"}, {"name": "Gustine", "state": "TX", "lat": "31.8457", "lng": "-98.4025"}, {"name": "Refugio", "state": "TX", "lat": "28.3073", "lng": "-97.2750"}, {"name": "La Paloma Ranchettes", "state": "TX", "lat": "26.3148", "lng": "-98.6230"}, {"name": "Elmendorf", "state": "TX", "lat": "29.2580", "lng": "-98.3219"}, {"name": "Chilton", "state": "TX", "lat": "31.2848", "lng": "-97.0607"}, {"name": "Crosby", "state": "TX", "lat": "29.9146", "lng": "-95.0591"}, {"name": "Knox City", "state": "TX", "lat": "33.4176", "lng": "-99.8157"}, {"name": "Hudson", "state": "TX", "lat": "31.3287", "lng": "-94.8014"}, {"name": "Wake Village", "state": "TX", "lat": "33.4240", "lng": "-94.1188"}, {"name": "Inez", "state": "TX", "lat": "28.8718", "lng": "-96.7959"}, {"name": "Covington", "state": "TX", "lat": "32.1781", "lng": "-97.2604"}, {"name": "Tiki Island", "state": "TX", "lat": "29.2985", "lng": "-94.9175"}, {"name": "Midlothian", "state": "TX", "lat": "32.4718", "lng": "-96.9877"}, {"name": "Snook", "state": "TX", "lat": "30.4907", "lng": "-96.4670"}, {"name": "Edgewood", "state": "TX", "lat": "32.6947", "lng": "-95.8833"}, {"name": "Point Comfort", "state": "TX", "lat": "28.6716", "lng": "-96.5590"}, {"name": "Lakehills", "state": "TX", "lat": "29.6237", "lng": "-98.9448"}, {"name": "Oak Valley", "state": "TX", "lat": "32.0331", "lng": "-96.5116"}, {"name": "Stafford", "state": "TX", "lat": "29.6271", "lng": "-95.5653"}, {"name": "Farwell", "state": "TX", "lat": "34.3855", "lng": "-103.0373"}, {"name": "Corral City", "state": "TX", "lat": "33.0985", "lng": "-97.2304"}, {"name": "La Presa", "state": "TX", "lat": "27.3995", "lng": "-99.4374"}, {"name": "Lavon", "state": "TX", "lat": "33.0245", "lng": "-96.4396"}, {"name": "West Orange", "state": "TX", "lat": "30.0791", "lng": "-93.7598"}, {"name": "Ingleside on the Bay", "state": "TX", "lat": "27.8304", "lng": "-97.2210"}, {"name": "Sunrise Beach Village", "state": "TX", "lat": "30.5862", "lng": "-98.4187"}, {"name": "Thrall", "state": "TX", "lat": "30.5883", "lng": "-97.2983"}, {"name": "Munday", "state": "TX", "lat": "33.4471", "lng": "-99.6239"}, {"name": "Crandall", "state": "TX", "lat": "32.6279", "lng": "-96.4537"}, {"name": "Alvarado", "state": "TX", "lat": "32.4068", "lng": "-97.2150"}, {"name": "Mount Vernon", "state": "TX", "lat": "33.1760", "lng": "-95.2253"}, {"name": "Rio Bravo", "state": "TX", "lat": "27.3648", "lng": "-99.4820"}, {"name": "Pueblo Nuevo", "state": "TX", "lat": "27.4939", "lng": "-99.3099"}, {"name": "Buchanan Lake Village", "state": "TX", "lat": "30.8565", "lng": "-98.4378"}, {"name": "Savoy", "state": "TX", "lat": "33.5999", "lng": "-96.3662"}, {"name": "Pablo Pena", "state": "TX", "lat": "26.3037", "lng": "-98.6405"}, {"name": "Penitas", "state": "TX", "lat": "26.2508", "lng": "-98.4426"}, {"name": "Gun Barrel City", "state": "TX", "lat": "32.3277", "lng": "-96.1286"}, {"name": "Lake Dunlap", "state": "TX", "lat": "29.6683", "lng": "-98.0773"}, {"name": "Valle Hermoso", "state": "TX", "lat": "26.3823", "lng": "-98.7871"}, {"name": "Lometa", "state": "TX", "lat": "31.2166", "lng": "-98.3925"}, {"name": "Highlands", "state": "TX", "lat": "29.8130", "lng": "-95.0577"}, {"name": "La Puerta", "state": "TX", "lat": "26.3468", "lng": "-98.7504"}, {"name": "Pine Harbor", "state": "TX", "lat": "32.7723", "lng": "-94.4992"}, {"name": "Primera", "state": "TX", "lat": "26.2237", "lng": "-97.7529"}, {"name": "Baird", "state": "TX", "lat": "32.3960", "lng": "-99.3962"}, {"name": "Laguna Park", "state": "TX", "lat": "31.8643", "lng": "-97.3862"}, {"name": "Falcon Heights", "state": "TX", "lat": "26.5604", "lng": "-99.1225"}, {"name": "Galveston", "state": "TX", "lat": "29.2487", "lng": "-94.8910"}, {"name": "Houston", "state": "TX", "lat": "29.7869", "lng": "-95.3905"}, {"name": "Forest Hill", "state": "TX", "lat": "32.6619", "lng": "-97.2662"}, {"name": "Weinert", "state": "TX", "lat": "33.3234", "lng": "-99.6737"}, {"name": "Meadowlakes", "state": "TX", "lat": "30.5639", "lng": "-98.2954"}, {"name": "Martindale", "state": "TX", "lat": "29.8448", "lng": "-97.8396"}, {"name": "Rancho Viejo", "state": "TX", "lat": "26.0361", "lng": "-97.5568"}, {"name": "San Fernando", "state": "TX", "lat": "26.4033", "lng": "-98.8351"}, {"name": "North San Pedro", "state": "TX", "lat": "27.8027", "lng": "-97.6820"}, {"name": "Warren", "state": "TX", "lat": "30.6127", "lng": "-94.4104"}, {"name": "Royse City", "state": "TX", "lat": "32.9764", "lng": "-96.3192"}, {"name": "North Pearsall", "state": "TX", "lat": "28.9227", "lng": "-99.0944"}, {"name": "Big Lake", "state": "TX", "lat": "31.1941", "lng": "-101.4534"}, {"name": "Woodson", "state": "TX", "lat": "33.0149", "lng": "-99.0534"}, {"name": "Tyler", "state": "TX", "lat": "32.3184", "lng": "-95.3065"}, {"name": "Orange", "state": "TX", "lat": "30.1210", "lng": "-93.7616"}, {"name": "Deer Park", "state": "TX", "lat": "29.6898", "lng": "-95.1151"}, {"name": "Colmesneil", "state": "TX", "lat": "30.9096", "lng": "-94.4221"}, {"name": "Paradise", "state": "TX", "lat": "33.1504", "lng": "-97.6887"}, {"name": "Noonday", "state": "TX", "lat": "32.2441", "lng": "-95.3972"}, {"name": "Prosper", "state": "TX", "lat": "33.2394", "lng": "-96.8088"}, {"name": "Junction", "state": "TX", "lat": "30.4906", "lng": "-99.7725"}, {"name": "Rosser", "state": "TX", "lat": "32.4648", "lng": "-96.4431"}, {"name": "Villa del Sol", "state": "TX", "lat": "26.1915", "lng": "-97.5782"}, {"name": "Delmita", "state": "TX", "lat": "26.6851", "lng": "-98.4231"}, {"name": "Loma Linda", "state": "TX", "lat": "28.0070", "lng": "-97.4994"}, {"name": "Palacios", "state": "TX", "lat": "28.7198", "lng": "-96.2351"}, {"name": "Goldsmith", "state": "TX", "lat": "31.9833", "lng": "-102.6164"}, {"name": "Channelview", "state": "TX", "lat": "29.7914", "lng": "-95.1145"}, {"name": "Doffing", "state": "TX", "lat": "26.2788", "lng": "-98.3856"}, {"name": "Pinewood Estates", "state": "TX", "lat": "30.1692", "lng": "-94.3207"}, {"name": "Stephenville", "state": "TX", "lat": "32.2148", "lng": "-98.2205"}, {"name": "De Leon", "state": "TX", "lat": "32.1114", "lng": "-98.5351"}, {"name": "Dodd City", "state": "TX", "lat": "33.5757", "lng": "-96.0755"}, {"name": "Huntington", "state": "TX", "lat": "31.2803", "lng": "-94.5772"}, {"name": "Morton", "state": "TX", "lat": "33.7248", "lng": "-102.7593"}, {"name": "Taylor Landing", "state": "TX", "lat": "29.8641", "lng": "-94.1348"}, {"name": "Silverton", "state": "TX", "lat": "34.4714", "lng": "-101.3041"}, {"name": "Star Harbor", "state": "TX", "lat": "32.1927", "lng": "-96.0542"}, {"name": "Palm Valley", "state": "TX", "lat": "26.2015", "lng": "-97.7546"}, {"name": "Schulenburg", "state": "TX", "lat": "29.6820", "lng": "-96.9074"}, {"name": "Lytle", "state": "TX", "lat": "29.2338", "lng": "-98.7943"}, {"name": "Van", "state": "TX", "lat": "32.5242", "lng": "-95.6373"}, {"name": "The Woodlands", "state": "TX", "lat": "30.1738", "lng": "-95.5134"}, {"name": "Tilden", "state": "TX", "lat": "28.4596", "lng": "-98.5487"}, {"name": "Palmview South", "state": "TX", "lat": "26.2164", "lng": "-98.3780"}, {"name": "Prairie View", "state": "TX", "lat": "30.0850", "lng": "-95.9897"}, {"name": "Adrian", "state": "TX", "lat": "35.2741", "lng": "-102.6673"}, {"name": "Austin", "state": "TX", "lat": "30.3006", "lng": "-97.7517"}, {"name": "Evant", "state": "TX", "lat": "31.4762", "lng": "-98.1501"}, {"name": "Jarrell", "state": "TX", "lat": "30.8127", "lng": "-97.6130"}, {"name": "Kenedy", "state": "TX", "lat": "28.8176", "lng": "-97.8518"}, {"name": "Hillcrest", "state": "TX", "lat": "29.3924", "lng": "-95.2233"}, {"name": "Bastrop", "state": "TX", "lat": "30.1118", "lng": "-97.3257"}, {"name": "Imperial", "state": "TX", "lat": "31.2668", "lng": "-102.6947"}, {"name": "Bonney", "state": "TX", "lat": "29.3013", "lng": "-95.4508"}, {"name": "LaCoste", "state": "TX", "lat": "29.3100", "lng": "-98.8116"}, {"name": "McLendon-Chisholm", "state": "TX", "lat": "32.8512", "lng": "-96.3924"}, {"name": "Lake Meredith Estates", "state": "TX", "lat": "35.6639", "lng": "-101.6027"}, {"name": "Cameron Park", "state": "TX", "lat": "25.9705", "lng": "-97.4775"}, {"name": "Panorama Village", "state": "TX", "lat": "30.3806", "lng": "-95.4944"}, {"name": "Nolanville", "state": "TX", "lat": "31.0755", "lng": "-97.6090"}, {"name": "Lakeport", "state": "TX", "lat": "32.4050", "lng": "-94.7102"}, {"name": "Poth", "state": "TX", "lat": "29.0726", "lng": "-98.0809"}, {"name": "Palestine", "state": "TX", "lat": "31.7544", "lng": "-95.6471"}, {"name": "Georgetown", "state": "TX", "lat": "30.6668", "lng": "-97.6953"}, {"name": "Seymour", "state": "TX", "lat": "33.5955", "lng": "-99.2579"}, {"name": "New Hope", "state": "TX", "lat": "33.2116", "lng": "-96.5635"}, {"name": "Falfurrias", "state": "TX", "lat": "27.2243", "lng": "-98.1451"}, {"name": "Quail Creek", "state": "TX", "lat": "28.7773", "lng": "-97.0848"}, {"name": "Horseshoe Bay", "state": "TX", "lat": "30.5404", "lng": "-98.3804"}, {"name": "Holland", "state": "TX", "lat": "30.8834", "lng": "-97.4026"}, {"name": "Annetta", "state": "TX", "lat": "32.6938", "lng": "-97.6581"}, {"name": "Shadybrook", "state": "TX", "lat": "32.1108", "lng": "-95.4212"}, {"name": "Krugerville", "state": "TX", "lat": "33.2792", "lng": "-96.9880"}, {"name": "Thompsonville", "state": "TX", "lat": "27.2600", "lng": "-98.7847"}, {"name": "Villa Pancho", "state": "TX", "lat": "25.8842", "lng": "-97.4154"}, {"name": "Christoval", "state": "TX", "lat": "31.1976", "lng": "-100.4933"}, {"name": "Springlake", "state": "TX", "lat": "34.2316", "lng": "-102.3057"}, {"name": "Annetta North", "state": "TX", "lat": "32.7193", "lng": "-97.6723"}, {"name": "Scottsville", "state": "TX", "lat": "32.5319", "lng": "-94.2465"}, {"name": "Sundown", "state": "TX", "lat": "33.4575", "lng": "-102.4908"}, {"name": "Horizon City", "state": "TX", "lat": "31.6799", "lng": "-106.1903"}, {"name": "Keller", "state": "TX", "lat": "32.9337", "lng": "-97.2255"}, {"name": "Mobile City", "state": "TX", "lat": "32.9228", "lng": "-96.4111"}, {"name": "Las Pilas", "state": "TX", "lat": "27.6814", "lng": "-99.1833"}, {"name": "Bridge City", "state": "TX", "lat": "30.0297", "lng": "-93.8406"}, {"name": "Cumby", "state": "TX", "lat": "33.1354", "lng": "-95.8399"}, {"name": "Montgomery", "state": "TX", "lat": "30.3917", "lng": "-95.6965"}, {"name": "Garciasville", "state": "TX", "lat": "26.3198", "lng": "-98.6996"}, {"name": "Big Thicket Lake Estates", "state": "TX", "lat": "30.4874", "lng": "-94.7678"}, {"name": "Fannett", "state": "TX", "lat": "29.9250", "lng": "-94.2389"}, {"name": "Manor", "state": "TX", "lat": "30.3563", "lng": "-97.5230"}, {"name": "Alton", "state": "TX", "lat": "26.2884", "lng": "-98.3098"}, {"name": "La Tina Ranch", "state": "TX", "lat": "26.2031", "lng": "-97.4764"}, {"name": "Regino Ramirez", "state": "TX", "lat": "26.4880", "lng": "-98.9338"}, {"name": "Pleasant Hill", "state": "TX", "lat": "31.0033", "lng": "-94.7936"}, {"name": "Tanquecitos South Acres", "state": "TX", "lat": "27.4898", "lng": "-99.3797"}, {"name": "Littlefield", "state": "TX", "lat": "33.9191", "lng": "-102.3349"}, {"name": "Milano", "state": "TX", "lat": "30.7083", "lng": "-96.8594"}, {"name": "Oak Island", "state": "TX", "lat": "29.6632", "lng": "-94.6882"}, {"name": "Los Angeles", "state": "TX", "lat": "26.4947", "lng": "-97.7863"}, {"name": "Quintana", "state": "TX", "lat": "28.9280", "lng": "-95.3170"}, {"name": "Radar Base", "state": "TX", "lat": "28.8568", "lng": "-100.5336"}, {"name": "Parker", "state": "TX", "lat": "33.0570", "lng": "-96.6248"}, {"name": "Pelican Bay", "state": "TX", "lat": "32.9227", "lng": "-97.5189"}, {"name": "Guadalupe Guerra", "state": "TX", "lat": "26.4108", "lng": "-99.0819"}, {"name": "La Homa", "state": "TX", "lat": "26.2773", "lng": "-98.3579"}, {"name": "Itasca", "state": "TX", "lat": "32.1586", "lng": "-97.1478"}, {"name": "Wills Point", "state": "TX", "lat": "32.7093", "lng": "-96.0052"}, {"name": "Botines", "state": "TX", "lat": "27.7719", "lng": "-99.4571"}, {"name": "Brackettville", "state": "TX", "lat": "29.3181", "lng": "-100.4109"}, {"name": "Sparks", "state": "TX", "lat": "31.6727", "lng": "-106.2399"}, {"name": "Lago Vista", "state": "TX", "lat": "30.4521", "lng": "-97.9910"}, {"name": "Fresno", "state": "TX", "lat": "29.5357", "lng": "-95.4693"}, {"name": "Muleshoe", "state": "TX", "lat": "34.2292", "lng": "-102.7284"}, {"name": "Union Grove", "state": "TX", "lat": "32.5798", "lng": "-94.9095"}, {"name": "Liberty City", "state": "TX", "lat": "32.4502", "lng": "-94.9438"}, {"name": "Baytown", "state": "TX", "lat": "29.7586", "lng": "-94.9669"}, {"name": "Pecan Acres", "state": "TX", "lat": "32.9703", "lng": "-97.4727"}, {"name": "Prado Verde", "state": "TX", "lat": "31.8898", "lng": "-106.6135"}, {"name": "Stratford", "state": "TX", "lat": "36.3376", "lng": "-102.0760"}, {"name": "Spur", "state": "TX", "lat": "33.4701", "lng": "-100.8556"}, {"name": "Pleasant Valley", "state": "TX", "lat": "33.9374", "lng": "-98.5981"}, {"name": "Robstown", "state": "TX", "lat": "27.7886", "lng": "-97.6685"}, {"name": "Tivoli", "state": "TX", "lat": "28.4609", "lng": "-96.8915"}, {"name": "Seabrook", "state": "TX", "lat": "29.5751", "lng": "-95.0236"}, {"name": "Navarro", "state": "TX", "lat": "32.0008", "lng": "-96.3825"}, {"name": "Kingsland", "state": "TX", "lat": "30.6651", "lng": "-98.4545"}, {"name": "Fairchilds", "state": "TX", "lat": "29.4398", "lng": "-95.7777"}, {"name": "Richland Hills", "state": "TX", "lat": "32.8095", "lng": "-97.2273"}, {"name": "Mercedes", "state": "TX", "lat": "26.1533", "lng": "-97.9129"}, {"name": "West Livingston", "state": "TX", "lat": "30.6957", "lng": "-95.0097"}, {"name": "Meadows Place", "state": "TX", "lat": "29.6513", "lng": "-95.5873"}, {"name": "Palmview", "state": "TX", "lat": "26.2303", "lng": "-98.3792"}, {"name": "Santa Rosa", "state": "TX", "lat": "26.2562", "lng": "-97.8253"}, {"name": "La Ward", "state": "TX", "lat": "28.8464", "lng": "-96.4649"}, {"name": "Madisonville", "state": "TX", "lat": "30.9538", "lng": "-95.9090"}, {"name": "Perezville", "state": "TX", "lat": "26.2396", "lng": "-98.4023"}, {"name": "Los Veteranos I", "state": "TX", "lat": "27.6333", "lng": "-99.2186"}, {"name": "Progreso", "state": "TX", "lat": "26.0962", "lng": "-97.9566"}, {"name": "Laughlin AFB", "state": "TX", "lat": "29.3568", "lng": "-100.7828"}, {"name": "Bruni", "state": "TX", "lat": "27.4282", "lng": "-98.8322"}, {"name": "Callender Lake", "state": "TX", "lat": "32.3675", "lng": "-95.6983"}, {"name": "Richwood", "state": "TX", "lat": "29.0723", "lng": "-95.4045"}, {"name": "Ames", "state": "TX", "lat": "30.0451", "lng": "-94.7373"}, {"name": "Bee Cave", "state": "TX", "lat": "30.3084", "lng": "-97.9629"}, {"name": "Aransas Pass", "state": "TX", "lat": "27.8877", "lng": "-97.1134"}, {"name": "Old River-Winfree", "state": "TX", "lat": "29.8745", "lng": "-94.8268"}, {"name": "Mentone", "state": "TX", "lat": "31.7073", "lng": "-103.5989"}, {"name": "Bristol", "state": "TX", "lat": "32.4550", "lng": "-96.5672"}, {"name": "China Grove", "state": "TX", "lat": "29.3930", "lng": "-98.3443"}, {"name": "Alvord", "state": "TX", "lat": "33.3569", "lng": "-97.6960"}, {"name": "Sandy Oaks", "state": "TX", "lat": "29.1821", "lng": "-98.4081"}, {"name": "Floydada", "state": "TX", "lat": "33.9835", "lng": "-101.3367"}, {"name": "Sun Valley", "state": "TX", "lat": "33.6703", "lng": "-95.4286"}, {"name": "Sanger", "state": "TX", "lat": "33.3712", "lng": "-97.1677"}, {"name": "Red Lick", "state": "TX", "lat": "33.4767", "lng": "-94.1688"}, {"name": "Karnes City", "state": "TX", "lat": "28.8858", "lng": "-97.9002"}, {"name": "Midland", "state": "TX", "lat": "32.0249", "lng": "-102.1137"}, {"name": "Naples", "state": "TX", "lat": "33.2030", "lng": "-94.6776"}, {"name": "Trinity", "state": "TX", "lat": "30.9445", "lng": "-95.3736"}, {"name": "Liverpool", "state": "TX", "lat": "29.3018", "lng": "-95.2744"}, {"name": "Aubrey", "state": "TX", "lat": "33.2872", "lng": "-96.9623"}, {"name": "Browndell", "state": "TX", "lat": "31.1254", "lng": "-93.9802"}, {"name": "Iredell", "state": "TX", "lat": "31.9866", "lng": "-97.8719"}, {"name": "Atlanta", "state": "TX", "lat": "33.1136", "lng": "-94.1672"}, {"name": "Manchaca", "state": "TX", "lat": "30.1353", "lng": "-97.8362"}, {"name": "Sunray", "state": "TX", "lat": "36.0182", "lng": "-101.8245"}, {"name": "Maud", "state": "TX", "lat": "33.3299", "lng": "-94.3461"}, {"name": "Garden City", "state": "TX", "lat": "31.8674", "lng": "-101.4864"}, {"name": "Bayview", "state": "TX", "lat": "26.1325", "lng": "-97.3973"}, {"name": "League City", "state": "TX", "lat": "29.4874", "lng": "-95.1087"}, {"name": "Laredo Ranchettes West", "state": "TX", "lat": "27.4901", "lng": "-99.3702"}, {"name": "Lakeside", "state": "TX", "lat": "32.8219", "lng": "-97.4869"}, {"name": "Petronila", "state": "TX", "lat": "27.6713", "lng": "-97.6322"}, {"name": "Azle", "state": "TX", "lat": "32.8955", "lng": "-97.5379"}, {"name": "La Rosita", "state": "TX", "lat": "26.4020", "lng": "-98.9326"}, {"name": "Gholson", "state": "TX", "lat": "31.7123", "lng": "-97.2359"}, {"name": "Ivanhoe", "state": "TX", "lat": "30.6799", "lng": "-94.4154"}, {"name": "Normangee", "state": "TX", "lat": "31.0300", "lng": "-96.1161"}, {"name": "Bayside", "state": "TX", "lat": "28.0966", "lng": "-97.2109"}, {"name": "Hubbard", "state": "TX", "lat": "31.8470", "lng": "-96.8003"}, {"name": "Ore City", "state": "TX", "lat": "32.8008", "lng": "-94.7182"}, {"name": "Anacua", "state": "TX", "lat": "26.3856", "lng": "-98.9191"}, {"name": "Little Elm", "state": "TX", "lat": "33.1856", "lng": "-96.9290"}, {"name": "Santa Cruz", "state": "TX", "lat": "26.3537", "lng": "-98.7676"}, {"name": "Dickens", "state": "TX", "lat": "33.6213", "lng": "-100.8368"}, {"name": "Powell", "state": "TX", "lat": "32.1128", "lng": "-96.3236"}, {"name": "Castle Hills", "state": "TX", "lat": "29.5229", "lng": "-98.5197"}, {"name": "La Chuparosa", "state": "TX", "lat": "26.4037", "lng": "-98.9268"}, {"name": "Lockney", "state": "TX", "lat": "34.1231", "lng": "-101.4424"}, {"name": "White Deer", "state": "TX", "lat": "35.4332", "lng": "-101.1751"}, {"name": "Placedo", "state": "TX", "lat": "28.6919", "lng": "-96.8258"}, {"name": "New Chapel Hill", "state": "TX", "lat": "32.3012", "lng": "-95.1674"}, {"name": "Four Points", "state": "TX", "lat": "27.7964", "lng": "-99.4548"}, {"name": "Niederwald", "state": "TX", "lat": "30.0043", "lng": "-97.7540"}, {"name": "Center", "state": "TX", "lat": "31.7929", "lng": "-94.1795"}, {"name": "Aspermont", "state": "TX", "lat": "33.1405", "lng": "-100.2253"}, {"name": "Wyldwood", "state": "TX", "lat": "30.1299", "lng": "-97.4800"}, {"name": "Savannah", "state": "TX", "lat": "33.2257", "lng": "-96.9081"}, {"name": "Scenic Oaks", "state": "TX", "lat": "29.7038", "lng": "-98.6712"}, {"name": "Caney City", "state": "TX", "lat": "32.2096", "lng": "-96.0381"}, {"name": "Onalaska", "state": "TX", "lat": "30.8209", "lng": "-95.1110"}, {"name": "Aledo", "state": "TX", "lat": "32.6974", "lng": "-97.6070"}, {"name": "Ovilla", "state": "TX", "lat": "32.5351", "lng": "-96.8896"}, {"name": "Oakhurst", "state": "TX", "lat": "30.7434", "lng": "-95.3072"}, {"name": "Eldorado", "state": "TX", "lat": "30.8617", "lng": "-100.5979"}, {"name": "Winnie", "state": "TX", "lat": "29.8167", "lng": "-94.3807"}, {"name": "Universal City", "state": "TX", "lat": "29.5521", "lng": "-98.3074"}, {"name": "Combine", "state": "TX", "lat": "32.5910", "lng": "-96.5202"}, {"name": "Arcola", "state": "TX", "lat": "29.5032", "lng": "-95.4693"}, {"name": "Woodway", "state": "TX", "lat": "31.4988", "lng": "-97.2314"}, {"name": "Talco", "state": "TX", "lat": "33.3628", "lng": "-95.1034"}, {"name": "Grays Prairie", "state": "TX", "lat": "32.4734", "lng": "-96.3502"}, {"name": "El Cenizo", "state": "TX", "lat": "27.3318", "lng": "-99.5028"}, {"name": "Fate", "state": "TX", "lat": "32.9432", "lng": "-96.3863"}, {"name": "Rafael Pena", "state": "TX", "lat": "26.3010", "lng": "-98.6409"}, {"name": "Spring Gardens", "state": "TX", "lat": "27.7615", "lng": "-97.7419"}, {"name": "Jewett", "state": "TX", "lat": "31.3627", "lng": "-96.1455"}, {"name": "Miami", "state": "TX", "lat": "35.6924", "lng": "-100.6416"}, {"name": "Menard", "state": "TX", "lat": "30.9185", "lng": "-99.7837"}, {"name": "Los Huisaches", "state": "TX", "lat": "27.9070", "lng": "-99.4758"}, {"name": "Progreso Lakes", "state": "TX", "lat": "26.0712", "lng": "-97.9587"}, {"name": "Ozona", "state": "TX", "lat": "30.7074", "lng": "-101.2059"}, {"name": "Yoakum", "state": "TX", "lat": "29.2933", "lng": "-97.1469"}, {"name": "Woodville", "state": "TX", "lat": "30.7740", "lng": "-94.4236"}, {"name": "Cleveland", "state": "TX", "lat": "30.3369", "lng": "-95.0924"}, {"name": "Balmorhea", "state": "TX", "lat": "30.9840", "lng": "-103.7438"}, {"name": "Corsicana", "state": "TX", "lat": "32.0821", "lng": "-96.4680"}, {"name": "Carlsbad", "state": "TX", "lat": "31.6112", "lng": "-100.6406"}, {"name": "Santa Maria", "state": "TX", "lat": "26.0767", "lng": "-97.8464"}, {"name": "Waelder", "state": "TX", "lat": "29.6943", "lng": "-97.2972"}, {"name": "Garrett", "state": "TX", "lat": "32.3681", "lng": "-96.6543"}, {"name": "Lone Star", "state": "TX", "lat": "32.9392", "lng": "-94.7091"}, {"name": "Troup", "state": "TX", "lat": "32.1450", "lng": "-95.1229"}, {"name": "Thorndale", "state": "TX", "lat": "30.6141", "lng": "-97.2067"}, {"name": "Kendleton", "state": "TX", "lat": "29.4470", "lng": "-96.0010"}, {"name": "Wild Peach Village", "state": "TX", "lat": "29.0811", "lng": "-95.6373"}, {"name": "Forney", "state": "TX", "lat": "32.7440", "lng": "-96.4529"}, {"name": "Eidson Road", "state": "TX", "lat": "28.6677", "lng": "-100.4787"}, {"name": "Victoria Vera", "state": "TX", "lat": "26.3182", "lng": "-98.6929"}, {"name": "Reid Hope King", "state": "TX", "lat": "25.9228", "lng": "-97.4140"}, {"name": "Appleby", "state": "TX", "lat": "31.7170", "lng": "-94.6078"}, {"name": "Mikes", "state": "TX", "lat": "26.3147", "lng": "-98.6336"}, {"name": "Shavano Park", "state": "TX", "lat": "29.5862", "lng": "-98.5562"}, {"name": "Justin", "state": "TX", "lat": "33.0863", "lng": "-97.3009"}, {"name": "Iglesia Antigua", "state": "TX", "lat": "26.0749", "lng": "-97.8342"}, {"name": "Fort Worth", "state": "TX", "lat": "32.7812", "lng": "-97.3472"}, {"name": "San Augustine", "state": "TX", "lat": "31.5297", "lng": "-94.1108"}, {"name": "Rocky Mound", "state": "TX", "lat": "33.0286", "lng": "-95.0283"}, {"name": "Lopezville", "state": "TX", "lat": "26.2453", "lng": "-98.1537"}, {"name": "Camargito", "state": "TX", "lat": "26.3451", "lng": "-98.7387"}, {"name": "San Pedro", "state": "TX", "lat": "25.9815", "lng": "-97.5882"}, {"name": "Rio Grande City", "state": "TX", "lat": "26.3808", "lng": "-98.8216"}, {"name": "Channing", "state": "TX", "lat": "35.6819", "lng": "-102.3322"}, {"name": "Mount Calm", "state": "TX", "lat": "31.7566", "lng": "-96.8819"}, {"name": "Clifton", "state": "TX", "lat": "31.7822", "lng": "-97.5824"}, {"name": "Sadler", "state": "TX", "lat": "33.6821", "lng": "-96.8487"}, {"name": "Lampasas", "state": "TX", "lat": "31.0640", "lng": "-98.1824"}, {"name": "La Grulla", "state": "TX", "lat": "26.2720", "lng": "-98.6483"}, {"name": "La Carla", "state": "TX", "lat": "26.4354", "lng": "-98.7406"}, {"name": "Waco", "state": "TX", "lat": "31.5597", "lng": "-97.1882"}, {"name": "Emory", "state": "TX", "lat": "32.8765", "lng": "-95.7677"}, {"name": "Grapevine", "state": "TX", "lat": "32.9343", "lng": "-97.0744"}, {"name": "Snyder", "state": "TX", "lat": "32.7133", "lng": "-100.9113"}, {"name": "Granjeno", "state": "TX", "lat": "26.1374", "lng": "-98.3031"}, {"name": "Joaquin", "state": "TX", "lat": "31.9659", "lng": "-94.0504"}, {"name": "Laredo", "state": "TX", "lat": "27.5617", "lng": "-99.4874"}, {"name": "Nederland", "state": "TX", "lat": "29.9707", "lng": "-94.0015"}, {"name": "Green Valley Farms", "state": "TX", "lat": "26.1219", "lng": "-97.5610"}, {"name": "Gail", "state": "TX", "lat": "32.7670", "lng": "-101.4465"}, {"name": "Memphis", "state": "TX", "lat": "34.7268", "lng": "-100.5417"}, {"name": "Paloma Creek South", "state": "TX", "lat": "33.2100", "lng": "-96.9327"}, {"name": "Shady Shores", "state": "TX", "lat": "33.1627", "lng": "-97.0394"}, {"name": "Fort Bliss", "state": "TX", "lat": "31.8137", "lng": "-106.4119"}, {"name": "Groveton", "state": "TX", "lat": "31.0572", "lng": "-95.1269"}, {"name": "Domino", "state": "TX", "lat": "33.2493", "lng": "-94.1162"}, {"name": "Lacy-Lakeview", "state": "TX", "lat": "31.6292", "lng": "-97.1052"}, {"name": "Weston", "state": "TX", "lat": "33.3300", "lng": "-96.6676"}, {"name": "Luling", "state": "TX", "lat": "29.6814", "lng": "-97.6468"}, {"name": "Dawson", "state": "TX", "lat": "31.8941", "lng": "-96.7151"}, {"name": "Weslaco", "state": "TX", "lat": "26.1648", "lng": "-97.9898"}, {"name": "Orason", "state": "TX", "lat": "26.0742", "lng": "-97.4458"}, {"name": "Bigfoot", "state": "TX", "lat": "29.0619", "lng": "-98.8522"}, {"name": "Westminster", "state": "TX", "lat": "33.3649", "lng": "-96.4598"}, {"name": "Nocona Hills", "state": "TX", "lat": "33.8524", "lng": "-97.6435"}, {"name": "Megargel", "state": "TX", "lat": "33.4535", "lng": "-98.9298"}, {"name": "Canyon Lake", "state": "TX", "lat": "29.8761", "lng": "-98.2611"}, {"name": "Mertens", "state": "TX", "lat": "32.0589", "lng": "-96.8938"}, {"name": "Wheeler", "state": "TX", "lat": "35.4411", "lng": "-100.2752"}, {"name": "Moore Station", "state": "TX", "lat": "32.1905", "lng": "-95.5704"}, {"name": "Anthony", "state": "TX", "lat": "31.9876", "lng": "-106.5933"}, {"name": "Talty", "state": "TX", "lat": "32.6944", "lng": "-96.4008"}, {"name": "Rule", "state": "TX", "lat": "33.1819", "lng": "-99.8932"}, {"name": "Roxton", "state": "TX", "lat": "33.5454", "lng": "-95.7247"}, {"name": "Campo Verde", "state": "TX", "lat": "26.3916", "lng": "-98.9140"}, {"name": "Richardson", "state": "TX", "lat": "32.9717", "lng": "-96.7092"}]