[{"name": "Trenton", "state": "UT", "lat": "41.9116", "lng": "-111.9356"}, {"name": "Bluffdale", "state": "UT", "lat": "40.4743", "lng": "-111.9383"}, {"name": "Roy", "state": "UT", "lat": "41.1717", "lng": "-112.0480"}, {"name": "Marion", "state": "UT", "lat": "40.6813", "lng": "-111.2829"}, {"name": "Kanab", "state": "UT", "lat": "37.0262", "lng": "-112.5219"}, {"name": "Providence", "state": "UT", "lat": "41.7033", "lng": "-111.8122"}, {"name": "Farmington", "state": "UT", "lat": "40.9846", "lng": "-111.9064"}, {"name": "Mendon", "state": "UT", "lat": "41.7101", "lng": "-111.9778"}, {"name": "Spring Lake", "state": "UT", "lat": "40.0054", "lng": "-111.7474"}, {"name": "Jensen", "state": "UT", "lat": "40.3695", "lng": "-109.3556"}, {"name": "Aurora", "state": "UT", "lat": "38.9201", "lng": "-111.9340"}, {"name": "Paradise", "state": "UT", "lat": "41.5678", "lng": "-111.8330"}, {"name": "West Bountiful", "state": "UT", "lat": "40.8983", "lng": "-111.9080"}, {"name": "Saratoga Springs", "state": "UT", "lat": "40.3448", "lng": "-111.9153"}, {"name": "Bear River City", "state": "UT", "lat": "41.6124", "lng": "-112.1250"}, {"name": "Syracuse", "state": "UT", "lat": "41.0864", "lng": "-112.0697"}, {"name": "Koosharem", "state": "UT", "lat": "38.5135", "lng": "-111.8822"}, {"name": "Aneth", "state": "UT", "lat": "37.2050", "lng": "-109.1623"}, {"name": "Cedar Fort", "state": "UT", "lat": "40.3414", "lng": "-112.1086"}, {"name": "Payson", "state": "UT", "lat": "40.0353", "lng": "-111.7404"}, {"name": "Pleasant View", "state": "UT", "lat": "41.3249", "lng": "-112.0011"}, {"name": "Meadow", "state": "UT", "lat": "38.8863", "lng": "-112.4072"}, {"name": "Enoch", "state": "UT", "lat": "37.7663", "lng": "-113.0431"}, {"name": "Lynndyl", "state": "UT", "lat": "39.5085", "lng": "-112.3933"}, {"name": "Washington Terrace", "state": "UT", "lat": "41.1683", "lng": "-111.9783"}, {"name": "Richmond", "state": "UT", "lat": "41.9230", "lng": "-111.8076"}, {"name": "South Weber", "state": "UT", "lat": "41.1334", "lng": "-111.9392"}, {"name": "Timber Lakes", "state": "UT", "lat": "40.4733", "lng": "-111.2533"}, {"name": "Whiterocks", "state": "UT", "lat": "40.4721", "lng": "-109.9413"}, {"name": "Torrey", "state": "UT", "lat": "38.3077", "lng": "-111.4268"}, {"name": "Coalville", "state": "UT", "lat": "40.9152", "lng": "-111.3942"}, {"name": "Leeds", "state": "UT", "lat": "37.2373", "lng": "-113.3471"}, {"name": "North Ogden", "state": "UT", "lat": "41.3124", "lng": "-111.9585"}, {"name": "Castle Valley", "state": "UT", "lat": "38.6325", "lng": "-109.3966"}, {"name": "Samak", "state": "UT", "lat": "40.6318", "lng": "-111.2244"}, {"name": "White City", "state": "UT", "lat": "40.5666", "lng": "-111.8636"}, {"name": "Neola", "state": "UT", "lat": "40.4344", "lng": "-110.0308"}, {"name": "Midway", "state": "UT", "lat": "40.5183", "lng": "-111.4745"}, {"name": "Cache", "state": "UT", "lat": "41.8308", "lng": "-112.0052"}, {"name": "Clarkston", "state": "UT", "lat": "41.9204", "lng": "-112.0503"}, {"name": "Stockton", "state": "UT", "lat": "40.4496", "lng": "-112.3672"}, {"name": "Spring Glen", "state": "UT", "lat": "39.6561", "lng": "-110.8461"}, {"name": "Herriman", "state": "UT", "lat": "40.4898", "lng": "-112.0169"}, {"name": "Thatcher", "state": "UT", "lat": "41.6815", "lng": "-112.3201"}, {"name": "River Heights", "state": "UT", "lat": "41.7219", "lng": "-111.8194"}, {"name": "Uintah", "state": "UT", "lat": "41.1428", "lng": "-111.9333"}, {"name": "Cottonwood Heights", "state": "UT", "lat": "40.6137", "lng": "-111.8144"}, {"name": "Helper", "state": "UT", "lat": "39.6898", "lng": "-110.8597"}, {"name": "Springdale", "state": "UT", "lat": "37.1816", "lng": "-113.0048"}, {"name": "Rocky Ridge", "state": "UT", "lat": "39.9197", "lng": "-111.8258"}, {"name": "Provo", "state": "UT", "lat": "40.2457", "lng": "-111.6457"}, {"name": "Fairfield", "state": "UT", "lat": "40.2462", "lng": "-112.0843"}, {"name": "Vineyard", "state": "UT", "lat": "40.3058", "lng": "-111.7544"}, {"name": "Panguitch", "state": "UT", "lat": "37.8234", "lng": "-112.4351"}, {"name": "Nibley", "state": "UT", "lat": "41.6725", "lng": "-111.8454"}, {"name": "Milford", "state": "UT", "lat": "38.3945", "lng": "-113.0123"}, {"name": "Fayette", "state": "UT", "lat": "39.2246", "lng": "-111.8542"}, {"name": "West Jordan", "state": "UT", "lat": "40.6024", "lng": "-112.0008"}, {"name": "North Salt Lake", "state": "UT", "lat": "40.8439", "lng": "-111.9187"}, {"name": "Blanding", "state": "UT", "lat": "37.6213", "lng": "-109.5072"}, {"name": "Elsinore", "state": "UT", "lat": "38.6834", "lng": "-112.1488"}, {"name": "Central", "state": "UT", "lat": "37.4150", "lng": "-113.6263"}, {"name": "Tabiona", "state": "UT", "lat": "40.3543", "lng": "-110.7095"}, {"name": "Hideout", "state": "UT", "lat": "40.6430", "lng": "-111.4007"}, {"name": "Eden", "state": "UT", "lat": "41.3022", "lng": "-111.8086"}, {"name": "Palmyra", "state": "UT", "lat": "40.1473", "lng": "-111.6979"}, {"name": "Millville", "state": "UT", "lat": "41.6855", "lng": "-111.8213"}, {"name": "Pine Valley", "state": "UT", "lat": "37.3905", "lng": "-113.5062"}, {"name": "Roosevelt", "state": "UT", "lat": "40.2925", "lng": "-110.0094"}, {"name": "Levan", "state": "UT", "lat": "39.5560", "lng": "-111.8609"}, {"name": "Big Water", "state": "UT", "lat": "37.0729", "lng": "-111.6608"}, {"name": "Morgan", "state": "UT", "lat": "41.0415", "lng": "-111.6801"}, {"name": "Boulder", "state": "UT", "lat": "37.9228", "lng": "-111.4319"}, {"name": "Dugway", "state": "UT", "lat": "40.2307", "lng": "-112.7541"}, {"name": "Clearfield", "state": "UT", "lat": "41.1030", "lng": "-112.0237"}, {"name": "Portage", "state": "UT", "lat": "41.9756", "lng": "-112.2405"}, {"name": "White Mesa", "state": "UT", "lat": "37.4596", "lng": "-109.4600"}, {"name": "Ivins", "state": "UT", "lat": "37.1742", "lng": "-113.6809"}, {"name": "Eagle Mountain", "state": "UT", "lat": "40.3137", "lng": "-112.0114"}, {"name": "Teasdale", "state": "UT", "lat": "38.2851", "lng": "-111.4724"}, {"name": "Deweyville", "state": "UT", "lat": "41.6930", "lng": "-112.0883"}, {"name": "Sigurd", "state": "UT", "lat": "38.8508", "lng": "-111.9673"}, {"name": "Corinne", "state": "UT", "lat": "41.5497", "lng": "-112.1227"}, {"name": "Bluebell", "state": "UT", "lat": "40.3576", "lng": "-110.2232"}, {"name": "Oak City", "state": "UT", "lat": "39.3761", "lng": "-112.3391"}, {"name": "Goshen", "state": "UT", "lat": "39.9511", "lng": "-111.9008"}, {"name": "Cannonville", "state": "UT", "lat": "37.5688", "lng": "-112.0531"}, {"name": "Logan", "state": "UT", "lat": "41.7400", "lng": "-111.8419"}, {"name": "Salt Lake City", "state": "UT", "lat": "40.7774", "lng": "-111.9300"}, {"name": "Stansbury Park", "state": "UT", "lat": "40.6356", "lng": "-112.3054"}, {"name": "Elk Ridge", "state": "UT", "lat": "40.0099", "lng": "-111.6775"}, {"name": "Fountain Green", "state": "UT", "lat": "39.6281", "lng": "-111.6413"}, {"name": "Amalga", "state": "UT", "lat": "41.8566", "lng": "-111.8974"}, {"name": "Oakley", "state": "UT", "lat": "40.7259", "lng": "-111.2770"}, {"name": "Wales", "state": "UT", "lat": "39.4851", "lng": "-111.6360"}, {"name": "Alpine", "state": "UT", "lat": "40.4629", "lng": "-111.7724"}, {"name": "Hinckley", "state": "UT", "lat": "39.3336", "lng": "-112.6736"}, {"name": "Washington", "state": "UT", "lat": "37.1325", "lng": "-113.4893"}, {"name": "Mapleton", "state": "UT", "lat": "40.1187", "lng": "-111.5740"}, {"name": "Grantsville", "state": "UT", "lat": "40.6148", "lng": "-112.4777"}, {"name": "Wendover", "state": "UT", "lat": "40.7241", "lng": "-114.0250"}, {"name": "Genola", "state": "UT", "lat": "40.0117", "lng": "-111.8464"}, {"name": "Hanksville", "state": "UT", "lat": "38.3724", "lng": "-110.7137"}, {"name": "Toquerville", "state": "UT", "lat": "37.2666", "lng": "-113.2951"}, {"name": "Hoytsville", "state": "UT", "lat": "40.8754", "lng": "-111.3846"}, {"name": "Elwood", "state": "UT", "lat": "41.6759", "lng": "-112.1376"}, {"name": "Navajo Mountain", "state": "UT", "lat": "37.0470", "lng": "-110.7900"}, {"name": "Huntington", "state": "UT", "lat": "39.3301", "lng": "-110.9628"}, {"name": "Randolph", "state": "UT", "lat": "41.6643", "lng": "-111.1850"}, {"name": "Kenilworth", "state": "UT", "lat": "39.6803", "lng": "-110.8145"}, {"name": "Sandy", "state": "UT", "lat": "40.5706", "lng": "-111.8510"}, {"name": "West Point", "state": "UT", "lat": "41.1220", "lng": "-112.0995"}, {"name": "Perry", "state": "UT", "lat": "41.4648", "lng": "-112.0401"}, {"name": "Tselakai Dezza", "state": "UT", "lat": "37.2100", "lng": "-109.6090"}, {"name": "Daniel", "state": "UT", "lat": "40.4668", "lng": "-111.4097"}, {"name": "Gunnison", "state": "UT", "lat": "39.1570", "lng": "-111.8135"}, {"name": "Smithfield", "state": "UT", "lat": "41.8347", "lng": "-111.8266"}, {"name": "Independence", "state": "UT", "lat": "40.4108", "lng": "-111.2958"}, {"name": "Peoa", "state": "UT", "lat": "40.7257", "lng": "-111.3380"}, {"name": "Benjamin", "state": "UT", "lat": "40.0945", "lng": "-111.7388"}, {"name": "Randlett", "state": "UT", "lat": "40.2267", "lng": "-109.8308"}, {"name": "Junction", "state": "UT", "lat": "38.2357", "lng": "-112.2238"}, {"name": "Oasis", "state": "UT", "lat": "39.2923", "lng": "-112.6290"}, {"name": "Ferron", "state": "UT", "lat": "39.0914", "lng": "-111.1336"}, {"name": "Interlaken", "state": "UT", "lat": "40.5412", "lng": "-111.4751"}, {"name": "Charleston", "state": "UT", "lat": "40.4662", "lng": "-111.4599"}, {"name": "Lewiston", "state": "UT", "lat": "41.9615", "lng": "-111.8797"}, {"name": "Bluff", "state": "UT", "lat": "37.2913", "lng": "-109.5700"}, {"name": "Elmo", "state": "UT", "lat": "39.3878", "lng": "-110.8157"}, {"name": "Mount Pleasant", "state": "UT", "lat": "39.5407", "lng": "-111.4559"}, {"name": "Midvale", "state": "UT", "lat": "40.6148", "lng": "-111.8928"}, {"name": "Sutherland", "state": "UT", "lat": "39.3895", "lng": "-112.6400"}, {"name": "Woodland Hills", "state": "UT", "lat": "40.0132", "lng": "-111.6558"}, {"name": "Santa Clara", "state": "UT", "lat": "37.1311", "lng": "-113.6560"}, {"name": "Harrisville", "state": "UT", "lat": "41.2853", "lng": "-111.9859"}, {"name": "Moab", "state": "UT", "lat": "38.5701", "lng": "-109.5477"}, {"name": "Joseph", "state": "UT", "lat": "38.6247", "lng": "-112.2199"}, {"name": "Dammeron Valley", "state": "UT", "lat": "37.3042", "lng": "-113.6658"}, {"name": "Park City", "state": "UT", "lat": "40.6505", "lng": "-111.5020"}, {"name": "Summit", "state": "UT", "lat": "37.8013", "lng": "-112.9350"}, {"name": "Holden", "state": "UT", "lat": "39.1002", "lng": "-112.2705"}, {"name": "Draper", "state": "UT", "lat": "40.4956", "lng": "-111.8607"}, {"name": "Lehi", "state": "UT", "lat": "40.4137", "lng": "-111.8726"}, {"name": "Holladay", "state": "UT", "lat": "40.6599", "lng": "-111.8226"}, {"name": "Ballard", "state": "UT", "lat": "40.2949", "lng": "-109.9493"}, {"name": "Montezuma Creek", "state": "UT", "lat": "37.2563", "lng": "-109.3030"}, {"name": "Rush Valley", "state": "UT", "lat": "40.3613", "lng": "-112.4506"}, {"name": "Spring City", "state": "UT", "lat": "39.4799", "lng": "-111.4918"}, {"name": "Layton", "state": "UT", "lat": "41.0771", "lng": "-111.9622"}, {"name": "Wellsville", "state": "UT", "lat": "41.6223", "lng": "-111.9430"}, {"name": "Redmond", "state": "UT", "lat": "39.0058", "lng": "-111.8671"}, {"name": "Bonanza", "state": "UT", "lat": "40.0305", "lng": "-109.1884"}, {"name": "Laketown", "state": "UT", "lat": "41.8276", "lng": "-111.3243"}, {"name": "Hatch", "state": "UT", "lat": "37.6494", "lng": "-112.4345"}, {"name": "North Logan", "state": "UT", "lat": "41.7759", "lng": "-111.8066"}, {"name": "Alton", "state": "UT", "lat": "37.4303", "lng": "-112.5062"}, {"name": "Price", "state": "UT", "lat": "39.6040", "lng": "-110.8004"}, {"name": "South Ogden", "state": "UT", "lat": "41.1714", "lng": "-111.9568"}, {"name": "Springville", "state": "UT", "lat": "40.1638", "lng": "-111.6206"}, {"name": "Mantua", "state": "UT", "lat": "41.5006", "lng": "-111.9344"}, {"name": "Mexican Hat", "state": "UT", "lat": "37.1731", "lng": "-109.8731"}, {"name": "Veyo", "state": "UT", "lat": "37.3375", "lng": "-113.6930"}, {"name": "Mayfield", "state": "UT", "lat": "39.1192", "lng": "-111.7078"}, {"name": "Sunset", "state": "UT", "lat": "41.1392", "lng": "-112.0285"}, {"name": "Enterprise", "state": "UT", "lat": "37.5716", "lng": "-113.7430"}, {"name": "Spanish Fork", "state": "UT", "lat": "40.1102", "lng": "-111.6405"}, {"name": "Henrieville", "state": "UT", "lat": "37.5638", "lng": "-112.0020"}, {"name": "Lindon", "state": "UT", "lat": "40.3414", "lng": "-111.7188"}, {"name": "New Harmony", "state": "UT", "lat": "37.4802", "lng": "-113.3095"}, {"name": "Orangeville", "state": "UT", "lat": "39.2309", "lng": "-111.0592"}, {"name": "Delta", "state": "UT", "lat": "39.3623", "lng": "-112.5467"}, {"name": "Liberty", "state": "UT", "lat": "41.3426", "lng": "-111.8649"}, {"name": "Castle Dale", "state": "UT", "lat": "39.2219", "lng": "-111.0231"}, {"name": "Bryce Canyon City", "state": "UT", "lat": "37.6814", "lng": "-112.1588"}, {"name": "Tropic", "state": "UT", "lat": "37.6293", "lng": "-112.0914"}, {"name": "Scipio", "state": "UT", "lat": "39.2491", "lng": "-112.1044"}, {"name": "Clawson", "state": "UT", "lat": "39.1391", "lng": "-111.0933"}, {"name": "Spanish Valley", "state": "UT", "lat": "38.4743", "lng": "-109.4210"}, {"name": "Brian Head", "state": "UT", "lat": "37.6977", "lng": "-112.8416"}, {"name": "Fruit Heights", "state": "UT", "lat": "41.0277", "lng": "-111.9081"}, {"name": "Fairview", "state": "UT", "lat": "39.6299", "lng": "-111.4368"}, {"name": "Hooper", "state": "UT", "lat": "41.1598", "lng": "-112.2870"}, {"name": "Leamington", "state": "UT", "lat": "39.5313", "lng": "-112.2855"}, {"name": "Brigham City", "state": "UT", "lat": "41.5035", "lng": "-112.0454"}, {"name": "South Salt Lake", "state": "UT", "lat": "40.7056", "lng": "-111.8986"}, {"name": "Flaming Gorge", "state": "UT", "lat": "40.8890", "lng": "-109.4751"}, {"name": "Silver Summit", "state": "UT", "lat": "40.7434", "lng": "-111.4905"}, {"name": "Santaquin", "state": "UT", "lat": "39.9712", "lng": "-111.7937"}, {"name": "Kaysville", "state": "UT", "lat": "41.0291", "lng": "-111.9455"}, {"name": "Glendale", "state": "UT", "lat": "37.3342", "lng": "-112.6035"}, {"name": "Oljato-Monument Valley", "state": "UT", "lat": "37.0309", "lng": "-110.2512"}, {"name": "Carbonville", "state": "UT", "lat": "39.6272", "lng": "-110.8337"}, {"name": "Antimony", "state": "UT", "lat": "38.1030", "lng": "-111.9823"}, {"name": "Willard", "state": "UT", "lat": "41.4146", "lng": "-112.0446"}, {"name": "Henefer", "state": "UT", "lat": "41.0138", "lng": "-111.4933"}, {"name": "Hyde Park", "state": "UT", "lat": "41.8009", "lng": "-111.8118"}, {"name": "Vernon", "state": "UT", "lat": "40.0956", "lng": "-112.4458"}, {"name": "Avon", "state": "UT", "lat": "41.5354", "lng": "-111.8125"}, {"name": "Garden", "state": "UT", "lat": "41.8866", "lng": "-111.4327"}, {"name": "Centerfield", "state": "UT", "lat": "39.1275", "lng": "-111.8189"}, {"name": "Elberta", "state": "UT", "lat": "39.9739", "lng": "-111.9554"}, {"name": "St. George", "state": "UT", "lat": "37.0770", "lng": "-113.5770"}, {"name": "Highland", "state": "UT", "lat": "40.4275", "lng": "-111.7955"}, {"name": "Fillmore", "state": "UT", "lat": "38.9640", "lng": "-112.3387"}, {"name": "Magna", "state": "UT", "lat": "40.7094", "lng": "-112.0828"}, {"name": "Copperton", "state": "UT", "lat": "40.5581", "lng": "-112.0932"}, {"name": "Heber", "state": "UT", "lat": "40.5068", "lng": "-111.3984"}, {"name": "Lyman", "state": "UT", "lat": "38.3966", "lng": "-111.5894"}, {"name": "Paragonah", "state": "UT", "lat": "37.8853", "lng": "-112.7707"}, {"name": "West Haven", "state": "UT", "lat": "41.2082", "lng": "-112.0540"}, {"name": "Hildale", "state": "UT", "lat": "37.0171", "lng": "-112.9786"}, {"name": "Halchita", "state": "UT", "lat": "37.1314", "lng": "-109.9131"}, {"name": "Benson", "state": "UT", "lat": "41.7489", "lng": "-111.9169"}, {"name": "Naples", "state": "UT", "lat": "40.4318", "lng": "-109.4913"}, {"name": "Kingston", "state": "UT", "lat": "38.2067", "lng": "-112.1793"}, {"name": "Huntsville", "state": "UT", "lat": "41.2602", "lng": "-111.7741"}, {"name": "Woodruff", "state": "UT", "lat": "41.5212", "lng": "-111.1639"}, {"name": "Murray", "state": "UT", "lat": "40.6498", "lng": "-111.8874"}, {"name": "Green River", "state": "UT", "lat": "38.9935", "lng": "-110.1723"}, {"name": "Hyrum", "state": "UT", "lat": "41.6321", "lng": "-111.8428"}, {"name": "Mona", "state": "UT", "lat": "39.8123", "lng": "-111.8500"}, {"name": "Mountain Green", "state": "UT", "lat": "41.1475", "lng": "-111.7901"}, {"name": "South Jordan", "state": "UT", "lat": "40.5571", "lng": "-111.9783"}, {"name": "Escalante", "state": "UT", "lat": "37.7648", "lng": "-111.6000"}, {"name": "Garden City", "state": "UT", "lat": "41.9370", "lng": "-111.4122"}, {"name": "Vernal", "state": "UT", "lat": "40.4517", "lng": "-109.5379"}, {"name": "Fielding", "state": "UT", "lat": "41.8126", "lng": "-112.1174"}, {"name": "Woods Cross", "state": "UT", "lat": "40.8731", "lng": "-111.9170"}, {"name": "Alta", "state": "UT", "lat": "40.5818", "lng": "-111.6229"}, {"name": "Beaver", "state": "UT", "lat": "38.2760", "lng": "-112.6383"}, {"name": "Centerville", "state": "UT", "lat": "40.9284", "lng": "-111.8849"}, {"name": "La Sal", "state": "UT", "lat": "38.3025", "lng": "-109.2645"}, {"name": "Monroe", "state": "UT", "lat": "38.6229", "lng": "-112.1198"}, {"name": "Pleasant Grove", "state": "UT", "lat": "40.3714", "lng": "-111.7411"}, {"name": "Salina", "state": "UT", "lat": "38.9365", "lng": "-111.8666"}, {"name": "Woodland", "state": "UT", "lat": "40.5838", "lng": "-111.2356"}, {"name": "Deseret", "state": "UT", "lat": "39.2876", "lng": "-112.6512"}, {"name": "Manila", "state": "UT", "lat": "40.9922", "lng": "-109.7210"}, {"name": "Sterling", "state": "UT", "lat": "39.1933", "lng": "-111.6902"}, {"name": "Plain City", "state": "UT", "lat": "41.3070", "lng": "-112.0877"}, {"name": "Fremont", "state": "UT", "lat": "38.4555", "lng": "-111.6149"}, {"name": "Monticello", "state": "UT", "lat": "37.8684", "lng": "-109.3384"}, {"name": "Central Valley", "state": "UT", "lat": "38.6992", "lng": "-112.0967"}, {"name": "La Verkin", "state": "UT", "lat": "37.2308", "lng": "-113.2523"}, {"name": "Kamas", "state": "UT", "lat": "40.6499", "lng": "-111.2723"}, {"name": "Wellington", "state": "UT", "lat": "39.5358", "lng": "-110.7345"}, {"name": "Eureka", "state": "UT", "lat": "39.9588", "lng": "-112.1149"}, {"name": "Bicknell", "state": "UT", "lat": "38.3407", "lng": "-111.5441"}, {"name": "Riverdale", "state": "UT", "lat": "41.1734", "lng": "-112.0024"}, {"name": "Dutch John", "state": "UT", "lat": "40.9301", "lng": "-109.4042"}, {"name": "Newton", "state": "UT", "lat": "41.8612", "lng": "-111.9906"}, {"name": "Snowville", "state": "UT", "lat": "41.9728", "lng": "-112.7164"}, {"name": "Moroni", "state": "UT", "lat": "39.5271", "lng": "-111.5832"}, {"name": "Parowan", "state": "UT", "lat": "37.8326", "lng": "-112.8296"}, {"name": "West Valley City", "state": "UT", "lat": "40.6889", "lng": "-112.0115"}, {"name": "Millcreek", "state": "UT", "lat": "40.6892", "lng": "-111.8291"}, {"name": "Altamont", "state": "UT", "lat": "40.3586", "lng": "-110.2887"}, {"name": "Riverside", "state": "UT", "lat": "41.8106", "lng": "-112.1403"}, {"name": "Cornish", "state": "UT", "lat": "41.9717", "lng": "-111.9565"}, {"name": "Minersville", "state": "UT", "lat": "38.2333", "lng": "-112.9604"}, {"name": "Tooele", "state": "UT", "lat": "40.5393", "lng": "-112.3082"}, {"name": "Granite", "state": "UT", "lat": "40.5711", "lng": "-111.7959"}, {"name": "American Fork", "state": "UT", "lat": "40.3793", "lng": "-111.7951"}, {"name": "Myton", "state": "UT", "lat": "40.1933", "lng": "-110.0624"}, {"name": "Cedar Hills", "state": "UT", "lat": "40.4135", "lng": "-111.7530"}, {"name": "Cedar City", "state": "UT", "lat": "37.6834", "lng": "-113.0956"}, {"name": "Duchesne", "state": "UT", "lat": "40.1754", "lng": "-110.3940"}, {"name": "Howell", "state": "UT", "lat": "41.7733", "lng": "-112.4450"}, {"name": "Wallsburg", "state": "UT", "lat": "40.3874", "lng": "-111.4206"}, {"name": "Summit Park", "state": "UT", "lat": "40.7432", "lng": "-111.5814"}, {"name": "Glenwood", "state": "UT", "lat": "38.7625", "lng": "-111.9880"}, {"name": "Cleveland", "state": "UT", "lat": "39.3494", "lng": "-110.8557"}, {"name": "Peter", "state": "UT", "lat": "41.7716", "lng": "-111.9859"}, {"name": "Beryl Junction", "state": "UT", "lat": "37.7009", "lng": "-113.6535"}, {"name": "Fort Duchesne", "state": "UT", "lat": "40.2811", "lng": "-109.8770"}, {"name": "Hurricane", "state": "UT", "lat": "37.1487", "lng": "-113.3517"}, {"name": "Orderville", "state": "UT", "lat": "37.2540", "lng": "-112.6574"}, {"name": "Scofield", "state": "UT", "lat": "39.7198", "lng": "-111.1623"}, {"name": "Marriott-Slaterville", "state": "UT", "lat": "41.2624", "lng": "-112.0366"}, {"name": "Ephraim", "state": "UT", "lat": "39.3564", "lng": "-111.5848"}, {"name": "Circleville", "state": "UT", "lat": "38.1684", "lng": "-112.2716"}, {"name": "Kearns", "state": "UT", "lat": "40.6520", "lng": "-112.0093"}, {"name": "Manti", "state": "UT", "lat": "39.2646", "lng": "-111.6380"}, {"name": "West Wood", "state": "UT", "lat": "39.6051", "lng": "-110.8424"}, {"name": "Francis", "state": "UT", "lat": "40.6105", "lng": "-111.2744"}, {"name": "Orem", "state": "UT", "lat": "40.2983", "lng": "-111.6992"}, {"name": "Thompson Springs", "state": "UT", "lat": "38.9636", "lng": "-109.7037"}, {"name": "Clinton", "state": "UT", "lat": "41.1395", "lng": "-112.0656"}, {"name": "Bountiful", "state": "UT", "lat": "40.8722", "lng": "-111.8647"}, {"name": "Loa", "state": "UT", "lat": "38.4038", "lng": "-111.6451"}, {"name": "Halls Crossing", "state": "UT", "lat": "37.4578", "lng": "-110.6829"}, {"name": "Virgin", "state": "UT", "lat": "37.2082", "lng": "-113.2086"}, {"name": "Snyderville", "state": "UT", "lat": "40.7042", "lng": "-111.5438"}, {"name": "Taylorsville", "state": "UT", "lat": "40.6569", "lng": "-111.9493"}, {"name": "West Mountain", "state": "UT", "lat": "40.0654", "lng": "-111.7868"}, {"name": "Rockville", "state": "UT", "lat": "37.1478", "lng": "-113.0548"}, {"name": "Apple Valley", "state": "UT", "lat": "37.0810", "lng": "-113.1034"}, {"name": "Kanosh", "state": "UT", "lat": "38.8024", "lng": "-112.4378"}, {"name": "Riverton", "state": "UT", "lat": "40.5176", "lng": "-111.9635"}, {"name": "Ophir", "state": "UT", "lat": "40.3718", "lng": "-112.2504"}, {"name": "Nephi", "state": "UT", "lat": "39.7072", "lng": "-111.8323"}, {"name": "Plymouth", "state": "UT", "lat": "41.8734", "lng": "-112.1454"}, {"name": "Richfield", "state": "UT", "lat": "38.7628", "lng": "-112.0926"}, {"name": "Erda", "state": "UT", "lat": "40.6028", "lng": "-112.3214"}, {"name": "Kanarraville", "state": "UT", "lat": "37.5378", "lng": "-113.1810"}, {"name": "Salem", "state": "UT", "lat": "40.0540", "lng": "-111.6721"}, {"name": "Lake Shore", "state": "UT", "lat": "40.1322", "lng": "-111.7483"}, {"name": "Marysvale", "state": "UT", "lat": "38.4384", "lng": "-112.2546"}, {"name": "Echo", "state": "UT", "lat": "40.9803", "lng": "-111.4393"}, {"name": "Clear Creek", "state": "UT", "lat": "39.6429", "lng": "-111.1547"}, {"name": "Wanship", "state": "UT", "lat": "40.8168", "lng": "-111.4151"}, {"name": "Wolf Creek", "state": "UT", "lat": "41.3253", "lng": "-111.8288"}, {"name": "Newcastle", "state": "UT", "lat": "37.6629", "lng": "-113.5643"}, {"name": "Garland", "state": "UT", "lat": "41.7362", "lng": "-112.1627"}, {"name": "South Willard", "state": "UT", "lat": "41.3583", "lng": "-112.0408"}, {"name": "Annabella", "state": "UT", "lat": "38.7059", "lng": "-112.0585"}, {"name": "Cove", "state": "UT", "lat": "41.9683", "lng": "-111.7793"}, {"name": "Maeser", "state": "UT", "lat": "40.4719", "lng": "-109.5786"}, {"name": "Honeyville", "state": "UT", "lat": "41.6361", "lng": "-112.0857"}, {"name": "Ogden", "state": "UT", "lat": "41.2280", "lng": "-111.9677"}, {"name": "Emery", "state": "UT", "lat": "38.9251", "lng": "-111.2523"}, {"name": "Tremonton", "state": "UT", "lat": "41.7188", "lng": "-112.1891"}, {"name": "Emigration Canyon", "state": "UT", "lat": "40.7894", "lng": "-111.7411"}, {"name": "Farr West", "state": "UT", "lat": "41.3015", "lng": "-112.0318"}]