[{"name": "Dale City", "state": "VA", "lat": "38.6473", "lng": "-77.3459"}, {"name": "County Center", "state": "VA", "lat": "38.6917", "lng": "-77.3506"}, {"name": "Lakeside", "state": "VA", "lat": "37.6133", "lng": "-77.4768"}, {"name": "Montvale", "state": "VA", "lat": "37.3866", "lng": "-79.7253"}, {"name": "Sanford", "state": "VA", "lat": "37.9299", "lng": "-75.6620"}, {"name": "Riner", "state": "VA", "lat": "37.0676", "lng": "-80.4405"}, {"name": "Mount Jackson", "state": "VA", "lat": "38.7394", "lng": "-78.6513"}, {"name": "Lee Mont", "state": "VA", "lat": "37.7798", "lng": "-75.6803"}, {"name": "Quinby", "state": "VA", "lat": "37.5532", "lng": "-75.7368"}, {"name": "Round Hill", "state": "VA", "lat": "39.1319", "lng": "-77.7681"}, {"name": "Burke", "state": "VA", "lat": "38.7773", "lng": "-77.2633"}, {"name": "Fairfax", "state": "VA", "lat": "38.8531", "lng": "-77.2997"}, {"name": "Clover", "state": "VA", "lat": "36.8390", "lng": "-78.7284"}, {"name": "Hollymead", "state": "VA", "lat": "38.1266", "lng": "-78.4386"}, {"name": "Galax", "state": "VA", "lat": "36.6660", "lng": "-80.9176"}, {"name": "Franklin Farm", "state": "VA", "lat": "38.9133", "lng": "-77.3969"}, {"name": "Haymarket", "state": "VA", "lat": "38.8121", "lng": "-77.6363"}, {"name": "South Run", "state": "VA", "lat": "38.7466", "lng": "-77.2754"}, {"name": "Loch Lomond", "state": "VA", "lat": "38.7812", "lng": "-77.4817"}, {"name": "Central Garage", "state": "VA", "lat": "37.7458", "lng": "-77.1315"}, {"name": "Westlake Corner", "state": "VA", "lat": "37.1233", "lng": "-79.6971"}, {"name": "Blue Ridge", "state": "VA", "lat": "37.3783", "lng": "-79.8206"}, {"name": "Pound", "state": "VA", "lat": "37.1260", "lng": "-82.6071"}, {"name": "Ebony", "state": "VA", "lat": "36.5759", "lng": "-77.9839"}, {"name": "Cana", "state": "VA", "lat": "36.5815", "lng": "-80.6688"}, {"name": "Allisonia", "state": "VA", "lat": "36.9342", "lng": "-80.7255"}, {"name": "Fieldale", "state": "VA", "lat": "36.7009", "lng": "-79.9424"}, {"name": "Hurt", "state": "VA", "lat": "37.0954", "lng": "-79.3029"}, {"name": "Boyce", "state": "VA", "lat": "39.0933", "lng": "-78.0601"}, {"name": "St. Paul", "state": "VA", "lat": "36.9068", "lng": "-82.3162"}, {"name": "Iron Gate", "state": "VA", "lat": "37.7985", "lng": "-79.7903"}, {"name": "Waverly", "state": "VA", "lat": "37.0340", "lng": "-77.0956"}, {"name": "Temperanceville", "state": "VA", "lat": "37.8990", "lng": "-75.5527"}, {"name": "Rose Hill", "state": "VA", "lat": "38.7872", "lng": "-77.1085"}, {"name": "Scottsburg", "state": "VA", "lat": "36.7588", "lng": "-78.7914"}, {"name": "Cape Charles", "state": "VA", "lat": "37.2570", "lng": "-76.0093"}, {"name": "Damascus", "state": "VA", "lat": "36.6326", "lng": "-81.7891"}, {"name": "Buckhall", "state": "VA", "lat": "38.7250", "lng": "-77.4472"}, {"name": "Enon", "state": "VA", "lat": "37.3273", "lng": "-77.3194"}, {"name": "Richlands", "state": "VA", "lat": "37.0879", "lng": "-81.8080"}, {"name": "Meadowbrook", "state": "VA", "lat": "37.4302", "lng": "-77.4740"}, {"name": "Rushmere", "state": "VA", "lat": "37.0836", "lng": "-76.6747"}, {"name": "Bracey", "state": "VA", "lat": "36.5762", "lng": "-78.1107"}, {"name": "Onley", "state": "VA", "lat": "37.6916", "lng": "-75.7180"}, {"name": "Concord", "state": "VA", "lat": "37.3426", "lng": "-78.9863"}, {"name": "Appomattox", "state": "VA", "lat": "37.3591", "lng": "-78.8269"}, {"name": "Portsmouth", "state": "VA", "lat": "36.8468", "lng": "-76.3540"}, {"name": "Smithfield", "state": "VA", "lat": "36.9754", "lng": "-76.6162"}, {"name": "Claypool Hill", "state": "VA", "lat": "37.0633", "lng": "-81.7506"}, {"name": "Tazewell", "state": "VA", "lat": "37.1268", "lng": "-81.5134"}, {"name": "Kenbridge", "state": "VA", "lat": "36.9608", "lng": "-78.1283"}, {"name": "Thynedale", "state": "VA", "lat": "36.8182", "lng": "-78.4774"}, {"name": "Crimora", "state": "VA", "lat": "38.1618", "lng": "-78.8413"}, {"name": "Madison Heights", "state": "VA", "lat": "37.4487", "lng": "-79.1057"}, {"name": "Dryden", "state": "VA", "lat": "36.7764", "lng": "-82.9433"}, {"name": "Brambleton", "state": "VA", "lat": "38.9802", "lng": "-77.5323"}, {"name": "Catlett", "state": "VA", "lat": "38.6540", "lng": "-77.6370"}, {"name": "Emporia", "state": "VA", "lat": "36.6953", "lng": "-77.5356"}, {"name": "Cascades", "state": "VA", "lat": "39.0464", "lng": "-77.3874"}, {"name": "Stuarts Draft", "state": "VA", "lat": "38.0245", "lng": "-79.0308"}, {"name": "Danville", "state": "VA", "lat": "36.5831", "lng": "-79.4088"}, {"name": "Hayfield", "state": "VA", "lat": "38.7535", "lng": "-77.1322"}, {"name": "Cloverdale", "state": "VA", "lat": "37.3566", "lng": "-79.9054"}, {"name": "Chilhowie", "state": "VA", "lat": "36.8009", "lng": "-81.6832"}, {"name": "Fort Lee", "state": "VA", "lat": "37.2357", "lng": "-77.3325"}, {"name": "Big Stone Gap", "state": "VA", "lat": "36.8626", "lng": "-82.7769"}, {"name": "Belle Haven", "state": "VA", "lat": "37.5557", "lng": "-75.8258"}, {"name": "Boston", "state": "VA", "lat": "37.6039", "lng": "-75.8437"}, {"name": "Onancock", "state": "VA", "lat": "37.7102", "lng": "-75.7433"}, {"name": "Marumsco", "state": "VA", "lat": "38.6373", "lng": "-77.2620"}, {"name": "Lake Wilderness", "state": "VA", "lat": "38.3036", "lng": "-77.7276"}, {"name": "Timberlake", "state": "VA", "lat": "37.3166", "lng": "-79.2482"}, {"name": "Blairs", "state": "VA", "lat": "36.6958", "lng": "-79.3774"}, {"name": "East Highland Park", "state": "VA", "lat": "37.5770", "lng": "-77.3865"}, {"name": "Crosspointe", "state": "VA", "lat": "38.7253", "lng": "-77.2638"}, {"name": "Radford", "state": "VA", "lat": "37.1229", "lng": "-80.5587"}, {"name": "Aquia Harbour", "state": "VA", "lat": "38.4597", "lng": "-77.3806"}, {"name": "Louisa", "state": "VA", "lat": "38.0212", "lng": "-77.9985"}, {"name": "Heathsville", "state": "VA", "lat": "37.9200", "lng": "-76.4785"}, {"name": "Stanardsville", "state": "VA", "lat": "38.2991", "lng": "-78.4367"}, {"name": "Vinton", "state": "VA", "lat": "37.2746", "lng": "-79.8888"}, {"name": "Deerfield", "state": "VA", "lat": "38.1954", "lng": "-79.4105"}, {"name": "Altavista", "state": "VA", "lat": "37.1232", "lng": "-79.2858"}, {"name": "Glen Allen", "state": "VA", "lat": "37.6660", "lng": "-77.4838"}, {"name": "Wytheville", "state": "VA", "lat": "36.9530", "lng": "-81.0881"}, {"name": "Bluefield", "state": "VA", "lat": "37.2351", "lng": "-81.2750"}, {"name": "Chesapeake", "state": "VA", "lat": "36.6778", "lng": "-76.3024"}, {"name": "Wintergreen", "state": "VA", "lat": "37.9161", "lng": "-78.9382"}, {"name": "Boykins", "state": "VA", "lat": "36.5778", "lng": "-77.1989"}, {"name": "Snowville", "state": "VA", "lat": "37.0260", "lng": "-80.5739"}, {"name": "Free Union", "state": "VA", "lat": "38.1539", "lng": "-78.5595"}, {"name": "Sandston", "state": "VA", "lat": "37.5120", "lng": "-77.3149"}, {"name": "Falmouth", "state": "VA", "lat": "38.3320", "lng": "-77.4655"}, {"name": "Horntown", "state": "VA", "lat": "37.9656", "lng": "-75.4559"}, {"name": "Colonial Beach", "state": "VA", "lat": "38.2565", "lng": "-76.9784"}, {"name": "Woodlawn", "state": "VA", "lat": "36.7385", "lng": "-80.8166"}, {"name": "Churchville", "state": "VA", "lat": "38.2247", "lng": "-79.1619"}, {"name": "Whitesville", "state": "VA", "lat": "37.7816", "lng": "-75.6636"}, {"name": "Laurel Park", "state": "VA", "lat": "36.6871", "lng": "-79.7872"}, {"name": "Apple Mountain Lake", "state": "VA", "lat": "38.9231", "lng": "-78.1033"}, {"name": "Boones Mill", "state": "VA", "lat": "37.1156", "lng": "-79.9514"}, {"name": "Belmont Estates", "state": "VA", "lat": "38.4465", "lng": "-78.9228"}, {"name": "Keokee", "state": "VA", "lat": "36.8622", "lng": "-82.9161"}, {"name": "Kings Park", "state": "VA", "lat": "38.8026", "lng": "-77.2396"}, {"name": "Wyndham", "state": "VA", "lat": "37.6924", "lng": "-77.6123"}, {"name": "Fairlawn", "state": "VA", "lat": "37.1476", "lng": "-80.5567"}, {"name": "Warsaw", "state": "VA", "lat": "37.9603", "lng": "-76.7610"}, {"name": "Sussex", "state": "VA", "lat": "36.9173", "lng": "-77.2719"}, {"name": "Timberville", "state": "VA", "lat": "38.6341", "lng": "-78.7730"}, {"name": "Bensley", "state": "VA", "lat": "37.4470", "lng": "-77.4420"}, {"name": "Edinburg", "state": "VA", "lat": "38.8235", "lng": "-78.5634"}, {"name": "Elliston", "state": "VA", "lat": "37.2162", "lng": "-80.2245"}, {"name": "Colonial Heights", "state": "VA", "lat": "37.2650", "lng": "-77.3969"}, {"name": "Toms Brook", "state": "VA", "lat": "38.9465", "lng": "-78.4400"}, {"name": "Riverdale", "state": "VA", "lat": "36.6764", "lng": "-78.8943"}, {"name": "Quantico Base", "state": "VA", "lat": "38.5228", "lng": "-77.3187"}, {"name": "Oak Level", "state": "VA", "lat": "36.7944", "lng": "-79.9392"}, {"name": "Gretna", "state": "VA", "lat": "36.9492", "lng": "-79.3646"}, {"name": "Clarksville", "state": "VA", "lat": "36.6172", "lng": "-78.5639"}, {"name": "Horse Pasture", "state": "VA", "lat": "36.6313", "lng": "-79.9514"}, {"name": "Chincoteague", "state": "VA", "lat": "37.9591", "lng": "-75.3496"}, {"name": "Lake Caroline", "state": "VA", "lat": "37.9856", "lng": "-77.5244"}, {"name": "Hot Springs", "state": "VA", "lat": "38.0013", "lng": "-79.8239"}, {"name": "Cheriton", "state": "VA", "lat": "37.2919", "lng": "-75.9680"}, {"name": "Eastville", "state": "VA", "lat": "37.3511", "lng": "-75.9402"}, {"name": "Marshall", "state": "VA", "lat": "38.8661", "lng": "-77.8453"}, {"name": "Moorefield Station", "state": "VA", "lat": "38.9981", "lng": "-77.4971"}, {"name": "Chase Crossing", "state": "VA", "lat": "37.7604", "lng": "-75.6658"}, {"name": "Dulles Town Center", "state": "VA", "lat": "39.0265", "lng": "-77.4196"}, {"name": "New Castle", "state": "VA", "lat": "37.5013", "lng": "-80.1119"}, {"name": "Yorktown", "state": "VA", "lat": "37.2352", "lng": "-76.5146"}, {"name": "Dante", "state": "VA", "lat": "36.9792", "lng": "-82.2960"}, {"name": "Port Royal", "state": "VA", "lat": "38.1657", "lng": "-77.1989"}, {"name": "Basye", "state": "VA", "lat": "38.8181", "lng": "-78.7659"}, {"name": "Glade Spring", "state": "VA", "lat": "36.7899", "lng": "-81.7726"}, {"name": "St. Charles", "state": "VA", "lat": "36.8052", "lng": "-83.0575"}, {"name": "Urbanna", "state": "VA", "lat": "37.6395", "lng": "-76.5747"}, {"name": "Seven Corners", "state": "VA", "lat": "38.8658", "lng": "-77.1445"}, {"name": "Riverview", "state": "VA", "lat": "36.9326", "lng": "-82.4846"}, {"name": "George Mason", "state": "VA", "lat": "38.8356", "lng": "-77.3186"}, {"name": "Culpeper", "state": "VA", "lat": "38.4705", "lng": "-78.0001"}, {"name": "Troutdale", "state": "VA", "lat": "36.7022", "lng": "-81.4413"}, {"name": "Stephens City", "state": "VA", "lat": "39.0902", "lng": "-78.2230"}, {"name": "Drakes Branch", "state": "VA", "lat": "36.9933", "lng": "-78.6009"}, {"name": "Jonesville", "state": "VA", "lat": "36.6870", "lng": "-83.1153"}, {"name": "Wolf Trap", "state": "VA", "lat": "38.9395", "lng": "-77.2842"}, {"name": "Marion", "state": "VA", "lat": "36.8389", "lng": "-81.5135"}, {"name": "Long Branch", "state": "VA", "lat": "38.8302", "lng": "-77.2713"}, {"name": "Mount Sidney", "state": "VA", "lat": "38.2586", "lng": "-78.9654"}, {"name": "Harrisonburg", "state": "VA", "lat": "38.4362", "lng": "-78.8735"}, {"name": "Floris", "state": "VA", "lat": "38.9347", "lng": "-77.4083"}, {"name": "New Market", "state": "VA", "lat": "38.6459", "lng": "-78.6709"}, {"name": "Wakefield", "state": "VA", "lat": "36.9686", "lng": "-76.9875"}, {"name": "Ivanhoe", "state": "VA", "lat": "36.8428", "lng": "-80.9683"}, {"name": "North Springfield", "state": "VA", "lat": "38.8024", "lng": "-77.2028"}, {"name": "Manchester", "state": "VA", "lat": "37.4902", "lng": "-77.5396"}, {"name": "Lowes Island", "state": "VA", "lat": "39.0470", "lng": "-77.3524"}, {"name": "Laymantown", "state": "VA", "lat": "37.3628", "lng": "-79.8525"}, {"name": "Sperryville", "state": "VA", "lat": "38.6562", "lng": "-78.2322"}, {"name": "Gate City", "state": "VA", "lat": "36.6401", "lng": "-82.5782"}, {"name": "Waynesboro", "state": "VA", "lat": "38.0674", "lng": "-78.9014"}, {"name": "Montclair", "state": "VA", "lat": "38.6111", "lng": "-77.3400"}, {"name": "Dublin", "state": "VA", "lat": "37.0987", "lng": "-80.6831"}, {"name": "Camptown", "state": "VA", "lat": "36.6833", "lng": "-76.8964"}, {"name": "Tasley", "state": "VA", "lat": "37.7125", "lng": "-75.6971"}, {"name": "Cats Bridge", "state": "VA", "lat": "37.5491", "lng": "-75.7797"}, {"name": "Jarratt", "state": "VA", "lat": "36.8160", "lng": "-77.4689"}, {"name": "Franklin", "state": "VA", "lat": "36.6831", "lng": "-76.9386"}, {"name": "Hillsboro", "state": "VA", "lat": "39.1987", "lng": "-77.7239"}, {"name": "Merrimac", "state": "VA", "lat": "37.1903", "lng": "-80.4244"}, {"name": "Bloxom", "state": "VA", "lat": "37.8293", "lng": "-75.6214"}, {"name": "New Baltimore", "state": "VA", "lat": "38.7495", "lng": "-77.7151"}, {"name": "Farmville", "state": "VA", "lat": "37.2959", "lng": "-78.4002"}, {"name": "Sugar Grove", "state": "VA", "lat": "36.7689", "lng": "-81.4075"}, {"name": "McLean", "state": "VA", "lat": "38.9436", "lng": "-77.1943"}, {"name": "Springfield", "state": "VA", "lat": "38.7809", "lng": "-77.1839"}, {"name": "Warm Springs", "state": "VA", "lat": "38.0463", "lng": "-79.7826"}, {"name": "Leesburg", "state": "VA", "lat": "39.1058", "lng": "-77.5544"}, {"name": "Woodburn", "state": "VA", "lat": "38.8503", "lng": "-77.2322"}, {"name": "Lyndhurst", "state": "VA", "lat": "38.0221", "lng": "-78.9516"}, {"name": "Carrollton", "state": "VA", "lat": "36.9394", "lng": "-76.5264"}, {"name": "Fairview Beach", "state": "VA", "lat": "38.3282", "lng": "-77.2423"}, {"name": "Sudley", "state": "VA", "lat": "38.7878", "lng": "-77.4961"}, {"name": "Virgilina", "state": "VA", "lat": "36.5463", "lng": "-78.7755"}, {"name": "Newport News", "state": "VA", "lat": "37.1051", "lng": "-76.5185"}, {"name": "Yorkshire", "state": "VA", "lat": "38.7882", "lng": "-77.4495"}, {"name": "Kings Park West", "state": "VA", "lat": "38.8151", "lng": "-77.2960"}, {"name": "Surry", "state": "VA", "lat": "37.1371", "lng": "-76.8333"}, {"name": "Hamilton", "state": "VA", "lat": "39.1349", "lng": "-77.6642"}, {"name": "Nelsonia", "state": "VA", "lat": "37.8224", "lng": "-75.5895"}, {"name": "Lorton", "state": "VA", "lat": "38.6984", "lng": "-77.2163"}, {"name": "Pantops", "state": "VA", "lat": "38.0308", "lng": "-78.4444"}, {"name": "Clifton Forge", "state": "VA", "lat": "37.8232", "lng": "-79.8250"}, {"name": "Sherando", "state": "VA", "lat": "37.9889", "lng": "-78.9442"}, {"name": "Crewe", "state": "VA", "lat": "37.1812", "lng": "-78.1307"}, {"name": "Lake Ridge", "state": "VA", "lat": "38.6843", "lng": "-77.3059"}, {"name": "New Church", "state": "VA", "lat": "37.9826", "lng": "-75.5292"}, {"name": "Daleville", "state": "VA", "lat": "37.4150", "lng": "-79.9132"}, {"name": "Bealeton", "state": "VA", "lat": "38.5822", "lng": "-77.7781"}, {"name": "Arcola", "state": "VA", "lat": "38.9447", "lng": "-77.5306"}, {"name": "Phenix", "state": "VA", "lat": "37.0811", "lng": "-78.7485"}, {"name": "Lake Barcroft", "state": "VA", "lat": "38.8514", "lng": "-77.1579"}, {"name": "Callaghan", "state": "VA", "lat": "37.8112", "lng": "-80.0871"}, {"name": "Shenandoah Retreat", "state": "VA", "lat": "39.1373", "lng": "-77.8637"}, {"name": "Manassas", "state": "VA", "lat": "38.7479", "lng": "-77.4838"}, {"name": "Vienna", "state": "VA", "lat": "38.8996", "lng": "-77.2597"}, {"name": "Amherst", "state": "VA", "lat": "37.5816", "lng": "-79.0509"}, {"name": "Falls Church", "state": "VA", "lat": "38.8847", "lng": "-77.1751"}, {"name": "Nokesville", "state": "VA", "lat": "38.6940", "lng": "-77.5757"}, {"name": "Linton Hall", "state": "VA", "lat": "38.7551", "lng": "-77.5750"}, {"name": "Mount Crawford", "state": "VA", "lat": "38.3600", "lng": "-78.9413"}, {"name": "Middletown", "state": "VA", "lat": "39.0288", "lng": "-78.2780"}, {"name": "Jolivue", "state": "VA", "lat": "38.1149", "lng": "-79.0668"}, {"name": "Verona", "state": "VA", "lat": "38.1939", "lng": "-79.0087"}, {"name": "Woodstock", "state": "VA", "lat": "38.8750", "lng": "-78.5160"}, {"name": "Atlantic", "state": "VA", "lat": "37.9023", "lng": "-75.5058"}, {"name": "Tangier", "state": "VA", "lat": "37.8235", "lng": "-75.9934"}, {"name": "Palmyra", "state": "VA", "lat": "37.8652", "lng": "-78.2627"}, {"name": "Prince George", "state": "VA", "lat": "37.2209", "lng": "-77.2683"}, {"name": "Narrows", "state": "VA", "lat": "37.3315", "lng": "-80.8083"}, {"name": "Greenbriar", "state": "VA", "lat": "38.8717", "lng": "-77.3970"}, {"name": "Fairview", "state": "VA", "lat": "36.8292", "lng": "-78.4653"}, {"name": "Idylwood", "state": "VA", "lat": "38.8896", "lng": "-77.2055"}, {"name": "Ettrick", "state": "VA", "lat": "37.2435", "lng": "-77.4287"}, {"name": "Potomac Mills", "state": "VA", "lat": "38.6547", "lng": "-77.3012"}, {"name": "Hampden-Sydney", "state": "VA", "lat": "37.2415", "lng": "-78.4693"}, {"name": "Cherry Hill", "state": "VA", "lat": "38.5696", "lng": "-77.2895"}, {"name": "Nickelsville", "state": "VA", "lat": "36.7517", "lng": "-82.4160"}, {"name": "Shenandoah Shores", "state": "VA", "lat": "38.9621", "lng": "-78.1414"}, {"name": "Patrick Springs", "state": "VA", "lat": "36.6344", "lng": "-80.1985"}, {"name": "Parksley", "state": "VA", "lat": "37.7863", "lng": "-75.6539"}, {"name": "Stanley", "state": "VA", "lat": "38.5769", "lng": "-78.5027"}, {"name": "Madison", "state": "VA", "lat": "38.3792", "lng": "-78.2586"}, {"name": "Herndon", "state": "VA", "lat": "38.9699", "lng": "-77.3867"}, {"name": "Rich Creek", "state": "VA", "lat": "37.3832", "lng": "-80.8204"}, {"name": "Saltville", "state": "VA", "lat": "36.8751", "lng": "-81.7642"}, {"name": "Oak Hall", "state": "VA", "lat": "37.9308", "lng": "-75.5469"}, {"name": "Buena Vista", "state": "VA", "lat": "37.7319", "lng": "-79.3569"}, {"name": "Gwynn", "state": "VA", "lat": "37.4984", "lng": "-76.2883"}, {"name": "Bethel Manor", "state": "VA", "lat": "37.0973", "lng": "-76.4244"}, {"name": "Dumfries", "state": "VA", "lat": "38.5670", "lng": "-77.3233"}, {"name": "Haysi", "state": "VA", "lat": "37.2151", "lng": "-82.2931"}, {"name": "Piney Mountain", "state": "VA", "lat": "38.1591", "lng": "-78.4156"}, {"name": "Hillsville", "state": "VA", "lat": "36.7613", "lng": "-80.7372"}, {"name": "Gasburg", "state": "VA", "lat": "36.5588", "lng": "-77.8721"}, {"name": "Broadlands", "state": "VA", "lat": "39.0168", "lng": "-77.5167"}, {"name": "Washington", "state": "VA", "lat": "38.7122", "lng": "-78.1598"}, {"name": "Front Royal", "state": "VA", "lat": "38.9260", "lng": "-78.1838"}, {"name": "Shawneeland", "state": "VA", "lat": "39.1976", "lng": "-78.3464"}, {"name": "Ivy", "state": "VA", "lat": "38.0611", "lng": "-78.5987"}, {"name": "Buckingham Courthouse", "state": "VA", "lat": "37.5541", "lng": "-78.5514"}, {"name": "Maurertown", "state": "VA", "lat": "38.9325", "lng": "-78.4615"}, {"name": "Berryville", "state": "VA", "lat": "39.1504", "lng": "-77.9824"}, {"name": "Atkins", "state": "VA", "lat": "36.8674", "lng": "-81.3992"}, {"name": "Short Pump", "state": "VA", "lat": "37.6549", "lng": "-77.6201"}, {"name": "Blue Ridge Shores", "state": "VA", "lat": "38.1091", "lng": "-78.0234"}, {"name": "Tuckahoe", "state": "VA", "lat": "37.5878", "lng": "-77.5858"}, {"name": "Quantico", "state": "VA", "lat": "38.5224", "lng": "-77.2902"}, {"name": "Lafayette", "state": "VA", "lat": "37.2330", "lng": "-80.2050"}, {"name": "Crozet", "state": "VA", "lat": "38.0645", "lng": "-78.6962"}, {"name": "Lebanon", "state": "VA", "lat": "36.8993", "lng": "-82.0775"}, {"name": "Skyland Estates", "state": "VA", "lat": "38.9329", "lng": "-78.0850"}, {"name": "Sandy Level", "state": "VA", "lat": "36.5645", "lng": "-79.7276"}, {"name": "Boydton", "state": "VA", "lat": "36.6660", "lng": "-78.3908"}, {"name": "Saluda", "state": "VA", "lat": "37.6053", "lng": "-76.5938"}, {"name": "Union Hall", "state": "VA", "lat": "37.0205", "lng": "-79.6833"}, {"name": "Union Level", "state": "VA", "lat": "36.7071", "lng": "-78.2319"}, {"name": "Nassawadox", "state": "VA", "lat": "37.4763", "lng": "-75.8591"}, {"name": "Sugarland Run", "state": "VA", "lat": "39.0309", "lng": "-77.3762"}, {"name": "Loudoun Valley Estates", "state": "VA", "lat": "38.9801", "lng": "-77.5082"}, {"name": "Woodbridge", "state": "VA", "lat": "38.6569", "lng": "-77.2403"}, {"name": "Hanover", "state": "VA", "lat": "37.7668", "lng": "-77.3706"}, {"name": "Ewing", "state": "VA", "lat": "36.6381", "lng": "-83.4291"}, {"name": "Ruckersville", "state": "VA", "lat": "38.2314", "lng": "-78.3756"}, {"name": "Honaker", "state": "VA", "lat": "37.0156", "lng": "-81.9685"}, {"name": "Abingdon", "state": "VA", "lat": "36.7089", "lng": "-81.9713"}, {"name": "Collinsville", "state": "VA", "lat": "36.7215", "lng": "-79.9122"}, {"name": "Salem", "state": "VA", "lat": "37.2864", "lng": "-80.0555"}, {"name": "Middleburg", "state": "VA", "lat": "38.9715", "lng": "-77.7428"}, {"name": "Burke Centre", "state": "VA", "lat": "38.7903", "lng": "-77.2998"}, {"name": "Merrifield", "state": "VA", "lat": "38.8731", "lng": "-77.2426"}, {"name": "Fishersville", "state": "VA", "lat": "38.1004", "lng": "-78.9686"}, {"name": "Benns Church", "state": "VA", "lat": "36.9370", "lng": "-76.5842"}, {"name": "Gordonsville", "state": "VA", "lat": "38.1360", "lng": "-78.1879"}, {"name": "Bassett", "state": "VA", "lat": "36.7615", "lng": "-79.9866"}, {"name": "Occoquan", "state": "VA", "lat": "38.6825", "lng": "-77.2606"}, {"name": "Goochland", "state": "VA", "lat": "37.6973", "lng": "-77.8944"}, {"name": "Alberta", "state": "VA", "lat": "36.8552", "lng": "-77.8937"}, {"name": "Southside Chesconessex", "state": "VA", "lat": "37.7439", "lng": "-75.7786"}, {"name": "Hollins", "state": "VA", "lat": "37.3434", "lng": "-79.9535"}, {"name": "Dillwyn", "state": "VA", "lat": "37.5411", "lng": "-78.4613"}, {"name": "Norfolk", "state": "VA", "lat": "36.8945", "lng": "-76.2590"}, {"name": "Metompkin", "state": "VA", "lat": "37.7671", "lng": "-75.6054"}, {"name": "Warrenton", "state": "VA", "lat": "38.7176", "lng": "-77.7975"}, {"name": "Purcellville", "state": "VA", "lat": "39.1378", "lng": "-77.7110"}, {"name": "Greenville", "state": "VA", "lat": "38.0036", "lng": "-79.1522"}, {"name": "Lovingston", "state": "VA", "lat": "37.7605", "lng": "-78.8689"}, {"name": "Glenvar", "state": "VA", "lat": "37.2760", "lng": "-80.1256"}, {"name": "Roanoke", "state": "VA", "lat": "37.2785", "lng": "-79.9580"}, {"name": "Chase City", "state": "VA", "lat": "36.7998", "lng": "-78.4610"}, {"name": "Alexandria", "state": "VA", "lat": "38.8185", "lng": "-77.0861"}, {"name": "Courtland", "state": "VA", "lat": "36.7123", "lng": "-77.0620"}, {"name": "Grundy", "state": "VA", "lat": "37.2754", "lng": "-82.0988"}, {"name": "Irvington", "state": "VA", "lat": "37.6621", "lng": "-76.4205"}, {"name": "Deltaville", "state": "VA", "lat": "37.5525", "lng": "-76.3331"}, {"name": "Villa Heights", "state": "VA", "lat": "36.6981", "lng": "-79.8994"}, {"name": "Weber City", "state": "VA", "lat": "36.6236", "lng": "-82.5631"}, {"name": "Floyd", "state": "VA", "lat": "36.9118", "lng": "-80.3184"}, {"name": "Bedford", "state": "VA", "lat": "37.3360", "lng": "-79.5179"}, {"name": "Scottsville", "state": "VA", "lat": "37.8063", "lng": "-78.4919"}, {"name": "Max Meadows", "state": "VA", "lat": "36.9798", "lng": "-80.9678"}, {"name": "Staunton", "state": "VA", "lat": "38.1593", "lng": "-79.0611"}, {"name": "Yogaville", "state": "VA", "lat": "37.6654", "lng": "-78.6946"}, {"name": "Countryside", "state": "VA", "lat": "39.0518", "lng": "-77.4124"}, {"name": "Melfa", "state": "VA", "lat": "37.6489", "lng": "-75.7407"}, {"name": "Harriston", "state": "VA", "lat": "38.2120", "lng": "-78.8283"}, {"name": "Gratton", "state": "VA", "lat": "37.1351", "lng": "-81.4212"}, {"name": "Lake Monticello", "state": "VA", "lat": "37.9210", "lng": "-78.3295"}, {"name": "Broadway", "state": "VA", "lat": "38.6082", "lng": "-78.8017"}, {"name": "Dahlgren", "state": "VA", "lat": "38.3444", "lng": "-77.0624"}, {"name": "Powhatan", "state": "VA", "lat": "37.5427", "lng": "-77.9267"}, {"name": "Pastoria", "state": "VA", "lat": "37.7446", "lng": "-75.6352"}, {"name": "Charlottesville", "state": "VA", "lat": "38.0375", "lng": "-78.4855"}, {"name": "Grottoes", "state": "VA", "lat": "38.2692", "lng": "-78.8252"}, {"name": "Motley", "state": "VA", "lat": "37.0656", "lng": "-79.3474"}, {"name": "Charles City", "state": "VA", "lat": "37.3441", "lng": "-77.0687"}, {"name": "Adwolf", "state": "VA", "lat": "36.7929", "lng": "-81.5927"}, {"name": "Bowling Green", "state": "VA", "lat": "38.0535", "lng": "-77.3473"}, {"name": "Fairfax Station", "state": "VA", "lat": "38.7942", "lng": "-77.3358"}, {"name": "Lovettsville", "state": "VA", "lat": "39.2736", "lng": "-77.6398"}, {"name": "Stone Ridge", "state": "VA", "lat": "38.9295", "lng": "-77.5553"}, {"name": "Flint Hill", "state": "VA", "lat": "38.7666", "lng": "-78.1028"}, {"name": "Windsor", "state": "VA", "lat": "36.8095", "lng": "-76.7406"}, {"name": "Newington", "state": "VA", "lat": "38.7358", "lng": "-77.1993"}, {"name": "Bland", "state": "VA", "lat": "37.1000", "lng": "-81.1161"}, {"name": "Poquoson", "state": "VA", "lat": "37.1318", "lng": "-76.3569"}, {"name": "Arlington", "state": "VA", "lat": "38.8786", "lng": "-77.1011"}, {"name": "Wattsville", "state": "VA", "lat": "37.9304", "lng": "-75.4953"}, {"name": "West Springfield", "state": "VA", "lat": "38.7771", "lng": "-77.2268"}, {"name": "Draper", "state": "VA", "lat": "37.0012", "lng": "-80.7373"}, {"name": "Kingstowne", "state": "VA", "lat": "38.7625", "lng": "-77.1445"}, {"name": "Bobtown", "state": "VA", "lat": "37.6493", "lng": "-75.7998"}, {"name": "Nathalie", "state": "VA", "lat": "36.9381", "lng": "-78.9421"}, {"name": "Newsoms", "state": "VA", "lat": "36.6262", "lng": "-77.1248"}, {"name": "Mount Hermon", "state": "VA", "lat": "36.6716", "lng": "-79.4196"}, {"name": "Scotland", "state": "VA", "lat": "37.1811", "lng": "-76.7966"}, {"name": "Dayton", "state": "VA", "lat": "38.4172", "lng": "-78.9412"}, {"name": "Neabsco", "state": "VA", "lat": "38.6083", "lng": "-77.2847"}, {"name": "Deep Creek", "state": "VA", "lat": "37.7630", "lng": "-75.7549"}, {"name": "Carrsville", "state": "VA", "lat": "36.7088", "lng": "-76.8371"}, {"name": "Fort Belvoir", "state": "VA", "lat": "38.7119", "lng": "-77.1459"}, {"name": "McKenney", "state": "VA", "lat": "36.9853", "lng": "-77.7219"}, {"name": "Stony Creek", "state": "VA", "lat": "36.9480", "lng": "-77.4000"}, {"name": "Rockwood", "state": "VA", "lat": "37.4630", "lng": "-77.5744"}, {"name": "Coeburn", "state": "VA", "lat": "36.9445", "lng": "-82.4696"}, {"name": "Nottoway Court House", "state": "VA", "lat": "37.1272", "lng": "-78.0734"}, {"name": "Middlebrook", "state": "VA", "lat": "38.0552", "lng": "-79.2182"}, {"name": "Newington Forest", "state": "VA", "lat": "38.7371", "lng": "-77.2339"}, {"name": "Amelia Court House", "state": "VA", "lat": "37.3366", "lng": "-77.9882"}, {"name": "Matoaca", "state": "VA", "lat": "37.2313", "lng": "-77.4679"}, {"name": "West Point", "state": "VA", "lat": "37.5519", "lng": "-76.8017"}, {"name": "Annandale", "state": "VA", "lat": "38.8324", "lng": "-77.1960"}, {"name": "Mappsburg", "state": "VA", "lat": "37.5760", "lng": "-75.7592"}, {"name": "Bridgewater", "state": "VA", "lat": "38.3863", "lng": "-78.9675"}, {"name": "Brandermill", "state": "VA", "lat": "37.4340", "lng": "-77.6522"}, {"name": "New River", "state": "VA", "lat": "37.1410", "lng": "-80.5930"}, {"name": "Arrington", "state": "VA", "lat": "37.6744", "lng": "-78.8928"}, {"name": "Esmont", "state": "VA", "lat": "37.8284", "lng": "-78.5959"}, {"name": "Laurel", "state": "VA", "lat": "37.6375", "lng": "-77.5062"}, {"name": "Clinchco", "state": "VA", "lat": "37.1588", "lng": "-82.3562"}, {"name": "Henry Fork", "state": "VA", "lat": "36.9679", "lng": "-79.8710"}, {"name": "Sterling", "state": "VA", "lat": "39.0052", "lng": "-77.4050"}, {"name": "Harborton", "state": "VA", "lat": "37.6596", "lng": "-75.8332"}, {"name": "Cluster Springs", "state": "VA", "lat": "36.6128", "lng": "-78.9221"}, {"name": "Bellwood", "state": "VA", "lat": "37.4060", "lng": "-77.4363"}, {"name": "Warfield", "state": "VA", "lat": "36.8976", "lng": "-77.8193"}, {"name": "Hallwood", "state": "VA", "lat": "37.8774", "lng": "-75.5898"}, {"name": "Chester", "state": "VA", "lat": "37.3531", "lng": "-77.4342"}, {"name": "West Falls Church", "state": "VA", "lat": "38.8648", "lng": "-77.1878"}, {"name": "Laurel Hill", "state": "VA", "lat": "38.7026", "lng": "-77.2422"}, {"name": "Dungannon", "state": "VA", "lat": "36.8285", "lng": "-82.4681"}, {"name": "Templeton", "state": "VA", "lat": "37.0811", "lng": "-77.3563"}, {"name": "Belmont", "state": "VA", "lat": "39.0650", "lng": "-77.4965"}, {"name": "Keysville", "state": "VA", "lat": "37.0390", "lng": "-78.4804"}, {"name": "Clinchport", "state": "VA", "lat": "36.6781", "lng": "-82.7451"}, {"name": "Brodnax", "state": "VA", "lat": "36.7033", "lng": "-78.0318"}, {"name": "Savage Town", "state": "VA", "lat": "37.5500", "lng": "-75.7983"}, {"name": "White Stone", "state": "VA", "lat": "37.6440", "lng": "-76.3897"}, {"name": "Hybla Valley", "state": "VA", "lat": "38.7485", "lng": "-77.0822"}, {"name": "Selma", "state": "VA", "lat": "37.8033", "lng": "-79.8499"}, {"name": "Meadow View", "state": "VA", "lat": "36.7638", "lng": "-81.8729"}, {"name": "Gloucester Point", "state": "VA", "lat": "37.2766", "lng": "-76.5043"}, {"name": "Buchanan", "state": "VA", "lat": "37.5211", "lng": "-79.6894"}, {"name": "Lunenburg", "state": "VA", "lat": "36.9584", "lng": "-78.2682"}, {"name": "Suffolk", "state": "VA", "lat": "36.6953", "lng": "-76.6398"}, {"name": "Strasburg", "state": "VA", "lat": "38.9961", "lng": "-78.3549"}, {"name": "Shenandoah Farms", "state": "VA", "lat": "38.9792", "lng": "-78.0469"}, {"name": "Pimmit Hills", "state": "VA", "lat": "38.9105", "lng": "-77.1991"}, {"name": "Modest Town", "state": "VA", "lat": "37.8169", "lng": "-75.5611"}, {"name": "King George", "state": "VA", "lat": "38.2807", "lng": "-77.1896"}, {"name": "La Crosse", "state": "VA", "lat": "36.7014", "lng": "-78.0939"}, {"name": "Gloucester Courthouse", "state": "VA", "lat": "37.4053", "lng": "-76.5260"}, {"name": "Bailey's Crossroads", "state": "VA", "lat": "38.8477", "lng": "-77.1305"}, {"name": "Appalachia", "state": "VA", "lat": "36.9098", "lng": "-82.7882"}, {"name": "Highland Springs", "state": "VA", "lat": "37.5516", "lng": "-77.3285"}, {"name": "Chantilly", "state": "VA", "lat": "38.8868", "lng": "-77.4453"}, {"name": "Victoria", "state": "VA", "lat": "36.9947", "lng": "-78.2242"}, {"name": "Franconia", "state": "VA", "lat": "38.7682", "lng": "-77.1587"}, {"name": "Stuart", "state": "VA", "lat": "36.6404", "lng": "-80.2687"}, {"name": "Fredericksburg", "state": "VA", "lat": "38.2992", "lng": "-77.4872"}, {"name": "Pungoteague", "state": "VA", "lat": "37.6291", "lng": "-75.8172"}, {"name": "Mineral", "state": "VA", "lat": "38.0068", "lng": "-77.9061"}, {"name": "Oakton", "state": "VA", "lat": "38.8887", "lng": "-77.3016"}, {"name": "Fries", "state": "VA", "lat": "36.7139", "lng": "-80.9750"}, {"name": "University Center", "state": "VA", "lat": "39.0601", "lng": "-77.4445"}, {"name": "Calverton", "state": "VA", "lat": "38.6355", "lng": "-77.6661"}, {"name": "Lake Land'Or", "state": "VA", "lat": "38.0170", "lng": "-77.5593"}, {"name": "Mappsville", "state": "VA", "lat": "37.8433", "lng": "-75.5689"}, {"name": "Fair Oaks", "state": "VA", "lat": "38.8653", "lng": "-77.3586"}, {"name": "Gainesville", "state": "VA", "lat": "38.7931", "lng": "-77.6347"}, {"name": "Lake of the Woods", "state": "VA", "lat": "38.3343", "lng": "-77.7599"}, {"name": "Augusta Springs", "state": "VA", "lat": "38.1079", "lng": "-79.3352"}, {"name": "Savageville", "state": "VA", "lat": "37.6826", "lng": "-75.7591"}, {"name": "Shenandoah", "state": "VA", "lat": "38.4875", "lng": "-78.6172"}, {"name": "Monterey", "state": "VA", "lat": "38.4116", "lng": "-79.5809"}, {"name": "Fancy Gap", "state": "VA", "lat": "36.6771", "lng": "-80.6997"}, {"name": "Chatmoss", "state": "VA", "lat": "36.6758", "lng": "-79.7981"}, {"name": "Independence", "state": "VA", "lat": "36.6254", "lng": "-81.1511"}, {"name": "Greenbush", "state": "VA", "lat": "37.7398", "lng": "-75.6796"}, {"name": "Duffield", "state": "VA", "lat": "36.7197", "lng": "-82.7960"}, {"name": "Hampton", "state": "VA", "lat": "37.0551", "lng": "-76.3629"}, {"name": "Sedley", "state": "VA", "lat": "36.7753", "lng": "-76.9862"}, {"name": "University of Virginia", "state": "VA", "lat": "38.0405", "lng": "-78.5163"}, {"name": "McMullin", "state": "VA", "lat": "36.8179", "lng": "-81.5775"}, {"name": "South Boston", "state": "VA", "lat": "36.7132", "lng": "-78.9135"}, {"name": "Reston", "state": "VA", "lat": "38.9497", "lng": "-77.3461"}, {"name": "Southern Gateway", "state": "VA", "lat": "38.3489", "lng": "-77.5036"}, {"name": "Oak Grove", "state": "VA", "lat": "38.9845", "lng": "-77.4174"}, {"name": "Shawsville", "state": "VA", "lat": "37.1707", "lng": "-80.2527"}, {"name": "Pearisburg", "state": "VA", "lat": "37.3289", "lng": "-80.7275"}, {"name": "Charlotte Court House", "state": "VA", "lat": "37.0563", "lng": "-78.6377"}, {"name": "Lincolnia", "state": "VA", "lat": "38.8158", "lng": "-77.1543"}, {"name": "Tappahannock", "state": "VA", "lat": "37.9187", "lng": "-76.8667"}, {"name": "Richmond", "state": "VA", "lat": "37.5295", "lng": "-77.4756"}, {"name": "Twin Lakes", "state": "VA", "lat": "38.2505", "lng": "-78.4417"}, {"name": "Spotsylvania Courthouse", "state": "VA", "lat": "38.1982", "lng": "-77.5885"}, {"name": "Cumberland", "state": "VA", "lat": "37.4914", "lng": "-78.2577"}, {"name": "Pennington Gap", "state": "VA", "lat": "36.7594", "lng": "-83.0300"}, {"name": "Martinsville", "state": "VA", "lat": "36.6827", "lng": "-79.8636"}, {"name": "Rustburg", "state": "VA", "lat": "37.2712", "lng": "-79.0962"}, {"name": "Ashland", "state": "VA", "lat": "37.7597", "lng": "-77.4716"}, {"name": "Massanetta Springs", "state": "VA", "lat": "38.3899", "lng": "-78.8340"}, {"name": "Gargatha", "state": "VA", "lat": "37.7905", "lng": "-75.5819"}, {"name": "Luray", "state": "VA", "lat": "38.6650", "lng": "-78.4547"}, {"name": "Covington", "state": "VA", "lat": "37.7785", "lng": "-79.9868"}, {"name": "South Riding", "state": "VA", "lat": "38.9120", "lng": "-77.5132"}, {"name": "Pocahontas", "state": "VA", "lat": "37.3072", "lng": "-81.3438"}, {"name": "Pamplin City", "state": "VA", "lat": "37.2642", "lng": "-78.6820"}, {"name": "Weyers Cave", "state": "VA", "lat": "38.2844", "lng": "-78.9125"}, {"name": "Woodlake", "state": "VA", "lat": "37.4216", "lng": "-77.6783"}, {"name": "Brookneal", "state": "VA", "lat": "37.0532", "lng": "-78.9485"}, {"name": "Blacksburg", "state": "VA", "lat": "37.2300", "lng": "-80.4279"}, {"name": "Mason Neck", "state": "VA", "lat": "38.6556", "lng": "-77.1819"}, {"name": "Bull Run", "state": "VA", "lat": "38.7802", "lng": "-77.5204"}, {"name": "Triangle", "state": "VA", "lat": "38.5483", "lng": "-77.3195"}, {"name": "Williamsburg", "state": "VA", "lat": "37.2692", "lng": "-76.7076"}, {"name": "Forest", "state": "VA", "lat": "37.3728", "lng": "-79.2832"}, {"name": "Capron", "state": "VA", "lat": "36.7092", "lng": "-77.2013"}, {"name": "Mount Vernon", "state": "VA", "lat": "38.7140", "lng": "-77.1043"}, {"name": "Burkeville", "state": "VA", "lat": "37.1879", "lng": "-78.2012"}, {"name": "Petersburg", "state": "VA", "lat": "37.2043", "lng": "-77.3913"}, {"name": "Rural Retreat", "state": "VA", "lat": "36.9010", "lng": "-81.2765"}, {"name": "Dendron", "state": "VA", "lat": "37.0364", "lng": "-76.9240"}, {"name": "Dunn Loring", "state": "VA", "lat": "38.8945", "lng": "-77.2315"}, {"name": "Goshen", "state": "VA", "lat": "37.9901", "lng": "-79.5067"}, {"name": "Dooms", "state": "VA", "lat": "38.1027", "lng": "-78.8495"}, {"name": "Cedar Bluff", "state": "VA", "lat": "37.0876", "lng": "-81.7632"}, {"name": "Shipman", "state": "VA", "lat": "37.7272", "lng": "-78.8423"}, {"name": "Cave Spring", "state": "VA", "lat": "37.2254", "lng": "-80.0073"}, {"name": "Fincastle", "state": "VA", "lat": "37.4994", "lng": "-79.8757"}, {"name": "Orange", "state": "VA", "lat": "38.2486", "lng": "-78.1127"}, {"name": "Bon Air", "state": "VA", "lat": "37.5187", "lng": "-77.5713"}, {"name": "Belview", "state": "VA", "lat": "37.1687", "lng": "-80.5110"}, {"name": "Passapatanzy", "state": "VA", "lat": "38.2941", "lng": "-77.3267"}, {"name": "Lynchburg", "state": "VA", "lat": "37.4003", "lng": "-79.1909"}, {"name": "South Hill", "state": "VA", "lat": "36.7254", "lng": "-78.1287"}, {"name": "The Plains", "state": "VA", "lat": "38.8622", "lng": "-77.7743"}, {"name": "Ivor", "state": "VA", "lat": "36.9052", "lng": "-76.8978"}, {"name": "Exmore", "state": "VA", "lat": "37.5295", "lng": "-75.8283"}, {"name": "Plum Creek", "state": "VA", "lat": "37.1267", "lng": "-80.5048"}, {"name": "Stafford Courthouse", "state": "VA", "lat": "38.4170", "lng": "-77.4207"}, {"name": "Norton", "state": "VA", "lat": "36.9314", "lng": "-82.6262"}, {"name": "New Hope", "state": "VA", "lat": "38.1954", "lng": "-78.9044"}, {"name": "Ashburn", "state": "VA", "lat": "39.0300", "lng": "-77.4711"}, {"name": "Clintwood", "state": "VA", "lat": "37.1507", "lng": "-82.4568"}, {"name": "Prices Fork", "state": "VA", "lat": "37.2070", "lng": "-80.4852"}, {"name": "Parrott", "state": "VA", "lat": "37.2168", "lng": "-80.6241"}, {"name": "Wachapreague", "state": "VA", "lat": "37.6064", "lng": "-75.6899"}, {"name": "Keller", "state": "VA", "lat": "37.6212", "lng": "-75.7644"}, {"name": "Brightwood", "state": "VA", "lat": "38.4132", "lng": "-78.1880"}, {"name": "New Kent", "state": "VA", "lat": "37.5095", "lng": "-76.9862"}, {"name": "Pulaski", "state": "VA", "lat": "37.0528", "lng": "-80.7624"}, {"name": "Lancaster", "state": "VA", "lat": "37.7675", "lng": "-76.4549"}, {"name": "Claremont", "state": "VA", "lat": "37.2273", "lng": "-76.9666"}, {"name": "Mantua", "state": "VA", "lat": "38.8526", "lng": "-77.2571"}, {"name": "Pembroke", "state": "VA", "lat": "37.3219", "lng": "-80.6365"}, {"name": "Nellysford", "state": "VA", "lat": "37.9130", "lng": "-78.8828"}, {"name": "Chester Gap", "state": "VA", "lat": "38.8534", "lng": "-78.1325"}, {"name": "North Shore", "state": "VA", "lat": "37.0778", "lng": "-79.6518"}, {"name": "Fort Hunt", "state": "VA", "lat": "38.7361", "lng": "-77.0589"}, {"name": "Baskerville", "state": "VA", "lat": "36.6844", "lng": "-78.2732"}, {"name": "Fort Chiswell", "state": "VA", "lat": "36.9444", "lng": "-80.9577"}, {"name": "Kilmarnock", "state": "VA", "lat": "37.7118", "lng": "-76.3834"}, {"name": "Wise", "state": "VA", "lat": "36.9767", "lng": "-82.5809"}, {"name": "McNair", "state": "VA", "lat": "38.9513", "lng": "-77.4116"}, {"name": "Dranesville", "state": "VA", "lat": "38.9955", "lng": "-77.3693"}, {"name": "Glasgow", "state": "VA", "lat": "37.6348", "lng": "-79.4514"}, {"name": "Low Moor", "state": "VA", "lat": "37.7944", "lng": "-79.8706"}, {"name": "Vansant", "state": "VA", "lat": "37.2358", "lng": "-82.0960"}, {"name": "Innsbrook", "state": "VA", "lat": "37.6552", "lng": "-77.5775"}, {"name": "Craigsville", "state": "VA", "lat": "38.0838", "lng": "-79.3853"}, {"name": "Chamberlayne", "state": "VA", "lat": "37.6280", "lng": "-77.4288"}, {"name": "Saxis", "state": "VA", "lat": "37.9261", "lng": "-75.7224"}, {"name": "Manassas Park", "state": "VA", "lat": "38.7718", "lng": "-77.4450"}, {"name": "Hopewell", "state": "VA", "lat": "37.2915", "lng": "-77.2985"}, {"name": "Bristol", "state": "VA", "lat": "36.6179", "lng": "-82.1607"}, {"name": "Midland", "state": "VA", "lat": "38.5984", "lng": "-77.7213"}, {"name": "Troutville", "state": "VA", "lat": "37.4168", "lng": "-79.8778"}, {"name": "Stanleytown", "state": "VA", "lat": "36.7512", "lng": "-79.9521"}, {"name": "Mathews", "state": "VA", "lat": "37.4365", "lng": "-76.3245"}, {"name": "Virginia Beach", "state": "VA", "lat": "36.7335", "lng": "-76.0435"}, {"name": "Painter", "state": "VA", "lat": "37.5852", "lng": "-75.7837"}, {"name": "Lexington", "state": "VA", "lat": "37.7825", "lng": "-79.4440"}, {"name": "Christiansburg", "state": "VA", "lat": "37.1411", "lng": "-80.4028"}, {"name": "Glen Lyn", "state": "VA", "lat": "37.3727", "lng": "-80.8580"}, {"name": "Lawrenceville", "state": "VA", "lat": "36.7564", "lng": "-77.8539"}, {"name": "Rivanna", "state": "VA", "lat": "37.9945", "lng": "-78.3788"}, {"name": "Belspring", "state": "VA", "lat": "37.1938", "lng": "-80.6097"}, {"name": "Great Falls", "state": "VA", "lat": "39.0110", "lng": "-77.3013"}, {"name": "Ravensworth", "state": "VA", "lat": "38.8032", "lng": "-77.2223"}, {"name": "Bayside", "state": "VA", "lat": "37.7547", "lng": "-75.7129"}, {"name": "Ferrum", "state": "VA", "lat": "36.9313", "lng": "-80.0149"}, {"name": "Columbia", "state": "VA", "lat": "37.7538", "lng": "-78.1632"}, {"name": "Lake Holiday", "state": "VA", "lat": "39.3092", "lng": "-78.3245"}, {"name": "Makemie Park", "state": "VA", "lat": "37.9106", "lng": "-75.5845"}, {"name": "Ridgeway", "state": "VA", "lat": "36.5781", "lng": "-79.8583"}, {"name": "Massanutten", "state": "VA", "lat": "38.4114", "lng": "-78.7270"}, {"name": "Branchville", "state": "VA", "lat": "36.5698", "lng": "-77.2501"}, {"name": "Independent Hill", "state": "VA", "lat": "38.6404", "lng": "-77.4090"}, {"name": "Winchester", "state": "VA", "lat": "39.1735", "lng": "-78.1746"}, {"name": "Centreville", "state": "VA", "lat": "38.8391", "lng": "-77.4388"}, {"name": "Raven", "state": "VA", "lat": "37.0937", "lng": "-81.8601"}, {"name": "Remington", "state": "VA", "lat": "38.5346", "lng": "-77.8083"}, {"name": "Bull Run Mountain Estates", "state": "VA", "lat": "38.9106", "lng": "-77.6638"}, {"name": "Captains Cove", "state": "VA", "lat": "38.0003", "lng": "-75.4173"}, {"name": "Mountain Road", "state": "VA", "lat": "36.7585", "lng": "-78.9890"}, {"name": "Opal", "state": "VA", "lat": "38.6201", "lng": "-77.8049"}, {"name": "Lansdowne", "state": "VA", "lat": "39.0846", "lng": "-77.4839"}, {"name": "East Lexington", "state": "VA", "lat": "37.8009", "lng": "-79.4160"}, {"name": "Cleveland", "state": "VA", "lat": "36.9434", "lng": "-82.1527"}, {"name": "Halifax", "state": "VA", "lat": "36.7612", "lng": "-78.9279"}, {"name": "Blackstone", "state": "VA", "lat": "37.0821", "lng": "-78.0029"}, {"name": "Elkton", "state": "VA", "lat": "38.4106", "lng": "-78.6161"}, {"name": "Rocky Mount", "state": "VA", "lat": "37.0045", "lng": "-79.8854"}, {"name": "Clifton", "state": "VA", "lat": "38.7802", "lng": "-77.3866"}, {"name": "Schuyler", "state": "VA", "lat": "37.7939", "lng": "-78.7002"}, {"name": "King and Queen Court House", "state": "VA", "lat": "37.6683", "lng": "-76.8782"}, {"name": "Greenbackville", "state": "VA", "lat": "38.0105", "lng": "-75.3869"}, {"name": "Emory", "state": "VA", "lat": "36.7800", "lng": "-81.8280"}, {"name": "Penhook", "state": "VA", "lat": "36.9905", "lng": "-79.6318"}, {"name": "King William", "state": "VA", "lat": "37.6882", "lng": "-77.0212"}, {"name": "Springville", "state": "VA", "lat": "37.1940", "lng": "-81.3999"}, {"name": "Big Island", "state": "VA", "lat": "37.5351", "lng": "-79.3615"}, {"name": "Mechanicsville", "state": "VA", "lat": "37.6262", "lng": "-77.3561"}, {"name": "Castlewood", "state": "VA", "lat": "36.8782", "lng": "-82.2878"}, {"name": "Groveton", "state": "VA", "lat": "38.7605", "lng": "-77.0981"}, {"name": "Dahlgren Center", "state": "VA", "lat": "38.3400", "lng": "-77.0324"}, {"name": "Seven Mile Ford", "state": "VA", "lat": "36.8128", "lng": "-81.6294"}, {"name": "Huntington", "state": "VA", "lat": "38.7916", "lng": "-77.0740"}, {"name": "Accomac", "state": "VA", "lat": "37.7196", "lng": "-75.6673"}, {"name": "Montross", "state": "VA", "lat": "38.0941", "lng": "-76.8229"}, {"name": "Fair Lakes", "state": "VA", "lat": "38.8530", "lng": "-77.3885"}, {"name": "Dumbarton", "state": "VA", "lat": "37.6130", "lng": "-77.5065"}, {"name": "Chatham", "state": "VA", "lat": "36.8185", "lng": "-79.3967"}, {"name": "Hiwassee", "state": "VA", "lat": "36.9682", "lng": "-80.7044"}, {"name": "Montrose", "state": "VA", "lat": "37.5200", "lng": "-77.3772"}]