[{"name": "North Westminster", "state": "VT", "lat": "43.1219", "lng": "-72.4555"}, {"name": "Old Bennington", "state": "VT", "lat": "42.8848", "lng": "-73.2143"}, {"name": "Burlington", "state": "VT", "lat": "44.4877", "lng": "-73.2314"}, {"name": "North Springfield", "state": "VT", "lat": "43.3300", "lng": "-72.5262"}, {"name": "Newport Center", "state": "VT", "lat": "44.9509", "lng": "-72.3043"}, {"name": "Vergennes", "state": "VT", "lat": "44.1664", "lng": "-73.2555"}, {"name": "Derby Line", "state": "VT", "lat": "45.0008", "lng": "-72.1034"}, {"name": "Websterville", "state": "VT", "lat": "44.1617", "lng": "-72.4722"}, {"name": "West Burke", "state": "VT", "lat": "44.6431", "lng": "-71.9791"}, {"name": "South Burlington", "state": "VT", "lat": "44.4622", "lng": "-73.2203"}, {"name": "Poultney", "state": "VT", "lat": "43.5181", "lng": "-73.2360"}, {"name": "Johnson", "state": "VT", "lat": "44.6366", "lng": "-72.6786"}, {"name": "Wilder", "state": "VT", "lat": "43.6730", "lng": "-72.3109"}, {"name": "North Troy", "state": "VT", "lat": "44.9963", "lng": "-72.4038"}, {"name": "Ascutney", "state": "VT", "lat": "43.4080", "lng": "-72.4070"}, {"name": "Barton", "state": "VT", "lat": "44.7481", "lng": "-72.1785"}, {"name": "Newport", "state": "VT", "lat": "44.9375", "lng": "-72.2088"}, {"name": "Rutland", "state": "VT", "lat": "43.6091", "lng": "-72.9781"}, {"name": "Jacksonville", "state": "VT", "lat": "42.7976", "lng": "-72.8192"}, {"name": "East Burke", "state": "VT", "lat": "44.5875", "lng": "-71.9403"}, {"name": "South Royalton", "state": "VT", "lat": "43.8123", "lng": "-72.5155"}, {"name": "Morrisville", "state": "VT", "lat": "44.5584", "lng": "-72.5933"}, {"name": "Perkinsville", "state": "VT", "lat": "43.3708", "lng": "-72.5159"}, {"name": "Derby Center", "state": "VT", "lat": "44.9550", "lng": "-72.1361"}, {"name": "Enosburg Falls", "state": "VT", "lat": "44.9083", "lng": "-72.8029"}, {"name": "Graniteville", "state": "VT", "lat": "44.1463", "lng": "-72.4818"}, {"name": "North Bennington", "state": "VT", "lat": "42.9240", "lng": "-73.2411"}, {"name": "West Brattleboro", "state": "VT", "lat": "42.8559", "lng": "-72.6017"}, {"name": "Newfane", "state": "VT", "lat": "42.9875", "lng": "-72.6548"}, {"name": "Manchester", "state": "VT", "lat": "43.1610", "lng": "-73.0709"}, {"name": "Manchester Center", "state": "VT", "lat": "43.1822", "lng": "-73.0362"}, {"name": "Orleans", "state": "VT", "lat": "44.8092", "lng": "-72.2013"}, {"name": "Jeffersonville", "state": "VT", "lat": "44.6427", "lng": "-72.8282"}, {"name": "Marshfield", "state": "VT", "lat": "44.3519", "lng": "-72.3521"}, {"name": "Essex Junction", "state": "VT", "lat": "44.4902", "lng": "-73.1140"}, {"name": "Wells River", "state": "VT", "lat": "44.1538", "lng": "-72.0617"}, {"name": "Bellows Falls", "state": "VT", "lat": "43.1344", "lng": "-72.4550"}, {"name": "St. Albans", "state": "VT", "lat": "44.8118", "lng": "-73.0846"}, {"name": "Hyde Park", "state": "VT", "lat": "44.5960", "lng": "-72.6123"}, {"name": "Swanton", "state": "VT", "lat": "44.9213", "lng": "-73.1201"}, {"name": "Jericho", "state": "VT", "lat": "44.5049", "lng": "-72.9879"}, {"name": "North Hartland", "state": "VT", "lat": "43.5936", "lng": "-72.3578"}, {"name": "Barre", "state": "VT", "lat": "44.1997", "lng": "-72.5083"}, {"name": "Newbury", "state": "VT", "lat": "44.0812", "lng": "-72.0594"}, {"name": "Waterbury", "state": "VT", "lat": "44.3429", "lng": "-72.7429"}, {"name": "Proctorsville", "state": "VT", "lat": "43.3824", "lng": "-72.6415"}, {"name": "Greensboro Bend", "state": "VT", "lat": "44.5583", "lng": "-72.2642"}, {"name": "Albany", "state": "VT", "lat": "44.7302", "lng": "-72.3811"}, {"name": "South Barre", "state": "VT", "lat": "44.1646", "lng": "-72.5038"}, {"name": "White River Junction", "state": "VT", "lat": "43.6496", "lng": "-72.3239"}, {"name": "Saxtons River", "state": "VT", "lat": "43.1390", "lng": "-72.5102"}, {"name": "Quechee", "state": "VT", "lat": "43.6444", "lng": "-72.4184"}, {"name": "Woodstock", "state": "VT", "lat": "43.6257", "lng": "-72.5167"}, {"name": "South Shaftsbury", "state": "VT", "lat": "42.9411", "lng": "-73.2020"}, {"name": "East Barre", "state": "VT", "lat": "44.1498", "lng": "-72.4498"}, {"name": "Lyndonville", "state": "VT", "lat": "44.5352", "lng": "-72.0016"}, {"name": "Winooski", "state": "VT", "lat": "44.4951", "lng": "-73.1843"}, {"name": "Cambridge", "state": "VT", "lat": "44.6389", "lng": "-72.8788"}, {"name": "Montpelier", "state": "VT", "lat": "44.2658", "lng": "-72.5717"}, {"name": "East Middlebury", "state": "VT", "lat": "43.9746", "lng": "-73.1056"}, {"name": "Ludlow", "state": "VT", "lat": "43.3973", "lng": "-72.6969"}, {"name": "Beecher Falls", "state": "VT", "lat": "45.0090", "lng": "-71.4935"}, {"name": "Westminster", "state": "VT", "lat": "43.0739", "lng": "-72.4551"}, {"name": "Island Pond", "state": "VT", "lat": "44.8125", "lng": "-71.8862"}]