[{"name": "South Creek", "state": "WA", "lat": "46.9994", "lng": "-122.3921"}, {"name": "Roslyn", "state": "WA", "lat": "47.2507", "lng": "-121.0989"}, {"name": "Sprague", "state": "WA", "lat": "47.3048", "lng": "-117.9713"}, {"name": "Gig Harbor", "state": "WA", "lat": "47.3352", "lng": "-122.5968"}, {"name": "Lake Cassidy", "state": "WA", "lat": "48.0639", "lng": "-122.0920"}, {"name": "Tenino", "state": "WA", "lat": "46.8537", "lng": "-122.8607"}, {"name": "Jamestown", "state": "WA", "lat": "48.1229", "lng": "-123.0911"}, {"name": "Three Lakes", "state": "WA", "lat": "47.9420", "lng": "-121.9924"}, {"name": "Curlew Lake", "state": "WA", "lat": "48.7311", "lng": "-118.6663"}, {"name": "Chain Lake", "state": "WA", "lat": "47.9038", "lng": "-121.9861"}, {"name": "Pateros", "state": "WA", "lat": "48.0536", "lng": "-119.8994"}, {"name": "Rosburg", "state": "WA", "lat": "46.3076", "lng": "-123.6344"}, {"name": "Parkland", "state": "WA", "lat": "47.1417", "lng": "-122.4376"}, {"name": "Birch Bay", "state": "WA", "lat": "48.9230", "lng": "-122.7543"}, {"name": "Ashford", "state": "WA", "lat": "46.7537", "lng": "-122.0113"}, {"name": "Navy Yard City", "state": "WA", "lat": "47.5508", "lng": "-122.6655"}, {"name": "Omak", "state": "WA", "lat": "48.4228", "lng": "-119.5159"}, {"name": "Farmington", "state": "WA", "lat": "47.0887", "lng": "-117.0464"}, {"name": "Buckley", "state": "WA", "lat": "47.1615", "lng": "-122.0200"}, {"name": "Cathcart", "state": "WA", "lat": "47.8525", "lng": "-122.1058"}, {"name": "Poulsbo", "state": "WA", "lat": "47.7417", "lng": "-122.6408"}, {"name": "Anacortes", "state": "WA", "lat": "48.4878", "lng": "-122.6292"}, {"name": "Maplewood", "state": "WA", "lat": "47.3715", "lng": "-122.5689"}, {"name": "Creston", "state": "WA", "lat": "47.7595", "lng": "-118.5200"}, {"name": "Rockford", "state": "WA", "lat": "47.4513", "lng": "-117.1307"}, {"name": "Wishram", "state": "WA", "lat": "45.6599", "lng": "-120.9698"}, {"name": "Centralia", "state": "WA", "lat": "46.7225", "lng": "-122.9695"}, {"name": "South Hill", "state": "WA", "lat": "47.1203", "lng": "-122.2848"}, {"name": "Longview Heights", "state": "WA", "lat": "46.1796", "lng": "-122.9577"}, {"name": "Erlands Point-Kitsap Lake", "state": "WA", "lat": "47.5973", "lng": "-122.7021"}, {"name": "Amboy", "state": "WA", "lat": "45.9122", "lng": "-122.4795"}, {"name": "St. John", "state": "WA", "lat": "47.0915", "lng": "-117.5887"}, {"name": "Dallesport", "state": "WA", "lat": "45.6316", "lng": "-121.1749"}, {"name": "Ketron Island", "state": "WA", "lat": "47.1569", "lng": "-122.6343"}, {"name": "Mesa", "state": "WA", "lat": "46.5737", "lng": "-119.0013"}, {"name": "Fife", "state": "WA", "lat": "47.2328", "lng": "-122.3518"}, {"name": "Moses Lake North", "state": "WA", "lat": "47.1949", "lng": "-119.3186"}, {"name": "Chewelah", "state": "WA", "lat": "48.2929", "lng": "-117.7336"}, {"name": "Grayland", "state": "WA", "lat": "46.8304", "lng": "-124.0898"}, {"name": "Kittitas", "state": "WA", "lat": "46.9837", "lng": "-120.4191"}, {"name": "Camano", "state": "WA", "lat": "48.1865", "lng": "-122.4708"}, {"name": "Monroe North", "state": "WA", "lat": "47.8830", "lng": "-121.9882"}, {"name": "North Bonneville", "state": "WA", "lat": "45.6425", "lng": "-121.9689"}, {"name": "Klickitat", "state": "WA", "lat": "45.8180", "lng": "-121.1626"}, {"name": "Loon Lake", "state": "WA", "lat": "48.0685", "lng": "-117.6298"}, {"name": "Newport", "state": "WA", "lat": "48.1788", "lng": "-117.0545"}, {"name": "Mead", "state": "WA", "lat": "47.7795", "lng": "-117.3500"}, {"name": "Cashmere", "state": "WA", "lat": "47.5175", "lng": "-120.4671"}, {"name": "Aberdeen Gardens", "state": "WA", "lat": "47.0587", "lng": "-123.7791"}, {"name": "Ocean Shores", "state": "WA", "lat": "46.9685", "lng": "-124.1521"}, {"name": "Basin City", "state": "WA", "lat": "46.5891", "lng": "-119.1567"}, {"name": "Wilkeson", "state": "WA", "lat": "47.1034", "lng": "-122.0495"}, {"name": "Meadow Glade", "state": "WA", "lat": "45.7524", "lng": "-122.5614"}, {"name": "Arlington Heights", "state": "WA", "lat": "48.2119", "lng": "-122.0630"}, {"name": "Uniontown", "state": "WA", "lat": "46.5391", "lng": "-117.0861"}, {"name": "Oakesdale", "state": "WA", "lat": "47.1305", "lng": "-117.2465"}, {"name": "West Side Highway", "state": "WA", "lat": "46.1841", "lng": "-122.9178"}, {"name": "Conconully", "state": "WA", "lat": "48.5571", "lng": "-119.7513"}, {"name": "Latah", "state": "WA", "lat": "47.2822", "lng": "-117.1557"}, {"name": "Elma", "state": "WA", "lat": "47.0055", "lng": "-123.4112"}, {"name": "Tieton", "state": "WA", "lat": "46.7026", "lng": "-120.7560"}, {"name": "Southworth", "state": "WA", "lat": "47.5126", "lng": "-122.5298"}, {"name": "Danville", "state": "WA", "lat": "48.9938", "lng": "-118.5068"}, {"name": "Toppenish", "state": "WA", "lat": "46.3807", "lng": "-120.3125"}, {"name": "River Road", "state": "WA", "lat": "48.0677", "lng": "-123.1276"}, {"name": "Geneva", "state": "WA", "lat": "48.7461", "lng": "-122.4064"}, {"name": "Yakima", "state": "WA", "lat": "46.5923", "lng": "-120.5496"}, {"name": "Moxee", "state": "WA", "lat": "46.5638", "lng": "-120.3968"}, {"name": "Edmonds", "state": "WA", "lat": "47.8114", "lng": "-122.3533"}, {"name": "Kalama", "state": "WA", "lat": "46.0171", "lng": "-122.8393"}, {"name": "Laurier", "state": "WA", "lat": "48.9974", "lng": "-118.2248"}, {"name": "Vashon", "state": "WA", "lat": "47.4122", "lng": "-122.4726"}, {"name": "Country Homes", "state": "WA", "lat": "47.7478", "lng": "-117.4197"}, {"name": "Darrington", "state": "WA", "lat": "48.2546", "lng": "-121.6029"}, {"name": "Metaline Falls", "state": "WA", "lat": "48.8616", "lng": "-117.3706"}, {"name": "Lyle", "state": "WA", "lat": "45.6956", "lng": "-121.2805"}, {"name": "Cascade Valley", "state": "WA", "lat": "47.1371", "lng": "-119.3272"}, {"name": "Spangle", "state": "WA", "lat": "47.4299", "lng": "-117.3812"}, {"name": "Methow", "state": "WA", "lat": "48.1289", "lng": "-120.0056"}, {"name": "Waterville", "state": "WA", "lat": "47.6480", "lng": "-120.0707"}, {"name": "Lake Roesiger", "state": "WA", "lat": "47.9839", "lng": "-121.9129"}, {"name": "Milton", "state": "WA", "lat": "47.2522", "lng": "-122.3154"}, {"name": "Krupp", "state": "WA", "lat": "47.4105", "lng": "-118.9886"}, {"name": "Alderton", "state": "WA", "lat": "47.1718", "lng": "-122.2192"}, {"name": "DuPont", "state": "WA", "lat": "47.1079", "lng": "-122.6496"}, {"name": "Edgewood", "state": "WA", "lat": "47.2309", "lng": "-122.2832"}, {"name": "North Puyallup", "state": "WA", "lat": "47.2015", "lng": "-122.2742"}, {"name": "Pacific Beach", "state": "WA", "lat": "47.2150", "lng": "-124.1967"}, {"name": "Manson", "state": "WA", "lat": "47.8858", "lng": "-120.1563"}, {"name": "Brewster", "state": "WA", "lat": "48.1034", "lng": "-119.7751"}, {"name": "Battle Ground", "state": "WA", "lat": "45.7764", "lng": "-122.5413"}, {"name": "Shoreline", "state": "WA", "lat": "47.7564", "lng": "-122.3426"}, {"name": "Cosmopolis", "state": "WA", "lat": "46.9541", "lng": "-123.7725"}, {"name": "Airway Heights", "state": "WA", "lat": "47.6459", "lng": "-117.5792"}, {"name": "Grandview", "state": "WA", "lat": "46.2431", "lng": "-119.9084"}, {"name": "Inchelium", "state": "WA", "lat": "48.3378", "lng": "-118.2372"}, {"name": "Grand Coulee", "state": "WA", "lat": "47.9391", "lng": "-119.0031"}, {"name": "Union", "state": "WA", "lat": "47.3475", "lng": "-123.0952"}, {"name": "Torboy", "state": "WA", "lat": "48.6772", "lng": "-118.6689"}, {"name": "Kelso", "state": "WA", "lat": "46.1248", "lng": "-122.8909"}, {"name": "Westport", "state": "WA", "lat": "46.8919", "lng": "-124.1120"}, {"name": "Junction City", "state": "WA", "lat": "46.9713", "lng": "-123.7651"}, {"name": "Lake Ketchum", "state": "WA", "lat": "48.2820", "lng": "-122.3480"}, {"name": "West Pasco", "state": "WA", "lat": "46.2497", "lng": "-119.1684"}, {"name": "Des Moines", "state": "WA", "lat": "47.3914", "lng": "-122.3154"}, {"name": "Davenport", "state": "WA", "lat": "47.6551", "lng": "-118.1519"}, {"name": "Seattle", "state": "WA", "lat": "47.6211", "lng": "-122.3244"}, {"name": "Lake Stickney", "state": "WA", "lat": "47.8709", "lng": "-122.2596"}, {"name": "Carnation", "state": "WA", "lat": "47.6446", "lng": "-121.9048"}, {"name": "Everett", "state": "WA", "lat": "47.9524", "lng": "-122.1670"}, {"name": "Warden", "state": "WA", "lat": "46.9674", "lng": "-119.0522"}, {"name": "Palouse", "state": "WA", "lat": "46.9103", "lng": "-117.0751"}, {"name": "Terrace Heights", "state": "WA", "lat": "46.6024", "lng": "-120.4482"}, {"name": "Clarkston", "state": "WA", "lat": "46.4152", "lng": "-117.0502"}, {"name": "Elmer City", "state": "WA", "lat": "48.0000", "lng": "-118.9534"}, {"name": "Mossyrock", "state": "WA", "lat": "46.5305", "lng": "-122.4887"}, {"name": "Summit View", "state": "WA", "lat": "47.1343", "lng": "-122.3468"}, {"name": "Suquamish", "state": "WA", "lat": "47.7238", "lng": "-122.5830"}, {"name": "Newcastle", "state": "WA", "lat": "47.5303", "lng": "-122.1633"}, {"name": "Stanwood", "state": "WA", "lat": "48.2451", "lng": "-122.3426"}, {"name": "Kapowsin", "state": "WA", "lat": "46.9727", "lng": "-122.2272"}, {"name": "Donald", "state": "WA", "lat": "46.4737", "lng": "-120.3923"}, {"name": "Altoona", "state": "WA", "lat": "46.2699", "lng": "-123.6145"}, {"name": "South Prairie", "state": "WA", "lat": "47.1373", "lng": "-122.0940"}, {"name": "Eschbach", "state": "WA", "lat": "46.6670", "lng": "-120.6337"}, {"name": "Indianola", "state": "WA", "lat": "47.7566", "lng": "-122.5142"}, {"name": "Reardan", "state": "WA", "lat": "47.6698", "lng": "-117.8778"}, {"name": "Cowiche", "state": "WA", "lat": "46.6729", "lng": "-120.7154"}, {"name": "Sunday Lake", "state": "WA", "lat": "48.2306", "lng": "-122.2684"}, {"name": "Rocky Point", "state": "WA", "lat": "47.5882", "lng": "-122.6668"}, {"name": "Burbank", "state": "WA", "lat": "46.1991", "lng": "-118.9728"}, {"name": "Lakeland North", "state": "WA", "lat": "47.3374", "lng": "-122.2814"}, {"name": "Granite Falls", "state": "WA", "lat": "48.0874", "lng": "-121.9704"}, {"name": "Camas", "state": "WA", "lat": "45.6003", "lng": "-122.4306"}, {"name": "Skokomish", "state": "WA", "lat": "47.3298", "lng": "-123.1579"}, {"name": "Cusick", "state": "WA", "lat": "48.3328", "lng": "-117.2961"}, {"name": "Rosalia", "state": "WA", "lat": "47.2363", "lng": "-117.3769"}, {"name": "Longbranch", "state": "WA", "lat": "47.2257", "lng": "-122.7739"}, {"name": "Granger", "state": "WA", "lat": "46.3455", "lng": "-120.1926"}, {"name": "North Fort Lewis", "state": "WA", "lat": "47.1221", "lng": "-122.5966"}, {"name": "Tampico", "state": "WA", "lat": "46.5325", "lng": "-120.8727"}, {"name": "Tukwila", "state": "WA", "lat": "47.4748", "lng": "-122.2727"}, {"name": "Cathlamet", "state": "WA", "lat": "46.2056", "lng": "-123.3835"}, {"name": "Wenatchee", "state": "WA", "lat": "47.4338", "lng": "-120.3286"}, {"name": "Port Ludlow", "state": "WA", "lat": "47.9101", "lng": "-122.7006"}, {"name": "Castle Rock", "state": "WA", "lat": "46.2717", "lng": "-122.9057"}, {"name": "Glacier", "state": "WA", "lat": "48.8903", "lng": "-121.9323"}, {"name": "Index", "state": "WA", "lat": "47.8212", "lng": "-121.5556"}, {"name": "Republic", "state": "WA", "lat": "48.6477", "lng": "-118.7326"}, {"name": "Bellevue", "state": "WA", "lat": "47.5953", "lng": "-122.1550"}, {"name": "Malo", "state": "WA", "lat": "48.7997", "lng": "-118.6119"}, {"name": "Anderson Island", "state": "WA", "lat": "47.1577", "lng": "-122.7037"}, {"name": "University Place", "state": "WA", "lat": "47.2148", "lng": "-122.5460"}, {"name": "Montesano", "state": "WA", "lat": "47.0102", "lng": "-123.5858"}, {"name": "Rainier", "state": "WA", "lat": "46.8917", "lng": "-122.6867"}, {"name": "Fords Prairie", "state": "WA", "lat": "46.7461", "lng": "-123.0029"}, {"name": "Roy", "state": "WA", "lat": "46.9971", "lng": "-122.5423"}, {"name": "Oso", "state": "WA", "lat": "48.2836", "lng": "-121.9237"}, {"name": "Marblemount", "state": "WA", "lat": "48.5378", "lng": "-121.4346"}, {"name": "Elk Plain", "state": "WA", "lat": "47.0448", "lng": "-122.3671"}, {"name": "Burlington", "state": "WA", "lat": "48.4677", "lng": "-122.3298"}, {"name": "Bangor Base", "state": "WA", "lat": "47.7227", "lng": "-122.7146"}, {"name": "Beaux Arts Village", "state": "WA", "lat": "47.5854", "lng": "-122.2009"}, {"name": "Port Gamble Tribal Community", "state": "WA", "lat": "47.8487", "lng": "-122.5571"}, {"name": "Olympia", "state": "WA", "lat": "47.0417", "lng": "-122.8959"}, {"name": "East Wenatchee", "state": "WA", "lat": "47.4172", "lng": "-120.2809"}, {"name": "Addy", "state": "WA", "lat": "48.3588", "lng": "-117.8372"}, {"name": "Minnehaha", "state": "WA", "lat": "45.6577", "lng": "-122.6204"}, {"name": "Bryn Mawr-Skyway", "state": "WA", "lat": "47.4949", "lng": "-122.2411"}, {"name": "Satsop", "state": "WA", "lat": "47.0223", "lng": "-123.4737"}, {"name": "Riverbend", "state": "WA", "lat": "47.4651", "lng": "-121.7491"}, {"name": "Easton", "state": "WA", "lat": "47.2405", "lng": "-121.1733"}, {"name": "Silverdale", "state": "WA", "lat": "47.6663", "lng": "-122.6828"}, {"name": "Napavine", "state": "WA", "lat": "46.5844", "lng": "-122.9007"}, {"name": "Lochsloy", "state": "WA", "lat": "48.0597", "lng": "-122.0411"}, {"name": "Ellensburg", "state": "WA", "lat": "46.9994", "lng": "-120.5470"}, {"name": "McKenna", "state": "WA", "lat": "46.9365", "lng": "-122.5500"}, {"name": "Fairfield", "state": "WA", "lat": "47.3848", "lng": "-117.1748"}, {"name": "Northwest Stanwood", "state": "WA", "lat": "48.2623", "lng": "-122.3501"}, {"name": "Mansfield", "state": "WA", "lat": "47.8119", "lng": "-119.6380"}, {"name": "Duvall", "state": "WA", "lat": "47.7354", "lng": "-121.9725"}, {"name": "Markham", "state": "WA", "lat": "46.9155", "lng": "-123.9814"}, {"name": "Waller", "state": "WA", "lat": "47.2035", "lng": "-122.3699"}, {"name": "Longview", "state": "WA", "lat": "46.1460", "lng": "-122.9630"}, {"name": "Richland", "state": "WA", "lat": "46.2826", "lng": "-119.2937"}, {"name": "Rosedale", "state": "WA", "lat": "47.3453", "lng": "-122.6368"}, {"name": "Vancouver", "state": "WA", "lat": "45.6367", "lng": "-122.5970"}, {"name": "Bethel", "state": "WA", "lat": "47.4874", "lng": "-122.6175"}, {"name": "Custer", "state": "WA", "lat": "48.9143", "lng": "-122.6397"}, {"name": "Lofall", "state": "WA", "lat": "47.8113", "lng": "-122.6564"}, {"name": "Fairwood", "state": "WA", "lat": "47.4467", "lng": "-122.1430"}, {"name": "Winlock", "state": "WA", "lat": "46.4907", "lng": "-122.9342"}, {"name": "Sumner", "state": "WA", "lat": "47.2190", "lng": "-122.2338"}, {"name": "Cottage Lake", "state": "WA", "lat": "47.7466", "lng": "-122.0755"}, {"name": "Puget Island", "state": "WA", "lat": "46.1742", "lng": "-123.3829"}, {"name": "Woods Creek", "state": "WA", "lat": "47.8821", "lng": "-121.8982"}, {"name": "Washougal", "state": "WA", "lat": "45.5812", "lng": "-122.3433"}, {"name": "Sisco Heights", "state": "WA", "lat": "48.1188", "lng": "-122.1076"}, {"name": "Canterwood", "state": "WA", "lat": "47.3766", "lng": "-122.6022"}, {"name": "Wapato", "state": "WA", "lat": "46.4434", "lng": "-120.4215"}, {"name": "Lower Elochoman", "state": "WA", "lat": "46.2185", "lng": "-123.3698"}, {"name": "Lake Goodwin", "state": "WA", "lat": "48.1387", "lng": "-122.2804"}, {"name": "Banks Lake South", "state": "WA", "lat": "47.6315", "lng": "-119.2760"}, {"name": "Kent", "state": "WA", "lat": "47.3887", "lng": "-122.2128"}, {"name": "Bickleton", "state": "WA", "lat": "46.0056", "lng": "-120.3081"}, {"name": "Ryderwood", "state": "WA", "lat": "46.3750", "lng": "-123.0441"}, {"name": "Cavalero", "state": "WA", "lat": "47.9845", "lng": "-122.0746"}, {"name": "La Conner", "state": "WA", "lat": "48.3925", "lng": "-122.4945"}, {"name": "Martha Lake", "state": "WA", "lat": "47.8480", "lng": "-122.2326"}, {"name": "George", "state": "WA", "lat": "47.0845", "lng": "-119.8598"}, {"name": "Snohomish", "state": "WA", "lat": "47.9277", "lng": "-122.0970"}, {"name": "Eatonville", "state": "WA", "lat": "46.8682", "lng": "-122.2698"}, {"name": "Carson", "state": "WA", "lat": "45.7353", "lng": "-121.8219"}, {"name": "Almira", "state": "WA", "lat": "47.7105", "lng": "-118.9369"}, {"name": "Nooksack", "state": "WA", "lat": "48.9276", "lng": "-122.3211"}, {"name": "Mount Vista", "state": "WA", "lat": "45.7373", "lng": "-122.6315"}, {"name": "High Bridge", "state": "WA", "lat": "47.7968", "lng": "-122.0281"}, {"name": "Lakeland South", "state": "WA", "lat": "47.2784", "lng": "-122.2831"}, {"name": "Kenmore", "state": "WA", "lat": "47.7532", "lng": "-122.2459"}, {"name": "Neah Bay", "state": "WA", "lat": "48.3612", "lng": "-124.6115"}, {"name": "Cliffdell", "state": "WA", "lat": "46.9213", "lng": "-121.0420"}, {"name": "Port Angeles East", "state": "WA", "lat": "48.1041", "lng": "-123.3695"}, {"name": "Burien", "state": "WA", "lat": "47.4762", "lng": "-122.3393"}, {"name": "Taholah", "state": "WA", "lat": "47.3283", "lng": "-124.2728"}, {"name": "Wauna", "state": "WA", "lat": "47.3860", "lng": "-122.6694"}, {"name": "Connell", "state": "WA", "lat": "46.6624", "lng": "-118.8405"}, {"name": "Disautel", "state": "WA", "lat": "48.3450", "lng": "-119.2299"}, {"name": "Santiago", "state": "WA", "lat": "47.2975", "lng": "-124.2327"}, {"name": "Orting", "state": "WA", "lat": "47.0966", "lng": "-122.2111"}, {"name": "Colville", "state": "WA", "lat": "48.5454", "lng": "-117.8986"}, {"name": "Marysville", "state": "WA", "lat": "48.0810", "lng": "-122.1558"}, {"name": "Walla Walla", "state": "WA", "lat": "46.0669", "lng": "-118.3365"}, {"name": "Zillah", "state": "WA", "lat": "46.4083", "lng": "-120.2717"}, {"name": "Curlew", "state": "WA", "lat": "48.8777", "lng": "-118.6045"}, {"name": "Key Center", "state": "WA", "lat": "47.3376", "lng": "-122.7505"}, {"name": "Hoodsport", "state": "WA", "lat": "47.4020", "lng": "-123.1542"}, {"name": "Spanaway", "state": "WA", "lat": "47.0979", "lng": "-122.4233"}, {"name": "Mattawa", "state": "WA", "lat": "46.7364", "lng": "-119.9019"}, {"name": "Clallam Bay", "state": "WA", "lat": "48.2536", "lng": "-124.2579"}, {"name": "Prairie Ridge", "state": "WA", "lat": "47.1443", "lng": "-122.1408"}, {"name": "Rockport", "state": "WA", "lat": "48.4854", "lng": "-121.6065"}, {"name": "Stansberry Lake", "state": "WA", "lat": "47.3814", "lng": "-122.7154"}, {"name": "Copalis Beach", "state": "WA", "lat": "47.1205", "lng": "-124.1722"}, {"name": "Frederickson", "state": "WA", "lat": "47.0914", "lng": "-122.3594"}, {"name": "Asotin", "state": "WA", "lat": "46.3371", "lng": "-117.0433"}, {"name": "Mill Creek", "state": "WA", "lat": "47.8633", "lng": "-122.2034"}, {"name": "Bell Hill", "state": "WA", "lat": "48.0550", "lng": "-123.0870"}, {"name": "Green Bluff", "state": "WA", "lat": "47.8190", "lng": "-117.2770"}, {"name": "Clayton", "state": "WA", "lat": "48.0013", "lng": "-117.5612"}, {"name": "Puyallup", "state": "WA", "lat": "47.1794", "lng": "-122.2902"}, {"name": "Hockinson", "state": "WA", "lat": "45.7301", "lng": "-122.4833"}, {"name": "Lake McMurray", "state": "WA", "lat": "48.3129", "lng": "-122.2317"}, {"name": "Bucoda", "state": "WA", "lat": "46.7968", "lng": "-122.8680"}, {"name": "Issaquah", "state": "WA", "lat": "47.5420", "lng": "-122.0444"}, {"name": "Odessa", "state": "WA", "lat": "47.3326", "lng": "-118.6895"}, {"name": "Hazel Dell", "state": "WA", "lat": "45.6797", "lng": "-122.6553"}, {"name": "McMillin", "state": "WA", "lat": "47.1286", "lng": "-122.2374"}, {"name": "Wilbur", "state": "WA", "lat": "47.7583", "lng": "-118.7110"}, {"name": "Skamokawa Valley", "state": "WA", "lat": "46.3004", "lng": "-123.4243"}, {"name": "Centerville", "state": "WA", "lat": "45.7540", "lng": "-120.9081"}, {"name": "Nile", "state": "WA", "lat": "46.8368", "lng": "-120.9455"}, {"name": "Spokane Valley", "state": "WA", "lat": "47.6625", "lng": "-117.2346"}, {"name": "Woodland", "state": "WA", "lat": "45.9149", "lng": "-122.7503"}, {"name": "Lewisville", "state": "WA", "lat": "45.8127", "lng": "-122.5144"}, {"name": "Vantage", "state": "WA", "lat": "46.9453", "lng": "-119.9923"}, {"name": "Gorst", "state": "WA", "lat": "47.5237", "lng": "-122.7057"}, {"name": "Lake Morton-Berrydale", "state": "WA", "lat": "47.3325", "lng": "-122.1030"}, {"name": "Ione", "state": "WA", "lat": "48.7402", "lng": "-117.4223"}, {"name": "Bothell West", "state": "WA", "lat": "47.8056", "lng": "-122.2400"}, {"name": "Vaughn", "state": "WA", "lat": "47.3550", "lng": "-122.7773"}, {"name": "Black Diamond", "state": "WA", "lat": "47.3130", "lng": "-122.0181"}, {"name": "Ferndale", "state": "WA", "lat": "48.8525", "lng": "-122.5893"}, {"name": "Acme", "state": "WA", "lat": "48.7146", "lng": "-122.2293"}, {"name": "White Center", "state": "WA", "lat": "47.5086", "lng": "-122.3480"}, {"name": "Fairchild AFB", "state": "WA", "lat": "47.6187", "lng": "-117.6485"}, {"name": "Pacific", "state": "WA", "lat": "47.2611", "lng": "-122.2507"}, {"name": "Glenwood", "state": "WA", "lat": "46.0228", "lng": "-121.2926"}, {"name": "Colfax", "state": "WA", "lat": "46.9032", "lng": "-117.3394"}, {"name": "Silvana", "state": "WA", "lat": "48.2018", "lng": "-122.2459"}, {"name": "Forks", "state": "WA", "lat": "47.9526", "lng": "-124.3904"}, {"name": "Kirkland", "state": "WA", "lat": "47.6997", "lng": "-122.2041"}, {"name": "Okanogan", "state": "WA", "lat": "48.3671", "lng": "-119.5784"}, {"name": "Kayak Point", "state": "WA", "lat": "48.1387", "lng": "-122.3342"}, {"name": "Union Hill-Novelty Hill", "state": "WA", "lat": "47.6788", "lng": "-122.0284"}, {"name": "Outlook", "state": "WA", "lat": "46.3311", "lng": "-120.0923"}, {"name": "Lake Tapps", "state": "WA", "lat": "47.2305", "lng": "-122.1696"}, {"name": "Cohassett Beach", "state": "WA", "lat": "46.8656", "lng": "-124.1054"}, {"name": "Tonasket", "state": "WA", "lat": "48.7077", "lng": "-119.4412"}, {"name": "Sunnyside", "state": "WA", "lat": "46.3159", "lng": "-120.0058"}, {"name": "Lakeview", "state": "WA", "lat": "47.3755", "lng": "-119.5043"}, {"name": "Carbonado", "state": "WA", "lat": "47.0805", "lng": "-122.0536"}, {"name": "Pullman", "state": "WA", "lat": "46.7340", "lng": "-117.1669"}, {"name": "Blyn", "state": "WA", "lat": "48.0130", "lng": "-122.9897"}, {"name": "Brinnon", "state": "WA", "lat": "47.6689", "lng": "-122.9249"}, {"name": "Friday Harbor", "state": "WA", "lat": "48.5324", "lng": "-123.0655"}, {"name": "Orchards", "state": "WA", "lat": "45.6888", "lng": "-122.5305"}, {"name": "Purdy", "state": "WA", "lat": "47.3938", "lng": "-122.6114"}, {"name": "Tekoa", "state": "WA", "lat": "47.2247", "lng": "-117.0732"}, {"name": "Tanner", "state": "WA", "lat": "47.4813", "lng": "-121.6921"}, {"name": "Thorp", "state": "WA", "lat": "47.0656", "lng": "-120.6709"}, {"name": "Artondale", "state": "WA", "lat": "47.3024", "lng": "-122.6390"}, {"name": "Liberty Lake", "state": "WA", "lat": "47.6687", "lng": "-117.1032"}, {"name": "Cheney", "state": "WA", "lat": "47.4901", "lng": "-117.5789"}, {"name": "Sammamish", "state": "WA", "lat": "47.6019", "lng": "-122.0419"}, {"name": "Cle Elum", "state": "WA", "lat": "47.1946", "lng": "-120.9553"}, {"name": "Fern Prairie", "state": "WA", "lat": "45.6370", "lng": "-122.3963"}, {"name": "Waverly", "state": "WA", "lat": "47.3380", "lng": "-117.2312"}, {"name": "Lakewood", "state": "WA", "lat": "47.1628", "lng": "-122.5299"}, {"name": "Lake Marcel-Stillwater", "state": "WA", "lat": "47.6926", "lng": "-121.9152"}, {"name": "Central Park", "state": "WA", "lat": "46.9705", "lng": "-123.7018"}, {"name": "Bridgeport", "state": "WA", "lat": "48.0063", "lng": "-119.6737"}, {"name": "Raft Island", "state": "WA", "lat": "47.3293", "lng": "-122.6686"}, {"name": "Larch Way", "state": "WA", "lat": "47.8429", "lng": "-122.2527"}, {"name": "Lake Bosworth", "state": "WA", "lat": "48.0532", "lng": "-121.9812"}, {"name": "Barberton", "state": "WA", "lat": "45.7136", "lng": "-122.6114"}, {"name": "Sekiu", "state": "WA", "lat": "48.2637", "lng": "-124.3012"}, {"name": "Brier", "state": "WA", "lat": "47.7922", "lng": "-122.2734"}, {"name": "Spokane", "state": "WA", "lat": "47.6671", "lng": "-117.4330"}, {"name": "Fall City", "state": "WA", "lat": "47.5717", "lng": "-121.9134"}, {"name": "Pasco", "state": "WA", "lat": "46.2506", "lng": "-119.1303"}, {"name": "Lyman", "state": "WA", "lat": "48.5230", "lng": "-122.0634"}, {"name": "Oakville", "state": "WA", "lat": "46.8403", "lng": "-123.2333"}, {"name": "Dash Point", "state": "WA", "lat": "47.3131", "lng": "-122.4153"}, {"name": "Herron Island", "state": "WA", "lat": "47.2645", "lng": "-122.8348"}, {"name": "West Clarkston-Highland", "state": "WA", "lat": "46.4023", "lng": "-117.0630"}, {"name": "Royal City", "state": "WA", "lat": "46.9000", "lng": "-119.6142"}, {"name": "Venersborg", "state": "WA", "lat": "45.7860", "lng": "-122.4721"}, {"name": "Hoquiam", "state": "WA", "lat": "46.9863", "lng": "-123.9023"}, {"name": "Willapa", "state": "WA", "lat": "46.6755", "lng": "-123.6648"}, {"name": "Quilcene", "state": "WA", "lat": "47.8369", "lng": "-122.9058"}, {"name": "Freeland", "state": "WA", "lat": "48.0185", "lng": "-122.5358"}, {"name": "McCleary", "state": "WA", "lat": "47.0584", "lng": "-123.2723"}, {"name": "Roosevelt", "state": "WA", "lat": "45.7476", "lng": "-120.2161"}, {"name": "Long Beach", "state": "WA", "lat": "46.3559", "lng": "-124.0556"}, {"name": "Trout Lake", "state": "WA", "lat": "45.9976", "lng": "-121.5291"}, {"name": "Coulee Dam", "state": "WA", "lat": "47.9688", "lng": "-118.9761"}, {"name": "Swede Heaven", "state": "WA", "lat": "48.2829", "lng": "-121.7136"}, {"name": "Pine Grove", "state": "WA", "lat": "48.6502", "lng": "-118.6834"}, {"name": "Langley", "state": "WA", "lat": "48.0337", "lng": "-122.4084"}, {"name": "Sedro-Woolley", "state": "WA", "lat": "48.5113", "lng": "-122.2321"}, {"name": "Hatton", "state": "WA", "lat": "46.7735", "lng": "-118.8277"}, {"name": "Entiat", "state": "WA", "lat": "47.6780", "lng": "-120.2175"}, {"name": "Bainbridge Island", "state": "WA", "lat": "47.6439", "lng": "-122.5434"}, {"name": "Auburn", "state": "WA", "lat": "47.3041", "lng": "-122.2110"}, {"name": "Ocean City", "state": "WA", "lat": "47.0763", "lng": "-124.1620"}, {"name": "White Swan", "state": "WA", "lat": "46.3769", "lng": "-120.7382"}, {"name": "Felida", "state": "WA", "lat": "45.7138", "lng": "-122.7103"}, {"name": "Lacey", "state": "WA", "lat": "47.0458", "lng": "-122.7934"}, {"name": "Gold Bar", "state": "WA", "lat": "47.8566", "lng": "-121.6927"}, {"name": "Clyde Hill", "state": "WA", "lat": "47.6303", "lng": "-122.2180"}, {"name": "Upper Elochoman", "state": "WA", "lat": "46.2403", "lng": "-123.3247"}, {"name": "Marcus", "state": "WA", "lat": "48.6642", "lng": "-118.0601"}, {"name": "Canyon Creek", "state": "WA", "lat": "48.1157", "lng": "-121.9831"}, {"name": "Malone", "state": "WA", "lat": "46.9779", "lng": "-123.3035"}, {"name": "Bothell East", "state": "WA", "lat": "47.8064", "lng": "-122.1844"}, {"name": "Yarrow Point", "state": "WA", "lat": "47.6452", "lng": "-122.2179"}, {"name": "Steptoe", "state": "WA", "lat": "47.0075", "lng": "-117.3502"}, {"name": "West Richland", "state": "WA", "lat": "46.3115", "lng": "-119.3997"}, {"name": "Orient", "state": "WA", "lat": "48.8637", "lng": "-118.2059"}, {"name": "Federal Way", "state": "WA", "lat": "47.3090", "lng": "-122.3359"}, {"name": "Pe Ell", "state": "WA", "lat": "46.5712", "lng": "-123.2982"}, {"name": "Deep River", "state": "WA", "lat": "46.3521", "lng": "-123.6984"}, {"name": "Bothell", "state": "WA", "lat": "47.7736", "lng": "-122.2044"}, {"name": "South Wenatchee", "state": "WA", "lat": "47.3886", "lng": "-120.2829"}, {"name": "Snoqualmie Pass", "state": "WA", "lat": "47.4014", "lng": "-121.4109"}, {"name": "Hartline", "state": "WA", "lat": "47.6895", "lng": "-119.1081"}, {"name": "Lake Forest Park", "state": "WA", "lat": "47.7597", "lng": "-122.2878"}, {"name": "Crocker", "state": "WA", "lat": "47.0843", "lng": "-122.1225"}, {"name": "Elbe", "state": "WA", "lat": "46.7653", "lng": "-122.1946"}, {"name": "Ravensdale", "state": "WA", "lat": "47.3563", "lng": "-121.9692"}, {"name": "Arlington", "state": "WA", "lat": "48.1697", "lng": "-122.1446"}, {"name": "McChord AFB", "state": "WA", "lat": "47.1328", "lng": "-122.4924"}, {"name": "Lebam", "state": "WA", "lat": "46.5641", "lng": "-123.5509"}, {"name": "Lynden", "state": "WA", "lat": "48.9503", "lng": "-122.4544"}, {"name": "Coupeville", "state": "WA", "lat": "48.2172", "lng": "-122.6775"}, {"name": "Prescott", "state": "WA", "lat": "46.2988", "lng": "-118.3126"}, {"name": "South Bend", "state": "WA", "lat": "46.6680", "lng": "-123.8008"}, {"name": "Mabton", "state": "WA", "lat": "46.2115", "lng": "-119.9938"}, {"name": "North Bend", "state": "WA", "lat": "47.4898", "lng": "-121.7738"}, {"name": "Grapeview", "state": "WA", "lat": "47.3316", "lng": "-122.8413"}, {"name": "Garfield", "state": "WA", "lat": "47.0103", "lng": "-117.1395"}, {"name": "Rochester", "state": "WA", "lat": "46.8288", "lng": "-123.0722"}, {"name": "Dayton", "state": "WA", "lat": "46.3168", "lng": "-117.9769"}, {"name": "Algona", "state": "WA", "lat": "47.2822", "lng": "-122.2504"}, {"name": "Mineral", "state": "WA", "lat": "46.7193", "lng": "-122.1859"}, {"name": "Barstow", "state": "WA", "lat": "48.7783", "lng": "-118.1329"}, {"name": "Moclips", "state": "WA", "lat": "47.2348", "lng": "-124.2025"}, {"name": "Bellingham", "state": "WA", "lat": "48.7543", "lng": "-122.4687"}, {"name": "Vader", "state": "WA", "lat": "46.4045", "lng": "-122.9569"}, {"name": "North Lynnwood", "state": "WA", "lat": "47.8533", "lng": "-122.2762"}, {"name": "Tracyton", "state": "WA", "lat": "47.6095", "lng": "-122.6533"}, {"name": "White Salmon", "state": "WA", "lat": "45.7282", "lng": "-121.4853"}, {"name": "Peaceful Valley", "state": "WA", "lat": "48.9477", "lng": "-122.1406"}, {"name": "East Renton Highlands", "state": "WA", "lat": "47.4718", "lng": "-122.0854"}, {"name": "Metaline", "state": "WA", "lat": "48.8540", "lng": "-117.3899"}, {"name": "Deming", "state": "WA", "lat": "48.8381", "lng": "-122.2313"}, {"name": "Medical Lake", "state": "WA", "lat": "47.5712", "lng": "-117.6893"}, {"name": "Aberdeen", "state": "WA", "lat": "46.9757", "lng": "-123.8095"}, {"name": "Chehalis", "state": "WA", "lat": "46.6637", "lng": "-122.9647"}, {"name": "Onalaska", "state": "WA", "lat": "46.5783", "lng": "-122.7112"}, {"name": "Toledo", "state": "WA", "lat": "46.4414", "lng": "-122.8496"}, {"name": "Everson", "state": "WA", "lat": "48.9123", "lng": "-122.3510"}, {"name": "Belfair", "state": "WA", "lat": "47.4495", "lng": "-122.8487"}, {"name": "Lynnwood", "state": "WA", "lat": "47.8285", "lng": "-122.3035"}, {"name": "Colton", "state": "WA", "lat": "46.5675", "lng": "-117.1285"}, {"name": "Malden", "state": "WA", "lat": "47.2296", "lng": "-117.4731"}, {"name": "Ames Lake", "state": "WA", "lat": "47.6346", "lng": "-121.9664"}, {"name": "Wilson Creek", "state": "WA", "lat": "47.4230", "lng": "-119.1176"}, {"name": "North Yelm", "state": "WA", "lat": "46.9647", "lng": "-122.6029"}, {"name": "Mirrormont", "state": "WA", "lat": "47.4616", "lng": "-121.9936"}, {"name": "Whidbey Island Station", "state": "WA", "lat": "48.3387", "lng": "-122.6616"}, {"name": "Town and Country", "state": "WA", "lat": "47.7259", "lng": "-117.4221"}, {"name": "Tokeland", "state": "WA", "lat": "46.7090", "lng": "-123.9839"}, {"name": "Snoqualmie", "state": "WA", "lat": "47.5293", "lng": "-121.8412"}, {"name": "Bremerton", "state": "WA", "lat": "47.5436", "lng": "-122.7121"}, {"name": "East Cathlamet", "state": "WA", "lat": "46.1968", "lng": "-123.3580"}, {"name": "Fort Lewis", "state": "WA", "lat": "47.0955", "lng": "-122.5672"}, {"name": "Salmon Creek", "state": "WA", "lat": "45.7099", "lng": "-122.6632"}, {"name": "Skykomish", "state": "WA", "lat": "47.7103", "lng": "-121.3586"}, {"name": "Tacoma", "state": "WA", "lat": "47.2431", "lng": "-122.4531"}, {"name": "Monroe", "state": "WA", "lat": "47.8596", "lng": "-121.9853"}, {"name": "Loomis", "state": "WA", "lat": "48.8235", "lng": "-119.6398"}, {"name": "Pomeroy", "state": "WA", "lat": "46.4737", "lng": "-117.5967"}, {"name": "Brush Prairie", "state": "WA", "lat": "45.7250", "lng": "-122.5483"}, {"name": "Silver Firs", "state": "WA", "lat": "47.8635", "lng": "-122.1497"}, {"name": "Nespelem", "state": "WA", "lat": "48.1670", "lng": "-118.9722"}, {"name": "Meadowdale", "state": "WA", "lat": "47.8583", "lng": "-122.3156"}, {"name": "Shadow Lake", "state": "WA", "lat": "47.4017", "lng": "-122.0764"}, {"name": "LaCrosse", "state": "WA", "lat": "46.8021", "lng": "-117.9013"}, {"name": "Concrete", "state": "WA", "lat": "48.5371", "lng": "-121.7512"}, {"name": "Sumas", "state": "WA", "lat": "48.9956", "lng": "-122.2695"}, {"name": "Ruston", "state": "WA", "lat": "47.2982", "lng": "-122.5100"}, {"name": "La Center", "state": "WA", "lat": "45.8589", "lng": "-122.6764"}, {"name": "Marrowstone", "state": "WA", "lat": "48.0568", "lng": "-122.6933"}, {"name": "Chelan Falls", "state": "WA", "lat": "47.7995", "lng": "-119.9882"}, {"name": "Lake Cavanaugh", "state": "WA", "lat": "48.3225", "lng": "-122.0122"}, {"name": "Duluth", "state": "WA", "lat": "45.7838", "lng": "-122.6470"}, {"name": "Sequim", "state": "WA", "lat": "48.0747", "lng": "-123.0944"}, {"name": "Benton City", "state": "WA", "lat": "46.2624", "lng": "-119.4814"}, {"name": "Moses Lake", "state": "WA", "lat": "47.1284", "lng": "-119.2741"}, {"name": "Fircrest", "state": "WA", "lat": "47.2308", "lng": "-122.5157"}, {"name": "Othello", "state": "WA", "lat": "46.8222", "lng": "-119.1651"}, {"name": "Mercer Island", "state": "WA", "lat": "47.5625", "lng": "-122.2265"}, {"name": "Enumclaw", "state": "WA", "lat": "47.2017", "lng": "-121.9897"}, {"name": "Chico", "state": "WA", "lat": "47.6234", "lng": "-122.7198"}, {"name": "Enetai", "state": "WA", "lat": "47.5885", "lng": "-122.6058"}, {"name": "Hunts Point", "state": "WA", "lat": "47.6420", "lng": "-122.2290"}, {"name": "Clinton", "state": "WA", "lat": "47.9731", "lng": "-122.3577"}, {"name": "Hat Island", "state": "WA", "lat": "48.0130", "lng": "-122.3201"}, {"name": "Marietta-Alderwood", "state": "WA", "lat": "48.7932", "lng": "-122.5566"}, {"name": "Waitsburg", "state": "WA", "lat": "46.2696", "lng": "-118.1510"}, {"name": "Sunnyslope", "state": "WA", "lat": "47.4913", "lng": "-120.3493"}, {"name": "South Cle Elum", "state": "WA", "lat": "47.1862", "lng": "-120.9525"}, {"name": "Selah", "state": "WA", "lat": "46.6482", "lng": "-120.5389"}, {"name": "Lind", "state": "WA", "lat": "46.9704", "lng": "-118.6165"}, {"name": "Five Corners", "state": "WA", "lat": "45.6883", "lng": "-122.5738"}, {"name": "Winthrop", "state": "WA", "lat": "48.4716", "lng": "-120.1790"}, {"name": "Normandy Park", "state": "WA", "lat": "47.4344", "lng": "-122.3436"}, {"name": "Home", "state": "WA", "lat": "47.2790", "lng": "-122.7744"}, {"name": "Graham", "state": "WA", "lat": "47.0407", "lng": "-122.2757"}, {"name": "Yacolt", "state": "WA", "lat": "45.8650", "lng": "-122.4059"}, {"name": "Packwood", "state": "WA", "lat": "46.6085", "lng": "-121.6702"}, {"name": "Queets", "state": "WA", "lat": "47.5314", "lng": "-124.3385"}, {"name": "Finley", "state": "WA", "lat": "46.1697", "lng": "-119.0446"}, {"name": "Northport", "state": "WA", "lat": "48.9159", "lng": "-117.7796"}, {"name": "Medina", "state": "WA", "lat": "47.6256", "lng": "-122.2338"}, {"name": "Browns Point", "state": "WA", "lat": "47.3036", "lng": "-122.4369"}, {"name": "Summit", "state": "WA", "lat": "47.1694", "lng": "-122.3628"}, {"name": "Albion", "state": "WA", "lat": "46.7916", "lng": "-117.2511"}, {"name": "Sudden Valley", "state": "WA", "lat": "48.7199", "lng": "-122.3468"}, {"name": "Bunk Foss", "state": "WA", "lat": "47.9618", "lng": "-122.0943"}, {"name": "Gleed", "state": "WA", "lat": "46.6594", "lng": "-120.6025"}, {"name": "Maryhill", "state": "WA", "lat": "45.6928", "lng": "-120.8070"}, {"name": "Oyehut", "state": "WA", "lat": "47.0233", "lng": "-124.1632"}, {"name": "Alder", "state": "WA", "lat": "46.7872", "lng": "-122.2667"}, {"name": "Ridgefield", "state": "WA", "lat": "45.8116", "lng": "-122.7052"}, {"name": "Bryant", "state": "WA", "lat": "48.2400", "lng": "-122.1638"}, {"name": "Nisqually Indian Community", "state": "WA", "lat": "47.0178", "lng": "-122.6728"}, {"name": "Porter", "state": "WA", "lat": "46.9489", "lng": "-123.2736"}, {"name": "Kettle Falls", "state": "WA", "lat": "48.6055", "lng": "-118.0620"}, {"name": "Chelan", "state": "WA", "lat": "47.8417", "lng": "-120.0270"}, {"name": "Edison", "state": "WA", "lat": "48.5602", "lng": "-122.4310"}, {"name": "Neilton", "state": "WA", "lat": "47.4031", "lng": "-123.8782"}, {"name": "Fox Island", "state": "WA", "lat": "47.2475", "lng": "-122.6255"}, {"name": "Renton", "state": "WA", "lat": "47.4758", "lng": "-122.1905"}, {"name": "Baring", "state": "WA", "lat": "47.7661", "lng": "-121.4803"}, {"name": "Hobart", "state": "WA", "lat": "47.4120", "lng": "-121.9960"}, {"name": "Wallula", "state": "WA", "lat": "46.0847", "lng": "-118.9056"}, {"name": "Touchet", "state": "WA", "lat": "46.0412", "lng": "-118.6724"}, {"name": "Leavenworth", "state": "WA", "lat": "47.5948", "lng": "-120.6633"}, {"name": "Fobes Hill", "state": "WA", "lat": "47.9391", "lng": "-122.1341"}, {"name": "Harrington", "state": "WA", "lat": "47.4802", "lng": "-118.2552"}, {"name": "Port Orchard", "state": "WA", "lat": "47.5164", "lng": "-122.6610"}, {"name": "Alderwood Manor", "state": "WA", "lat": "47.8147", "lng": "-122.2676"}, {"name": "Kennewick", "state": "WA", "lat": "46.1979", "lng": "-119.1732"}, {"name": "Ahtanum", "state": "WA", "lat": "46.5583", "lng": "-120.6109"}, {"name": "Wilderness Rim", "state": "WA", "lat": "47.4463", "lng": "-121.7691"}, {"name": "Machias", "state": "WA", "lat": "47.9917", "lng": "-122.0515"}, {"name": "Bingen", "state": "WA", "lat": "45.7139", "lng": "-121.4704"}, {"name": "Four Lakes", "state": "WA", "lat": "47.5582", "lng": "-117.5891"}, {"name": "Springdale", "state": "WA", "lat": "48.0572", "lng": "-117.7466"}, {"name": "Washtucna", "state": "WA", "lat": "46.7538", "lng": "-118.3106"}, {"name": "Covington", "state": "WA", "lat": "47.3668", "lng": "-122.1044"}, {"name": "Allyn", "state": "WA", "lat": "47.3863", "lng": "-122.8386"}, {"name": "North Sultan", "state": "WA", "lat": "47.8827", "lng": "-121.8251"}, {"name": "Union Gap", "state": "WA", "lat": "46.5567", "lng": "-120.4977"}, {"name": "Shelton", "state": "WA", "lat": "47.2188", "lng": "-123.1127"}, {"name": "Chinook", "state": "WA", "lat": "46.2755", "lng": "-123.9425"}, {"name": "Blaine", "state": "WA", "lat": "48.9839", "lng": "-122.7414"}, {"name": "Port Hadlock-Irondale", "state": "WA", "lat": "48.0316", "lng": "-122.7890"}, {"name": "Burley", "state": "WA", "lat": "47.4166", "lng": "-122.6377"}, {"name": "Mount Vernon", "state": "WA", "lat": "48.4202", "lng": "-122.3116"}, {"name": "Electric City", "state": "WA", "lat": "47.9220", "lng": "-119.0475"}, {"name": "Ronald", "state": "WA", "lat": "47.2338", "lng": "-121.0335"}, {"name": "Nespelem Community", "state": "WA", "lat": "48.1715", "lng": "-119.0244"}, {"name": "Amanda Park", "state": "WA", "lat": "47.4532", "lng": "-123.9194"}, {"name": "Clarkston Heights-Vineland", "state": "WA", "lat": "46.3876", "lng": "-117.0831"}, {"name": "Boulevard Park", "state": "WA", "lat": "47.5135", "lng": "-122.3159"}, {"name": "Big Lake", "state": "WA", "lat": "48.3933", "lng": "-122.2422"}, {"name": "Boyds", "state": "WA", "lat": "48.7245", "lng": "-118.1321"}, {"name": "Parkwood", "state": "WA", "lat": "47.5266", "lng": "-122.5986"}, {"name": "Deer Park", "state": "WA", "lat": "47.9642", "lng": "-117.4397"}, {"name": "Humptulips", "state": "WA", "lat": "47.2491", "lng": "-123.9348"}, {"name": "SeaTac", "state": "WA", "lat": "47.4445", "lng": "-122.2986"}, {"name": "Maple Valley", "state": "WA", "lat": "47.3659", "lng": "-122.0368"}, {"name": "Millwood", "state": "WA", "lat": "47.6856", "lng": "-117.2806"}, {"name": "Point Roberts", "state": "WA", "lat": "48.9883", "lng": "-123.0576"}, {"name": "Dixie", "state": "WA", "lat": "46.1392", "lng": "-118.1480"}, {"name": "East Port Orchard", "state": "WA", "lat": "47.5193", "lng": "-122.6183"}, {"name": "Morton", "state": "WA", "lat": "46.5575", "lng": "-122.2815"}, {"name": "Alger", "state": "WA", "lat": "48.6176", "lng": "-122.3369"}, {"name": "Kahlotus", "state": "WA", "lat": "46.6437", "lng": "-118.5556"}, {"name": "Fife Heights", "state": "WA", "lat": "47.2593", "lng": "-122.3457"}, {"name": "Cherry Grove", "state": "WA", "lat": "45.8021", "lng": "-122.5764"}, {"name": "Clearview", "state": "WA", "lat": "47.8292", "lng": "-122.1452"}, {"name": "Greenwater", "state": "WA", "lat": "47.1465", "lng": "-121.6320"}, {"name": "Picnic Point", "state": "WA", "lat": "47.8745", "lng": "-122.3079"}, {"name": "Kendall", "state": "WA", "lat": "48.9168", "lng": "-122.1383"}, {"name": "Seabeck", "state": "WA", "lat": "47.6437", "lng": "-122.8219"}, {"name": "Startup", "state": "WA", "lat": "47.8671", "lng": "-121.7495"}, {"name": "Steilacoom", "state": "WA", "lat": "47.1699", "lng": "-122.5935"}, {"name": "Lamont", "state": "WA", "lat": "47.2007", "lng": "-117.9049"}, {"name": "Bay View", "state": "WA", "lat": "48.4870", "lng": "-122.4628"}, {"name": "Valley", "state": "WA", "lat": "48.1730", "lng": "-117.7244"}, {"name": "North Marysville", "state": "WA", "lat": "48.1111", "lng": "-122.1459"}, {"name": "Brady", "state": "WA", "lat": "47.0064", "lng": "-123.5321"}, {"name": "May Creek", "state": "WA", "lat": "47.8555", "lng": "-121.6743"}, {"name": "Clear Lake", "state": "WA", "lat": "48.4561", "lng": "-122.2378"}, {"name": "Keller", "state": "WA", "lat": "48.0852", "lng": "-118.7164"}, {"name": "Redmond", "state": "WA", "lat": "47.6762", "lng": "-122.1169"}, {"name": "Ilwaco", "state": "WA", "lat": "46.3108", "lng": "-124.0422"}, {"name": "Mountlake Terrace", "state": "WA", "lat": "47.7921", "lng": "-122.3076"}, {"name": "Parker", "state": "WA", "lat": "46.5022", "lng": "-120.4668"}, {"name": "Soap Lake", "state": "WA", "lat": "47.3914", "lng": "-119.4892"}, {"name": "Grand Mound", "state": "WA", "lat": "46.8053", "lng": "-123.0119"}, {"name": "Manchester", "state": "WA", "lat": "47.5519", "lng": "-122.5517"}, {"name": "Prairie Heights", "state": "WA", "lat": "47.1529", "lng": "-122.1048"}, {"name": "Verlot", "state": "WA", "lat": "48.1002", "lng": "-121.7679"}, {"name": "North Omak", "state": "WA", "lat": "48.4440", "lng": "-119.4459"}, {"name": "Naches", "state": "WA", "lat": "46.7274", "lng": "-120.6945"}, {"name": "Summitview", "state": "WA", "lat": "46.5980", "lng": "-120.6514"}, {"name": "Clover Creek", "state": "WA", "lat": "47.1404", "lng": "-122.3827"}, {"name": "Prosser", "state": "WA", "lat": "46.2066", "lng": "-119.7662"}, {"name": "Naselle", "state": "WA", "lat": "46.3650", "lng": "-123.8013"}, {"name": "Rock Island", "state": "WA", "lat": "47.3743", "lng": "-120.1382"}, {"name": "Goldendale", "state": "WA", "lat": "45.8192", "lng": "-120.8233"}, {"name": "Maltby", "state": "WA", "lat": "47.8027", "lng": "-122.1044"}, {"name": "Oak Harbor", "state": "WA", "lat": "48.2965", "lng": "-122.6331"}, {"name": "Tanglewilde", "state": "WA", "lat": "47.0512", "lng": "-122.7810"}, {"name": "Endicott", "state": "WA", "lat": "46.9282", "lng": "-117.6867"}, {"name": "Mill Creek East", "state": "WA", "lat": "47.8361", "lng": "-122.1877"}, {"name": "Maple Heights-Lake Desire", "state": "WA", "lat": "47.4441", "lng": "-122.0973"}, {"name": "Midland", "state": "WA", "lat": "47.1734", "lng": "-122.4120"}, {"name": "Kingston", "state": "WA", "lat": "47.8014", "lng": "-122.4989"}, {"name": "Esperance", "state": "WA", "lat": "47.7937", "lng": "-122.3469"}, {"name": "Grays River", "state": "WA", "lat": "46.3608", "lng": "-123.5890"}, {"name": "Sultan", "state": "WA", "lat": "47.8708", "lng": "-121.8044"}, {"name": "La Grande", "state": "WA", "lat": "46.8199", "lng": "-122.2962"}, {"name": "Ritzville", "state": "WA", "lat": "47.1254", "lng": "-118.3808"}, {"name": "Malott", "state": "WA", "lat": "48.2919", "lng": "-119.6954"}, {"name": "Coulee City", "state": "WA", "lat": "47.6120", "lng": "-119.2892"}, {"name": "Raymond", "state": "WA", "lat": "46.6838", "lng": "-123.7380"}, {"name": "Wollochet", "state": "WA", "lat": "47.2828", "lng": "-122.5769"}, {"name": "Quincy", "state": "WA", "lat": "47.2347", "lng": "-119.8522"}, {"name": "Walla Walla East", "state": "WA", "lat": "46.0517", "lng": "-118.3024"}, {"name": "Hamilton", "state": "WA", "lat": "48.5282", "lng": "-121.9834"}, {"name": "Woodinville", "state": "WA", "lat": "47.7569", "lng": "-122.1477"}, {"name": "Bay Center", "state": "WA", "lat": "46.6211", "lng": "-123.9533"}, {"name": "Port Townsend", "state": "WA", "lat": "48.1220", "lng": "-122.7872"}, {"name": "Riverside", "state": "WA", "lat": "48.5047", "lng": "-119.5102"}, {"name": "Woodway", "state": "WA", "lat": "47.7903", "lng": "-122.3851"}, {"name": "Qui-nai-elt Village", "state": "WA", "lat": "47.2502", "lng": "-124.1903"}, {"name": "Stevenson", "state": "WA", "lat": "45.6944", "lng": "-121.8932"}, {"name": "Ocean Park", "state": "WA", "lat": "46.4961", "lng": "-124.0443"}, {"name": "Port Angeles", "state": "WA", "lat": "48.1142", "lng": "-123.4565"}, {"name": "Bonney Lake", "state": "WA", "lat": "47.1789", "lng": "-122.1698"}, {"name": "Oroville", "state": "WA", "lat": "48.9420", "lng": "-119.4304"}, {"name": "Garrett", "state": "WA", "lat": "46.0633", "lng": "-118.3876"}, {"name": "Otis Orchards-East Farms", "state": "WA", "lat": "47.7030", "lng": "-117.0854"}, {"name": "Warm Beach", "state": "WA", "lat": "48.1649", "lng": "-122.3442"}, {"name": "Twin Lakes", "state": "WA", "lat": "48.2622", "lng": "-118.3590"}, {"name": "Conway", "state": "WA", "lat": "48.3357", "lng": "-122.3444"}, {"name": "College Place", "state": "WA", "lat": "46.0418", "lng": "-118.3879"}, {"name": "Eastmont", "state": "WA", "lat": "47.8968", "lng": "-122.1817"}, {"name": "Maple Falls", "state": "WA", "lat": "48.9135", "lng": "-122.1048"}, {"name": "Ephrata", "state": "WA", "lat": "47.3119", "lng": "-119.5344"}, {"name": "Buena", "state": "WA", "lat": "46.4299", "lng": "-120.3176"}, {"name": "Tumwater", "state": "WA", "lat": "46.9890", "lng": "-122.9173"}, {"name": "Desert Aire", "state": "WA", "lat": "46.6873", "lng": "-119.9311"}, {"name": "Lake Holm", "state": "WA", "lat": "47.2986", "lng": "-122.1335"}, {"name": "Mukilteo", "state": "WA", "lat": "47.9094", "lng": "-122.3035"}, {"name": "Twisp", "state": "WA", "lat": "48.3618", "lng": "-120.1169"}, {"name": "Lake Shore", "state": "WA", "lat": "45.6911", "lng": "-122.6911"}, {"name": "Keyport", "state": "WA", "lat": "47.6993", "lng": "-122.6232"}, {"name": "Lake Stevens", "state": "WA", "lat": "48.0029", "lng": "-122.0960"}, {"name": "Starbuck", "state": "WA", "lat": "46.5182", "lng": "-118.1245"}, {"name": "Harrah", "state": "WA", "lat": "46.4071", "lng": "-120.5422"}, {"name": "Hansville", "state": "WA", "lat": "47.8978", "lng": "-122.5579"}, {"name": "Carlsborg", "state": "WA", "lat": "48.0842", "lng": "-123.1697"}, {"name": "Yelm", "state": "WA", "lat": "46.9398", "lng": "-122.6261"}]