[{"name": "Stone Lake", "state": "WI", "lat": "45.8445", "lng": "-91.5502"}, {"name": "Nelson", "state": "WI", "lat": "44.4214", "lng": "-92.0044"}, {"name": "Fennimore", "state": "WI", "lat": "42.9793", "lng": "-90.6491"}, {"name": "Chenequa", "state": "WI", "lat": "43.1229", "lng": "-88.3838"}, {"name": "Helenville", "state": "WI", "lat": "43.0165", "lng": "-88.6999"}, {"name": "Tichigan", "state": "WI", "lat": "42.8088", "lng": "-88.2150"}, {"name": "Kekoskee", "state": "WI", "lat": "43.5271", "lng": "-88.5615"}, {"name": "Wonewoc", "state": "WI", "lat": "43.6531", "lng": "-90.2239"}, {"name": "St. Peter", "state": "WI", "lat": "43.8377", "lng": "-88.3465"}, {"name": "Black River Falls", "state": "WI", "lat": "44.2981", "lng": "-90.8419"}, {"name": "Shiocton", "state": "WI", "lat": "44.4449", "lng": "-88.5768"}, {"name": "Three Lakes", "state": "WI", "lat": "45.8047", "lng": "-89.1708"}, {"name": "Waldo", "state": "WI", "lat": "43.6766", "lng": "-87.9478"}, {"name": "North Prairie", "state": "WI", "lat": "42.9357", "lng": "-88.4038"}, {"name": "Mattoon", "state": "WI", "lat": "45.0046", "lng": "-89.0411"}, {"name": "Almond", "state": "WI", "lat": "44.2607", "lng": "-89.4087"}, {"name": "New Auburn", "state": "WI", "lat": "45.1988", "lng": "-91.5666"}, {"name": "Hustisford", "state": "WI", "lat": "43.3442", "lng": "-88.6033"}, {"name": "Little Chute", "state": "WI", "lat": "44.2895", "lng": "-88.3199"}, {"name": "Birnamwood", "state": "WI", "lat": "44.9319", "lng": "-89.2094"}, {"name": "Lodi", "state": "WI", "lat": "43.3154", "lng": "-89.5367"}, {"name": "Whitehall", "state": "WI", "lat": "44.3705", "lng": "-91.3476"}, {"name": "West Baraboo", "state": "WI", "lat": "43.4814", "lng": "-89.7719"}, {"name": "Lomira", "state": "WI", "lat": "43.5945", "lng": "-88.4421"}, {"name": "Brownsville", "state": "WI", "lat": "43.6145", "lng": "-88.4952"}, {"name": "Bloomer", "state": "WI", "lat": "45.1030", "lng": "-91.4913"}, {"name": "Wabeno", "state": "WI", "lat": "45.4394", "lng": "-88.6581"}, {"name": "Whitewater", "state": "WI", "lat": "42.8372", "lng": "-88.7340"}, {"name": "Reedsville", "state": "WI", "lat": "44.1525", "lng": "-87.9517"}, {"name": "Amherst", "state": "WI", "lat": "44.4475", "lng": "-89.2832"}, {"name": "Monona", "state": "WI", "lat": "43.0540", "lng": "-89.3334"}, {"name": "River Falls", "state": "WI", "lat": "44.8608", "lng": "-92.6244"}, {"name": "Delavan", "state": "WI", "lat": "42.6281", "lng": "-88.6324"}, {"name": "Greendale", "state": "WI", "lat": "42.9370", "lng": "-88.0018"}, {"name": "Couderay", "state": "WI", "lat": "45.7976", "lng": "-91.3005"}, {"name": "Berlin", "state": "WI", "lat": "43.9704", "lng": "-88.9505"}, {"name": "Grantsburg", "state": "WI", "lat": "45.7813", "lng": "-92.6836"}, {"name": "Burnett", "state": "WI", "lat": "43.5065", "lng": "-88.7085"}, {"name": "Lakewood", "state": "WI", "lat": "45.3006", "lng": "-88.5146"}, {"name": "Wausau", "state": "WI", "lat": "44.9615", "lng": "-89.6457"}, {"name": "Livingston", "state": "WI", "lat": "42.9001", "lng": "-90.4337"}, {"name": "Hillsboro", "state": "WI", "lat": "43.6559", "lng": "-90.3365"}, {"name": "Exeland", "state": "WI", "lat": "45.6669", "lng": "-91.2425"}, {"name": "Whitelaw", "state": "WI", "lat": "44.1452", "lng": "-87.8281"}, {"name": "East Troy", "state": "WI", "lat": "42.7848", "lng": "-88.3973"}, {"name": "Oconto", "state": "WI", "lat": "44.8918", "lng": "-87.8692"}, {"name": "Elkhorn", "state": "WI", "lat": "42.6711", "lng": "-88.5377"}, {"name": "Nashotah", "state": "WI", "lat": "43.0938", "lng": "-88.4037"}, {"name": "Rewey", "state": "WI", "lat": "42.8419", "lng": "-90.3961"}, {"name": "Ferryville", "state": "WI", "lat": "43.3516", "lng": "-91.0935"}, {"name": "Neillsville", "state": "WI", "lat": "44.5605", "lng": "-90.5905"}, {"name": "Sun Prairie", "state": "WI", "lat": "43.1827", "lng": "-89.2357"}, {"name": "Wilton", "state": "WI", "lat": "43.8132", "lng": "-90.5268"}, {"name": "Eleva", "state": "WI", "lat": "44.5763", "lng": "-91.4705"}, {"name": "Menomonie", "state": "WI", "lat": "44.8893", "lng": "-91.9084"}, {"name": "Wales", "state": "WI", "lat": "43.0042", "lng": "-88.3739"}, {"name": "Manitowoc", "state": "WI", "lat": "44.0991", "lng": "-87.6811"}, {"name": "Ashippun", "state": "WI", "lat": "43.2182", "lng": "-88.5159"}, {"name": "New Lisbon", "state": "WI", "lat": "43.8781", "lng": "-90.1625"}, {"name": "New Odanah", "state": "WI", "lat": "46.5986", "lng": "-90.6618"}, {"name": "Sauk City", "state": "WI", "lat": "43.2721", "lng": "-89.7307"}, {"name": "Pulcifer", "state": "WI", "lat": "44.8476", "lng": "-88.3592"}, {"name": "New Berlin", "state": "WI", "lat": "42.9726", "lng": "-88.1291"}, {"name": "Milladore", "state": "WI", "lat": "44.6057", "lng": "-89.8549"}, {"name": "Mason", "state": "WI", "lat": "46.4354", "lng": "-91.0600"}, {"name": "Oconomowoc Lake", "state": "WI", "lat": "43.0975", "lng": "-88.4521"}, {"name": "Independence", "state": "WI", "lat": "44.3328", "lng": "-91.4172"}, {"name": "Maribel", "state": "WI", "lat": "44.2775", "lng": "-87.8025"}, {"name": "Oak Creek", "state": "WI", "lat": "42.8803", "lng": "-87.9009"}, {"name": "Van Dyne", "state": "WI", "lat": "43.8862", "lng": "-88.5012"}, {"name": "Pence", "state": "WI", "lat": "46.4104", "lng": "-90.2695"}, {"name": "Saukville", "state": "WI", "lat": "43.3847", "lng": "-87.9439"}, {"name": "Clyman", "state": "WI", "lat": "43.3116", "lng": "-88.7231"}, {"name": "Wild Rose", "state": "WI", "lat": "44.1788", "lng": "-89.2442"}, {"name": "Reedsburg", "state": "WI", "lat": "43.5346", "lng": "-89.9970"}, {"name": "Patch Grove", "state": "WI", "lat": "42.9406", "lng": "-90.9725"}, {"name": "Paddock Lake", "state": "WI", "lat": "42.5707", "lng": "-88.1044"}, {"name": "New Holstein", "state": "WI", "lat": "43.9491", "lng": "-88.0942"}, {"name": "Lake Hallie", "state": "WI", "lat": "44.8921", "lng": "-91.4200"}, {"name": "Hewitt", "state": "WI", "lat": "44.6425", "lng": "-90.1048"}, {"name": "Menomonee Falls", "state": "WI", "lat": "43.1487", "lng": "-88.1227"}, {"name": "Eastman", "state": "WI", "lat": "43.1622", "lng": "-91.0254"}, {"name": "Pella", "state": "WI", "lat": "44.7426", "lng": "-88.8224"}, {"name": "Princeton", "state": "WI", "lat": "43.8527", "lng": "-89.1305"}, {"name": "Melvina", "state": "WI", "lat": "43.8024", "lng": "-90.7815"}, {"name": "Peshtigo", "state": "WI", "lat": "45.0556", "lng": "-87.7476"}, {"name": "Lake Tomahawk", "state": "WI", "lat": "45.8110", "lng": "-89.5873"}, {"name": "Long Lake", "state": "WI", "lat": "45.8431", "lng": "-88.6673"}, {"name": "Maple Bluff", "state": "WI", "lat": "43.1132", "lng": "-89.3719"}, {"name": "Mishicot", "state": "WI", "lat": "44.2303", "lng": "-87.6422"}, {"name": "Iron Ridge", "state": "WI", "lat": "43.3982", "lng": "-88.5320"}, {"name": "Johnson Creek", "state": "WI", "lat": "43.0812", "lng": "-88.7702"}, {"name": "Juneau", "state": "WI", "lat": "43.4053", "lng": "-88.7041"}, {"name": "Kohler", "state": "WI", "lat": "43.7364", "lng": "-87.7795"}, {"name": "Thornton", "state": "WI", "lat": "44.7984", "lng": "-88.6917"}, {"name": "Seymour", "state": "WI", "lat": "44.5142", "lng": "-88.3271"}, {"name": "Brandon", "state": "WI", "lat": "43.7352", "lng": "-88.7822"}, {"name": "Camp Douglas", "state": "WI", "lat": "43.9197", "lng": "-90.2697"}, {"name": "Hatley", "state": "WI", "lat": "44.8866", "lng": "-89.3371"}, {"name": "Lake Ripley", "state": "WI", "lat": "43.0045", "lng": "-88.9829"}, {"name": "Bruce", "state": "WI", "lat": "45.4590", "lng": "-91.2734"}, {"name": "Hammond", "state": "WI", "lat": "44.9691", "lng": "-92.4381"}, {"name": "Maiden Rock", "state": "WI", "lat": "44.5660", "lng": "-92.3083"}, {"name": "Wind Point", "state": "WI", "lat": "42.7814", "lng": "-87.7721"}, {"name": "Minong", "state": "WI", "lat": "46.0978", "lng": "-91.8263"}, {"name": "Lewis", "state": "WI", "lat": "45.7159", "lng": "-92.3965"}, {"name": "Arkdale", "state": "WI", "lat": "44.0253", "lng": "-89.8861"}, {"name": "Wautoma", "state": "WI", "lat": "44.0667", "lng": "-89.2916"}, {"name": "Black Earth", "state": "WI", "lat": "43.1344", "lng": "-89.7470"}, {"name": "Kewaunee", "state": "WI", "lat": "44.4607", "lng": "-87.5133"}, {"name": "Cumberland", "state": "WI", "lat": "45.5353", "lng": "-92.0269"}, {"name": "North Bay", "state": "WI", "lat": "42.7644", "lng": "-87.7812"}, {"name": "Tilleda", "state": "WI", "lat": "44.8155", "lng": "-88.9125"}, {"name": "Iron Belt", "state": "WI", "lat": "46.4031", "lng": "-90.3193"}, {"name": "Deerfield", "state": "WI", "lat": "43.0492", "lng": "-89.0762"}, {"name": "DeForest", "state": "WI", "lat": "43.2302", "lng": "-89.3437"}, {"name": "Fountain City", "state": "WI", "lat": "44.1201", "lng": "-91.6969"}, {"name": "Bancroft", "state": "WI", "lat": "44.3093", "lng": "-89.5071"}, {"name": "Rothschild", "state": "WI", "lat": "44.8761", "lng": "-89.6173"}, {"name": "Poy Sippi", "state": "WI", "lat": "44.1360", "lng": "-88.9963"}, {"name": "New London", "state": "WI", "lat": "44.3950", "lng": "-88.7394"}, {"name": "Plum City", "state": "WI", "lat": "44.6338", "lng": "-92.1918"}, {"name": "Lancaster", "state": "WI", "lat": "42.8474", "lng": "-90.7065"}, {"name": "Rockdale", "state": "WI", "lat": "42.9717", "lng": "-89.0318"}, {"name": "Doylestown", "state": "WI", "lat": "43.4276", "lng": "-89.1457"}, {"name": "Wyeville", "state": "WI", "lat": "44.0279", "lng": "-90.3861"}, {"name": "Cassville", "state": "WI", "lat": "42.7150", "lng": "-90.9890"}, {"name": "Wauwatosa", "state": "WI", "lat": "43.0615", "lng": "-88.0347"}, {"name": "Diaperville", "state": "WI", "lat": "46.6060", "lng": "-90.7101"}, {"name": "Casco", "state": "WI", "lat": "44.5558", "lng": "-87.6198"}, {"name": "Theresa", "state": "WI", "lat": "43.5164", "lng": "-88.4540"}, {"name": "Centuria", "state": "WI", "lat": "45.4497", "lng": "-92.5579"}, {"name": "Caledonia", "state": "WI", "lat": "42.7986", "lng": "-87.8762"}, {"name": "Mole Lake", "state": "WI", "lat": "45.4859", "lng": "-88.9823"}, {"name": "Edgar", "state": "WI", "lat": "44.9229", "lng": "-89.9626"}, {"name": "Nekoosa", "state": "WI", "lat": "44.3135", "lng": "-89.9073"}, {"name": "Sullivan", "state": "WI", "lat": "43.0118", "lng": "-88.5903"}, {"name": "Greenleaf", "state": "WI", "lat": "44.3170", "lng": "-88.0972"}, {"name": "Tony", "state": "WI", "lat": "45.4804", "lng": "-90.9971"}, {"name": "Junction City", "state": "WI", "lat": "44.5930", "lng": "-89.7679"}, {"name": "Bohners Lake", "state": "WI", "lat": "42.6241", "lng": "-88.2879"}, {"name": "Rockland", "state": "WI", "lat": "43.9075", "lng": "-90.9165"}, {"name": "Boscobel", "state": "WI", "lat": "43.1436", "lng": "-90.6953"}, {"name": "Chili", "state": "WI", "lat": "44.6296", "lng": "-90.3583"}, {"name": "Kennan", "state": "WI", "lat": "45.5301", "lng": "-90.5868"}, {"name": "Plover", "state": "WI", "lat": "44.4614", "lng": "-89.5382"}, {"name": "Hatfield", "state": "WI", "lat": "44.4164", "lng": "-90.7409"}, {"name": "Bell Center", "state": "WI", "lat": "43.2916", "lng": "-90.8256"}, {"name": "Antigo", "state": "WI", "lat": "45.1415", "lng": "-89.1556"}, {"name": "Rome", "state": "WI", "lat": "42.9823", "lng": "-88.6389"}, {"name": "Spencer", "state": "WI", "lat": "44.7544", "lng": "-90.2983"}, {"name": "Lake Delton", "state": "WI", "lat": "43.5932", "lng": "-89.7841"}, {"name": "Hixton", "state": "WI", "lat": "44.3831", "lng": "-91.0149"}, {"name": "Cadott", "state": "WI", "lat": "44.9502", "lng": "-91.1532"}, {"name": "Hingham", "state": "WI", "lat": "43.6465", "lng": "-87.9151"}, {"name": "Cornell", "state": "WI", "lat": "45.1632", "lng": "-91.1497"}, {"name": "Port Wing", "state": "WI", "lat": "46.7756", "lng": "-91.3807"}, {"name": "Oakdale", "state": "WI", "lat": "43.9620", "lng": "-90.3789"}, {"name": "Sussex", "state": "WI", "lat": "43.1340", "lng": "-88.2231"}, {"name": "Galesville", "state": "WI", "lat": "44.0839", "lng": "-91.3580"}, {"name": "Dellwood", "state": "WI", "lat": "43.9545", "lng": "-89.9341"}, {"name": "Middle Village", "state": "WI", "lat": "44.9347", "lng": "-88.7334"}, {"name": "Cochrane", "state": "WI", "lat": "44.2281", "lng": "-91.8391"}, {"name": "Muskego", "state": "WI", "lat": "42.8860", "lng": "-88.1291"}, {"name": "Greenwood", "state": "WI", "lat": "44.7655", "lng": "-90.5988"}, {"name": "Whitefish Bay", "state": "WI", "lat": "43.1132", "lng": "-87.9003"}, {"name": "Altoona", "state": "WI", "lat": "44.8030", "lng": "-91.4387"}, {"name": "Vesper", "state": "WI", "lat": "44.4805", "lng": "-89.9676"}, {"name": "Rice Lake", "state": "WI", "lat": "45.4863", "lng": "-91.7447"}, {"name": "Columbus", "state": "WI", "lat": "43.3354", "lng": "-89.0300"}, {"name": "Campbellsport", "state": "WI", "lat": "43.5976", "lng": "-88.2813"}, {"name": "New Post", "state": "WI", "lat": "45.8965", "lng": "-91.1930"}, {"name": "Warrens", "state": "WI", "lat": "44.1287", "lng": "-90.5157"}, {"name": "Marshall", "state": "WI", "lat": "43.1726", "lng": "-89.0614"}, {"name": "Allenton", "state": "WI", "lat": "43.4204", "lng": "-88.3443"}, {"name": "Brodhead", "state": "WI", "lat": "42.6168", "lng": "-89.3756"}, {"name": "Elk Mound", "state": "WI", "lat": "44.8744", "lng": "-91.6863"}, {"name": "Clam Lake", "state": "WI", "lat": "46.1579", "lng": "-90.9056"}, {"name": "Germantown", "state": "WI", "lat": "43.2343", "lng": "-88.1217"}, {"name": "Bloomington", "state": "WI", "lat": "42.8933", "lng": "-90.9265"}, {"name": "Crivitz", "state": "WI", "lat": "45.2337", "lng": "-88.0066"}, {"name": "Wittenberg", "state": "WI", "lat": "44.8269", "lng": "-89.1664"}, {"name": "Danbury", "state": "WI", "lat": "46.0088", "lng": "-92.3777"}, {"name": "Drummond", "state": "WI", "lat": "46.3436", "lng": "-91.2500"}, {"name": "Gilmanton", "state": "WI", "lat": "44.4738", "lng": "-91.6785"}, {"name": "Mazomanie", "state": "WI", "lat": "43.1731", "lng": "-89.7954"}, {"name": "Poynette", "state": "WI", "lat": "43.3922", "lng": "-89.4058"}, {"name": "Fairchild", "state": "WI", "lat": "44.6036", "lng": "-90.9577"}, {"name": "Elm Grove", "state": "WI", "lat": "43.0479", "lng": "-88.0867"}, {"name": "Laona", "state": "WI", "lat": "45.5597", "lng": "-88.6697"}, {"name": "Plymouth", "state": "WI", "lat": "43.7451", "lng": "-87.9656"}, {"name": "Port Washington", "state": "WI", "lat": "43.3847", "lng": "-87.8852"}, {"name": "Krakow", "state": "WI", "lat": "44.7585", "lng": "-88.2611"}, {"name": "Howards Grove", "state": "WI", "lat": "43.8261", "lng": "-87.8232"}, {"name": "Spring Green", "state": "WI", "lat": "43.1776", "lng": "-90.0688"}, {"name": "Mount Hope", "state": "WI", "lat": "42.9697", "lng": "-90.8596"}, {"name": "Omro", "state": "WI", "lat": "44.0391", "lng": "-88.7378"}, {"name": "Kaukauna", "state": "WI", "lat": "44.2778", "lng": "-88.2645"}, {"name": "Woodman", "state": "WI", "lat": "43.0925", "lng": "-90.7977"}, {"name": "Bellevue", "state": "WI", "lat": "44.4593", "lng": "-87.9554"}, {"name": "Bluffview", "state": "WI", "lat": "43.3641", "lng": "-89.7730"}, {"name": "Legend Lake", "state": "WI", "lat": "44.8909", "lng": "-88.5440"}, {"name": "Cambria", "state": "WI", "lat": "43.5416", "lng": "-89.1108"}, {"name": "Fort Atkinson", "state": "WI", "lat": "42.9253", "lng": "-88.8441"}, {"name": "Bay City", "state": "WI", "lat": "44.5872", "lng": "-92.4574"}, {"name": "River Hills", "state": "WI", "lat": "43.1717", "lng": "-87.9353"}, {"name": "Loyal", "state": "WI", "lat": "44.7366", "lng": "-90.4959"}, {"name": "Fitchburg", "state": "WI", "lat": "42.9859", "lng": "-89.4255"}, {"name": "Norwalk", "state": "WI", "lat": "43.8342", "lng": "-90.6269"}, {"name": "Chippewa Falls", "state": "WI", "lat": "44.9359", "lng": "-91.3902"}, {"name": "Burlington", "state": "WI", "lat": "42.6749", "lng": "-88.2724"}, {"name": "Appleton", "state": "WI", "lat": "44.2774", "lng": "-88.3894"}, {"name": "Edgerton", "state": "WI", "lat": "42.8386", "lng": "-89.0698"}, {"name": "Scandinavia", "state": "WI", "lat": "44.4608", "lng": "-89.1460"}, {"name": "Sturtevant", "state": "WI", "lat": "42.6995", "lng": "-87.9019"}, {"name": "Knowlton", "state": "WI", "lat": "44.7189", "lng": "-89.6803"}, {"name": "Elroy", "state": "WI", "lat": "43.7420", "lng": "-90.2705"}, {"name": "Rosholt", "state": "WI", "lat": "44.6300", "lng": "-89.3052"}, {"name": "Chilton", "state": "WI", "lat": "44.0293", "lng": "-88.1625"}, {"name": "Barneveld", "state": "WI", "lat": "43.0117", "lng": "-89.8968"}, {"name": "Arcadia", "state": "WI", "lat": "44.2486", "lng": "-91.4921"}, {"name": "Coon Valley", "state": "WI", "lat": "43.7024", "lng": "-91.0112"}, {"name": "Franklin", "state": "WI", "lat": "42.8854", "lng": "-88.0104"}, {"name": "Blue River", "state": "WI", "lat": "43.1844", "lng": "-90.5718"}, {"name": "Montreal", "state": "WI", "lat": "46.4312", "lng": "-90.2382"}, {"name": "West Bend", "state": "WI", "lat": "43.4184", "lng": "-88.1823"}, {"name": "Elmwood Park", "state": "WI", "lat": "42.6917", "lng": "-87.8223"}, {"name": "Athens", "state": "WI", "lat": "45.0349", "lng": "-90.0792"}, {"name": "New Richmond", "state": "WI", "lat": "45.1229", "lng": "-92.5339"}, {"name": "Baileys Harbor", "state": "WI", "lat": "45.0659", "lng": "-87.1330"}, {"name": "Merrimac", "state": "WI", "lat": "43.3741", "lng": "-89.6272"}, {"name": "Oregon", "state": "WI", "lat": "42.9252", "lng": "-89.3887"}, {"name": "Downing", "state": "WI", "lat": "45.0498", "lng": "-92.1243"}, {"name": "Catawba", "state": "WI", "lat": "45.5371", "lng": "-90.5335"}, {"name": "Bowler", "state": "WI", "lat": "44.8627", "lng": "-88.9814"}, {"name": "Wisconsin Rapids", "state": "WI", "lat": "44.3928", "lng": "-89.8265"}, {"name": "Tustin", "state": "WI", "lat": "44.1698", "lng": "-88.8960"}, {"name": "Cuba City", "state": "WI", "lat": "42.6036", "lng": "-90.4318"}, {"name": "Webster", "state": "WI", "lat": "45.8798", "lng": "-92.3628"}, {"name": "Lone Rock", "state": "WI", "lat": "43.1857", "lng": "-90.2012"}, {"name": "Pittsville", "state": "WI", "lat": "44.4390", "lng": "-90.1301"}, {"name": "Shorewood Hills", "state": "WI", "lat": "43.0788", "lng": "-89.4470"}, {"name": "Fox Point", "state": "WI", "lat": "43.1581", "lng": "-87.9013"}, {"name": "Winter", "state": "WI", "lat": "45.8221", "lng": "-91.0130"}, {"name": "Lake Geneva", "state": "WI", "lat": "42.5825", "lng": "-88.4282"}, {"name": "Coleman", "state": "WI", "lat": "45.0695", "lng": "-88.0348"}, {"name": "Springfield", "state": "WI", "lat": "42.6407", "lng": "-88.4135"}, {"name": "Marengo", "state": "WI", "lat": "46.4219", "lng": "-90.8081"}, {"name": "Siren", "state": "WI", "lat": "45.7826", "lng": "-92.3823"}, {"name": "Argonne", "state": "WI", "lat": "45.6582", "lng": "-88.8777"}, {"name": "Packwaukee", "state": "WI", "lat": "43.7653", "lng": "-89.4599"}, {"name": "Dodgeville", "state": "WI", "lat": "42.9660", "lng": "-90.1297"}, {"name": "Marathon City", "state": "WI", "lat": "44.9379", "lng": "-89.8436"}, {"name": "St. Joseph", "state": "WI", "lat": "43.7855", "lng": "-91.0436"}, {"name": "Cascade", "state": "WI", "lat": "43.6598", "lng": "-88.0075"}, {"name": "Turtle Lake", "state": "WI", "lat": "45.3934", "lng": "-92.1451"}, {"name": "Green Valley", "state": "WI", "lat": "44.7969", "lng": "-88.2682"}, {"name": "Beloit", "state": "WI", "lat": "42.5230", "lng": "-89.0184"}, {"name": "Bear Creek", "state": "WI", "lat": "44.5313", "lng": "-88.7275"}, {"name": "Glen Haven", "state": "WI", "lat": "42.8313", "lng": "-91.0633"}, {"name": "South Milwaukee", "state": "WI", "lat": "42.9120", "lng": "-87.8627"}, {"name": "Hager City", "state": "WI", "lat": "44.6012", "lng": "-92.5336"}, {"name": "Saxon", "state": "WI", "lat": "46.4941", "lng": "-90.4100"}, {"name": "Green Bay", "state": "WI", "lat": "44.5150", "lng": "-87.9896"}, {"name": "Browntown", "state": "WI", "lat": "42.5788", "lng": "-89.7894"}, {"name": "Barron", "state": "WI", "lat": "45.4015", "lng": "-91.8476"}, {"name": "Prairie du Sac", "state": "WI", "lat": "43.2920", "lng": "-89.7352"}, {"name": "Suamico", "state": "WI", "lat": "44.6352", "lng": "-88.0664"}, {"name": "Hancock", "state": "WI", "lat": "44.1333", "lng": "-89.5209"}, {"name": "Ettrick", "state": "WI", "lat": "44.1695", "lng": "-91.2650"}, {"name": "Ridgeland", "state": "WI", "lat": "45.2025", "lng": "-91.8965"}, {"name": "Stockholm", "state": "WI", "lat": "44.4852", "lng": "-92.2633"}, {"name": "Weyauwega", "state": "WI", "lat": "44.3240", "lng": "-88.9332"}, {"name": "Cross Plains", "state": "WI", "lat": "43.1146", "lng": "-89.6475"}, {"name": "Jackson", "state": "WI", "lat": "43.3244", "lng": "-88.1668"}, {"name": "Barronett", "state": "WI", "lat": "45.6363", "lng": "-91.9942"}, {"name": "Okauchee Lake", "state": "WI", "lat": "43.1248", "lng": "-88.4408"}, {"name": "Cobb", "state": "WI", "lat": "42.9661", "lng": "-90.3296"}, {"name": "Eagle", "state": "WI", "lat": "42.8790", "lng": "-88.4696"}, {"name": "Eagle Lake", "state": "WI", "lat": "42.7014", "lng": "-88.1291"}, {"name": "Birch Hill", "state": "WI", "lat": "46.5209", "lng": "-90.5555"}, {"name": "Tomahawk", "state": "WI", "lat": "45.4746", "lng": "-89.7228"}, {"name": "Ripon", "state": "WI", "lat": "43.8436", "lng": "-88.8386"}, {"name": "Gordon", "state": "WI", "lat": "46.2409", "lng": "-91.7995"}, {"name": "Merrill", "state": "WI", "lat": "45.1818", "lng": "-89.7004"}, {"name": "Potter", "state": "WI", "lat": "44.1202", "lng": "-88.0991"}, {"name": "Lac La Belle", "state": "WI", "lat": "43.1428", "lng": "-88.5302"}, {"name": "Cottage Grove", "state": "WI", "lat": "43.0908", "lng": "-89.2026"}, {"name": "Ashwaubenon", "state": "WI", "lat": "44.4796", "lng": "-88.0889"}, {"name": "Balsam Lake", "state": "WI", "lat": "45.4585", "lng": "-92.4528"}, {"name": "Curtiss", "state": "WI", "lat": "44.9521", "lng": "-90.4350"}, {"name": "Sandy Hook", "state": "WI", "lat": "42.5466", "lng": "-90.6168"}, {"name": "Glenbeulah", "state": "WI", "lat": "43.7982", "lng": "-88.0465"}, {"name": "Taycheedah", "state": "WI", "lat": "43.8122", "lng": "-88.3914"}, {"name": "Hartford", "state": "WI", "lat": "43.3220", "lng": "-88.3782"}, {"name": "St. Cloud", "state": "WI", "lat": "43.8245", "lng": "-88.1687"}, {"name": "Milton", "state": "WI", "lat": "42.7751", "lng": "-88.9430"}, {"name": "West Salem", "state": "WI", "lat": "43.8989", "lng": "-91.0882"}, {"name": "Tigerton", "state": "WI", "lat": "44.7409", "lng": "-89.0459"}, {"name": "Washburn", "state": "WI", "lat": "46.6769", "lng": "-90.9017"}, {"name": "Adell", "state": "WI", "lat": "43.6214", "lng": "-87.9482"}, {"name": "Wausaukee", "state": "WI", "lat": "45.3780", "lng": "-87.9552"}, {"name": "Phillips", "state": "WI", "lat": "45.6958", "lng": "-90.4018"}, {"name": "Goodman", "state": "WI", "lat": "45.6231", "lng": "-88.3518"}, {"name": "Jefferson", "state": "WI", "lat": "43.0044", "lng": "-88.8084"}, {"name": "Spring Valley", "state": "WI", "lat": "44.8500", "lng": "-92.2443"}, {"name": "White Lake", "state": "WI", "lat": "45.1617", "lng": "-88.7704"}, {"name": "Verona", "state": "WI", "lat": "42.9884", "lng": "-89.5381"}, {"name": "Fox Lake", "state": "WI", "lat": "43.5618", "lng": "-88.9130"}, {"name": "Valders", "state": "WI", "lat": "44.0696", "lng": "-87.8859"}, {"name": "Wauzeka", "state": "WI", "lat": "43.0851", "lng": "-90.8995"}, {"name": "Hurley", "state": "WI", "lat": "46.4462", "lng": "-90.1983"}, {"name": "Madison", "state": "WI", "lat": "43.0827", "lng": "-89.3923"}, {"name": "West Allis", "state": "WI", "lat": "43.0068", "lng": "-88.0296"}, {"name": "Maine", "state": "WI", "lat": "45.0503", "lng": "-89.6823"}, {"name": "Hustler", "state": "WI", "lat": "43.8773", "lng": "-90.2658"}, {"name": "Amery", "state": "WI", "lat": "45.3045", "lng": "-92.3635"}, {"name": "Caroline", "state": "WI", "lat": "44.7220", "lng": "-88.8948"}, {"name": "Reeseville", "state": "WI", "lat": "43.3062", "lng": "-88.8445"}, {"name": "Iron River", "state": "WI", "lat": "46.5670", "lng": "-91.4070"}, {"name": "Bagley", "state": "WI", "lat": "42.9015", "lng": "-91.0974"}, {"name": "Gratiot", "state": "WI", "lat": "42.5801", "lng": "-90.0235"}, {"name": "Osceola", "state": "WI", "lat": "45.3194", "lng": "-92.6935"}, {"name": "Neopit", "state": "WI", "lat": "44.9877", "lng": "-88.8227"}, {"name": "New Glarus", "state": "WI", "lat": "42.8130", "lng": "-89.6337"}, {"name": "Stanley", "state": "WI", "lat": "44.9597", "lng": "-90.9424"}, {"name": "Stetsonville", "state": "WI", "lat": "45.0772", "lng": "-90.3143"}, {"name": "Montello", "state": "WI", "lat": "43.7938", "lng": "-89.3336"}, {"name": "Prentice", "state": "WI", "lat": "45.5408", "lng": "-90.2898"}, {"name": "Mondovi", "state": "WI", "lat": "44.5712", "lng": "-91.6667"}, {"name": "Herbster", "state": "WI", "lat": "46.8421", "lng": "-91.2419"}, {"name": "Clayton", "state": "WI", "lat": "45.3260", "lng": "-92.1710"}, {"name": "Como", "state": "WI", "lat": "42.6114", "lng": "-88.4914"}, {"name": "Brown Deer", "state": "WI", "lat": "43.1743", "lng": "-87.9750"}, {"name": "Woodruff", "state": "WI", "lat": "45.8946", "lng": "-89.6913"}, {"name": "Boaz", "state": "WI", "lat": "43.3299", "lng": "-90.5277"}, {"name": "Marquette", "state": "WI", "lat": "43.7464", "lng": "-89.1384"}, {"name": "Endeavor", "state": "WI", "lat": "43.7163", "lng": "-89.4695"}, {"name": "Mauston", "state": "WI", "lat": "43.7995", "lng": "-90.0775"}, {"name": "Oliver", "state": "WI", "lat": "46.6493", "lng": "-92.1883"}, {"name": "Howard", "state": "WI", "lat": "44.5703", "lng": "-88.0921"}, {"name": "Port Edwards", "state": "WI", "lat": "44.3484", "lng": "-89.8540"}, {"name": "Fox Crossing", "state": "WI", "lat": "44.2236", "lng": "-88.4787"}, {"name": "Westboro", "state": "WI", "lat": "45.3608", "lng": "-90.2934"}, {"name": "Gays Mills", "state": "WI", "lat": "43.3220", "lng": "-90.8489"}, {"name": "Sobieski", "state": "WI", "lat": "44.7226", "lng": "-88.0659"}, {"name": "Spooner", "state": "WI", "lat": "45.8271", "lng": "-91.8860"}, {"name": "Elderon", "state": "WI", "lat": "44.7843", "lng": "-89.2480"}, {"name": "Big Bend", "state": "WI", "lat": "42.9023", "lng": "-88.2122"}, {"name": "Lannon", "state": "WI", "lat": "43.1522", "lng": "-88.1604"}, {"name": "Glen Flora", "state": "WI", "lat": "45.4970", "lng": "-90.8935"}, {"name": "Eureka", "state": "WI", "lat": "44.0073", "lng": "-88.8426"}, {"name": "Poplar", "state": "WI", "lat": "46.5828", "lng": "-91.7836"}, {"name": "Sturgeon Bay", "state": "WI", "lat": "44.8228", "lng": "-87.3661"}, {"name": "Tainter Lake", "state": "WI", "lat": "44.9882", "lng": "-91.8437"}, {"name": "Abbotsford", "state": "WI", "lat": "44.9433", "lng": "-90.3163"}, {"name": "Harrison", "state": "WI", "lat": "44.1935", "lng": "-88.2941"}, {"name": "Darien", "state": "WI", "lat": "42.6007", "lng": "-88.7129"}, {"name": "Glidden", "state": "WI", "lat": "46.1346", "lng": "-90.5721"}, {"name": "Sheldon", "state": "WI", "lat": "45.3119", "lng": "-90.9567"}, {"name": "Kimberly", "state": "WI", "lat": "44.2670", "lng": "-88.3377"}, {"name": "Greenbush", "state": "WI", "lat": "43.7778", "lng": "-88.0902"}, {"name": "Iola", "state": "WI", "lat": "44.5091", "lng": "-89.1248"}, {"name": "Yuba", "state": "WI", "lat": "43.5364", "lng": "-90.4267"}, {"name": "North Fond du Lac", "state": "WI", "lat": "43.8107", "lng": "-88.4861"}, {"name": "Allouez", "state": "WI", "lat": "44.4721", "lng": "-88.0261"}, {"name": "Dunbar", "state": "WI", "lat": "45.6471", "lng": "-88.1754"}, {"name": "Auburndale", "state": "WI", "lat": "44.6266", "lng": "-90.0144"}, {"name": "Soldiers Grove", "state": "WI", "lat": "43.3921", "lng": "-90.7735"}, {"name": "La Farge", "state": "WI", "lat": "43.5782", "lng": "-90.6381"}, {"name": "McFarland", "state": "WI", "lat": "43.0196", "lng": "-89.2868"}, {"name": "Waumandee", "state": "WI", "lat": "44.3024", "lng": "-91.7051"}, {"name": "Potosi", "state": "WI", "lat": "42.6875", "lng": "-90.7107"}, {"name": "Fall River", "state": "WI", "lat": "43.3856", "lng": "-89.0456"}, {"name": "Cambridge", "state": "WI", "lat": "43.0071", "lng": "-89.0214"}, {"name": "Gresham", "state": "WI", "lat": "44.8478", "lng": "-88.7856"}, {"name": "Zoar", "state": "WI", "lat": "45.0178", "lng": "-88.8945"}, {"name": "Wrightstown", "state": "WI", "lat": "44.3263", "lng": "-88.1758"}, {"name": "Two Rivers", "state": "WI", "lat": "44.1564", "lng": "-87.5824"}, {"name": "Somerset", "state": "WI", "lat": "45.1269", "lng": "-92.6756"}, {"name": "Delavan Lake", "state": "WI", "lat": "42.5987", "lng": "-88.6177"}, {"name": "Clintonville", "state": "WI", "lat": "44.6221", "lng": "-88.7513"}, {"name": "Stoddard", "state": "WI", "lat": "43.6622", "lng": "-91.2181"}, {"name": "Benton", "state": "WI", "lat": "42.5702", "lng": "-90.3835"}, {"name": "Wisconsin Dells", "state": "WI", "lat": "43.6336", "lng": "-89.7752"}, {"name": "Rhinelander", "state": "WI", "lat": "45.6360", "lng": "-89.4256"}, {"name": "Redgranite", "state": "WI", "lat": "44.0513", "lng": "-89.1058"}, {"name": "Taylor", "state": "WI", "lat": "44.3217", "lng": "-91.1206"}, {"name": "Sextonville", "state": "WI", "lat": "43.2797", "lng": "-90.2922"}, {"name": "Rock Springs", "state": "WI", "lat": "43.4790", "lng": "-89.9177"}, {"name": "Angelica", "state": "WI", "lat": "44.6750", "lng": "-88.3215"}, {"name": "Franks Field", "state": "WI", "lat": "46.5522", "lng": "-90.5989"}, {"name": "Coloma", "state": "WI", "lat": "44.0386", "lng": "-89.5310"}, {"name": "Fond du Lac", "state": "WI", "lat": "43.7718", "lng": "-88.4397"}, {"name": "Dousman", "state": "WI", "lat": "43.0088", "lng": "-88.4760"}, {"name": "Thorp", "state": "WI", "lat": "44.9580", "lng": "-90.8023"}, {"name": "Cameron", "state": "WI", "lat": "45.4057", "lng": "-91.7423"}, {"name": "Rib Lake", "state": "WI", "lat": "45.3196", "lng": "-90.2031"}, {"name": "Richland Center", "state": "WI", "lat": "43.3403", "lng": "-90.3840"}, {"name": "Somers", "state": "WI", "lat": "42.6411", "lng": "-87.8919"}, {"name": "Osseo", "state": "WI", "lat": "44.5795", "lng": "-91.2120"}, {"name": "Frederic", "state": "WI", "lat": "45.6548", "lng": "-92.4647"}, {"name": "Oakfield", "state": "WI", "lat": "43.6843", "lng": "-88.5476"}, {"name": "Alma", "state": "WI", "lat": "44.3366", "lng": "-91.9222"}, {"name": "Cable", "state": "WI", "lat": "46.2013", "lng": "-91.2933"}, {"name": "Potter Lake", "state": "WI", "lat": "42.8196", "lng": "-88.3487"}, {"name": "Bangor", "state": "WI", "lat": "43.8937", "lng": "-90.9935"}, {"name": "Kenosha", "state": "WI", "lat": "42.5864", "lng": "-87.8762"}, {"name": "Marion", "state": "WI", "lat": "44.6744", "lng": "-88.8902"}, {"name": "Kiel", "state": "WI", "lat": "43.9167", "lng": "-88.0266"}, {"name": "Dickeyville", "state": "WI", "lat": "42.6248", "lng": "-90.5914"}, {"name": "Dalton", "state": "WI", "lat": "43.6562", "lng": "-89.2069"}, {"name": "Augusta", "state": "WI", "lat": "44.6784", "lng": "-91.1203"}, {"name": "Boyceville", "state": "WI", "lat": "45.0427", "lng": "-92.0384"}, {"name": "Blanchardville", "state": "WI", "lat": "42.8094", "lng": "-89.8606"}, {"name": "Merrillan", "state": "WI", "lat": "44.4504", "lng": "-90.8355"}, {"name": "Milltown", "state": "WI", "lat": "45.5261", "lng": "-92.5015"}, {"name": "Random Lake", "state": "WI", "lat": "43.5541", "lng": "-87.9548"}, {"name": "Racine", "state": "WI", "lat": "42.7274", "lng": "-87.8135"}, {"name": "Prairie Farm", "state": "WI", "lat": "45.2368", "lng": "-91.9805"}, {"name": "Pleasant Prairie", "state": "WI", "lat": "42.5266", "lng": "-87.8895"}, {"name": "Arena", "state": "WI", "lat": "43.1636", "lng": "-89.9104"}, {"name": "Conrath", "state": "WI", "lat": "45.3842", "lng": "-91.0357"}, {"name": "Blue Mounds", "state": "WI", "lat": "43.0180", "lng": "-89.8265"}, {"name": "West Milwaukee", "state": "WI", "lat": "43.0124", "lng": "-87.9710"}, {"name": "Luck", "state": "WI", "lat": "45.5718", "lng": "-92.4667"}, {"name": "Cataract", "state": "WI", "lat": "44.0867", "lng": "-90.8384"}, {"name": "Florence", "state": "WI", "lat": "45.9250", "lng": "-88.2525"}, {"name": "Keshena", "state": "WI", "lat": "44.8697", "lng": "-88.6002"}, {"name": "Chain O' Lakes", "state": "WI", "lat": "44.3318", "lng": "-89.1671"}, {"name": "Linden", "state": "WI", "lat": "42.9186", "lng": "-90.2742"}, {"name": "North Hudson", "state": "WI", "lat": "44.9976", "lng": "-92.7559"}, {"name": "Genoa City", "state": "WI", "lat": "42.5065", "lng": "-88.3193"}, {"name": "Withee", "state": "WI", "lat": "44.9508", "lng": "-90.5989"}, {"name": "Avoca", "state": "WI", "lat": "43.1906", "lng": "-90.3260"}, {"name": "Rosendale", "state": "WI", "lat": "43.8080", "lng": "-88.6731"}, {"name": "Egg Harbor", "state": "WI", "lat": "45.0528", "lng": "-87.2826"}, {"name": "Eden", "state": "WI", "lat": "43.6928", "lng": "-88.3642"}, {"name": "Lynxville", "state": "WI", "lat": "43.2493", "lng": "-91.0464"}, {"name": "Forest Junction", "state": "WI", "lat": "44.2139", "lng": "-88.1496"}, {"name": "Niagara", "state": "WI", "lat": "45.7801", "lng": "-87.9991"}, {"name": "Sayner", "state": "WI", "lat": "45.9910", "lng": "-89.5332"}, {"name": "Solon Springs", "state": "WI", "lat": "46.3495", "lng": "-91.8208"}, {"name": "Boulder Junction", "state": "WI", "lat": "46.1126", "lng": "-89.6452"}, {"name": "Brice Prairie", "state": "WI", "lat": "43.9375", "lng": "-91.3073"}, {"name": "Jump River", "state": "WI", "lat": "45.3555", "lng": "-90.7966"}, {"name": "Kellnersville", "state": "WI", "lat": "44.2253", "lng": "-87.8021"}, {"name": "Navarino", "state": "WI", "lat": "44.6108", "lng": "-88.4936"}, {"name": "Kewaskum", "state": "WI", "lat": "43.5177", "lng": "-88.2306"}, {"name": "Argyle", "state": "WI", "lat": "42.7013", "lng": "-89.8659"}, {"name": "Chaseburg", "state": "WI", "lat": "43.6598", "lng": "-91.0970"}, {"name": "Darlington", "state": "WI", "lat": "42.6780", "lng": "-90.1189"}, {"name": "Milwaukee", "state": "WI", "lat": "43.0642", "lng": "-87.9673"}, {"name": "Mount Horeb", "state": "WI", "lat": "43.0060", "lng": "-89.7317"}, {"name": "Hortonville", "state": "WI", "lat": "44.3368", "lng": "-88.6361"}, {"name": "Lake Mills", "state": "WI", "lat": "43.0774", "lng": "-88.9055"}, {"name": "Edmund", "state": "WI", "lat": "42.9662", "lng": "-90.2644"}, {"name": "Lowell", "state": "WI", "lat": "43.3363", "lng": "-88.8183"}, {"name": "Oxford", "state": "WI", "lat": "43.7798", "lng": "-89.5625"}, {"name": "St. Francis", "state": "WI", "lat": "42.9716", "lng": "-87.8729"}, {"name": "Elkhart Lake", "state": "WI", "lat": "43.8321", "lng": "-88.0147"}, {"name": "Star Prairie", "state": "WI", "lat": "45.1975", "lng": "-92.5321"}, {"name": "Genoa", "state": "WI", "lat": "43.5734", "lng": "-91.2261"}, {"name": "Friendship", "state": "WI", "lat": "43.9720", "lng": "-89.8202"}, {"name": "Medford", "state": "WI", "lat": "45.1366", "lng": "-90.3437"}, {"name": "Pardeeville", "state": "WI", "lat": "43.5359", "lng": "-89.3010"}, {"name": "Randolph", "state": "WI", "lat": "43.5396", "lng": "-89.0029"}, {"name": "Forestville", "state": "WI", "lat": "44.6907", "lng": "-87.4787"}, {"name": "Beaver Dam", "state": "WI", "lat": "43.4688", "lng": "-88.8311"}, {"name": "Kieler", "state": "WI", "lat": "42.5823", "lng": "-90.6051"}, {"name": "Elcho", "state": "WI", "lat": "45.4353", "lng": "-89.1853"}, {"name": "Belleville", "state": "WI", "lat": "42.8643", "lng": "-89.5402"}, {"name": "Post Lake", "state": "WI", "lat": "45.4352", "lng": "-89.0921"}, {"name": "Little Sturgeon", "state": "WI", "lat": "44.8422", "lng": "-87.5743"}, {"name": "Ellison Bay", "state": "WI", "lat": "45.2551", "lng": "-87.0729"}, {"name": "Mount Pleasant", "state": "WI", "lat": "42.7129", "lng": "-87.8875"}, {"name": "Hebron", "state": "WI", "lat": "42.9232", "lng": "-88.6916"}, {"name": "Arlington", "state": "WI", "lat": "43.3350", "lng": "-89.3725"}, {"name": "King", "state": "WI", "lat": "44.3400", "lng": "-89.1231"}, {"name": "Knapp", "state": "WI", "lat": "44.9514", "lng": "-92.0769"}, {"name": "Prescott", "state": "WI", "lat": "44.7522", "lng": "-92.7882"}, {"name": "Dane", "state": "WI", "lat": "43.2499", "lng": "-89.4996"}, {"name": "Lake Sherwood", "state": "WI", "lat": "44.2057", "lng": "-89.7939"}, {"name": "Buffalo City", "state": "WI", "lat": "44.2237", "lng": "-91.8654"}, {"name": "Delafield", "state": "WI", "lat": "43.0720", "lng": "-88.3913"}, {"name": "Millston", "state": "WI", "lat": "44.1885", "lng": "-90.6447"}, {"name": "Mountain", "state": "WI", "lat": "45.1864", "lng": "-88.4681"}, {"name": "Wilson", "state": "WI", "lat": "44.9586", "lng": "-92.1705"}, {"name": "Rochester", "state": "WI", "lat": "42.7338", "lng": "-88.2489"}, {"name": "Glenwood City", "state": "WI", "lat": "45.0570", "lng": "-92.1714"}, {"name": "Readstown", "state": "WI", "lat": "43.4485", "lng": "-90.7590"}, {"name": "Sherwood", "state": "WI", "lat": "44.1765", "lng": "-88.2756"}, {"name": "Waupaca", "state": "WI", "lat": "44.3508", "lng": "-89.0721"}, {"name": "Brooklyn", "state": "WI", "lat": "42.8524", "lng": "-89.3723"}, {"name": "Waubeka", "state": "WI", "lat": "43.4702", "lng": "-87.9921"}, {"name": "Green Lake", "state": "WI", "lat": "43.8441", "lng": "-88.9560"}, {"name": "Radisson", "state": "WI", "lat": "45.7684", "lng": "-91.2178"}, {"name": "Ogema", "state": "WI", "lat": "45.4510", "lng": "-90.2927"}, {"name": "Cazenovia", "state": "WI", "lat": "43.5237", "lng": "-90.1991"}, {"name": "Mount Calvary", "state": "WI", "lat": "43.8263", "lng": "-88.2461"}, {"name": "Mosinee", "state": "WI", "lat": "44.7874", "lng": "-89.6839"}, {"name": "Downsville", "state": "WI", "lat": "44.7708", "lng": "-91.9260"}, {"name": "Tunnel City", "state": "WI", "lat": "44.0050", "lng": "-90.5679"}, {"name": "Hazel Green", "state": "WI", "lat": "42.5341", "lng": "-90.4362"}, {"name": "Colby", "state": "WI", "lat": "44.9107", "lng": "-90.3159"}, {"name": "Ingram", "state": "WI", "lat": "45.5056", "lng": "-90.8137"}, {"name": "Newald", "state": "WI", "lat": "45.7396", "lng": "-88.7005"}, {"name": "Strum", "state": "WI", "lat": "44.5532", "lng": "-91.3876"}, {"name": "Lake Ivanhoe", "state": "WI", "lat": "42.5800", "lng": "-88.3415"}, {"name": "Lyndon Station", "state": "WI", "lat": "43.7088", "lng": "-89.8937"}, {"name": "Winneconne", "state": "WI", "lat": "44.1112", "lng": "-88.7114"}, {"name": "Baldwin", "state": "WI", "lat": "44.9540", "lng": "-92.3709"}, {"name": "Diamond Bluff", "state": "WI", "lat": "44.6489", "lng": "-92.6189"}, {"name": "Grand Marsh", "state": "WI", "lat": "43.8852", "lng": "-89.7072"}, {"name": "Pembine", "state": "WI", "lat": "45.6367", "lng": "-87.9918"}, {"name": "Union Grove", "state": "WI", "lat": "42.6863", "lng": "-88.0495"}, {"name": "Hales Corners", "state": "WI", "lat": "42.9410", "lng": "-88.0491"}, {"name": "Winchester", "state": "WI", "lat": "44.1982", "lng": "-88.6599"}, {"name": "Oostburg", "state": "WI", "lat": "43.6237", "lng": "-87.7888"}, {"name": "Ixonia", "state": "WI", "lat": "43.1396", "lng": "-88.5963"}, {"name": "Necedah", "state": "WI", "lat": "44.0233", "lng": "-90.0717"}, {"name": "Newburg", "state": "WI", "lat": "43.4321", "lng": "-88.0477"}, {"name": "Friesland", "state": "WI", "lat": "43.5886", "lng": "-89.0669"}, {"name": "Shorewood", "state": "WI", "lat": "43.0914", "lng": "-87.8864"}, {"name": "Dorchester", "state": "WI", "lat": "45.0025", "lng": "-90.3308"}, {"name": "Wheeler", "state": "WI", "lat": "45.0441", "lng": "-91.9037"}, {"name": "Park Falls", "state": "WI", "lat": "45.9348", "lng": "-90.4463"}, {"name": "Brillion", "state": "WI", "lat": "44.1755", "lng": "-88.0708"}, {"name": "Manawa", "state": "WI", "lat": "44.4613", "lng": "-88.9204"}, {"name": "Weyerhaeuser", "state": "WI", "lat": "45.4251", "lng": "-91.4145"}, {"name": "Steuben", "state": "WI", "lat": "43.1833", "lng": "-90.8569"}, {"name": "Crandon", "state": "WI", "lat": "45.5686", "lng": "-88.8973"}, {"name": "Haugen", "state": "WI", "lat": "45.6078", "lng": "-91.7789"}, {"name": "Pound", "state": "WI", "lat": "45.0956", "lng": "-88.0334"}, {"name": "Horicon", "state": "WI", "lat": "43.4453", "lng": "-88.6403"}, {"name": "Owen", "state": "WI", "lat": "44.9485", "lng": "-90.5621"}, {"name": "Belmont", "state": "WI", "lat": "42.7380", "lng": "-90.3347"}, {"name": "Rio", "state": "WI", "lat": "43.4497", "lng": "-89.2388"}, {"name": "Algoma", "state": "WI", "lat": "44.6057", "lng": "-87.4465"}, {"name": "Monroe", "state": "WI", "lat": "42.6030", "lng": "-89.6381"}, {"name": "Albany", "state": "WI", "lat": "42.7069", "lng": "-89.4367"}, {"name": "Eland", "state": "WI", "lat": "44.8670", "lng": "-89.2090"}, {"name": "Brule", "state": "WI", "lat": "46.5589", "lng": "-91.5712"}, {"name": "Viola", "state": "WI", "lat": "43.5070", "lng": "-90.6735"}, {"name": "Luxemburg", "state": "WI", "lat": "44.5449", "lng": "-87.7065"}, {"name": "Hollandale", "state": "WI", "lat": "42.8756", "lng": "-89.9342"}, {"name": "Blair", "state": "WI", "lat": "44.3083", "lng": "-91.2425"}, {"name": "Monticello", "state": "WI", "lat": "42.7456", "lng": "-89.5899"}, {"name": "Williams Bay", "state": "WI", "lat": "42.5770", "lng": "-88.5432"}, {"name": "Sheboygan", "state": "WI", "lat": "43.7403", "lng": "-87.7316"}, {"name": "Rudolph", "state": "WI", "lat": "44.4972", "lng": "-89.8018"}, {"name": "Rib Mountain", "state": "WI", "lat": "44.9196", "lng": "-89.6771"}, {"name": "St. Croix Falls", "state": "WI", "lat": "45.4101", "lng": "-92.6268"}, {"name": "Stevens Point", "state": "WI", "lat": "44.5241", "lng": "-89.5508"}, {"name": "Sparta", "state": "WI", "lat": "43.9376", "lng": "-90.8130"}, {"name": "Plainfield", "state": "WI", "lat": "44.2175", "lng": "-89.4970"}, {"name": "Fremont", "state": "WI", "lat": "44.2602", "lng": "-88.8715"}, {"name": "Tomah", "state": "WI", "lat": "43.9880", "lng": "-90.4996"}, {"name": "Waukesha", "state": "WI", "lat": "43.0087", "lng": "-88.2464"}, {"name": "Adams", "state": "WI", "lat": "43.9554", "lng": "-89.8169"}, {"name": "Dyckesville", "state": "WI", "lat": "44.6404", "lng": "-87.7656"}, {"name": "La Crosse", "state": "WI", "lat": "43.8241", "lng": "-91.2268"}, {"name": "Trempealeau", "state": "WI", "lat": "44.0029", "lng": "-91.4285"}, {"name": "Brookfield", "state": "WI", "lat": "43.0640", "lng": "-88.1231"}, {"name": "Suring", "state": "WI", "lat": "45.0007", "lng": "-88.3693"}, {"name": "Hilbert", "state": "WI", "lat": "44.1415", "lng": "-88.1611"}, {"name": "Viroqua", "state": "WI", "lat": "43.5582", "lng": "-90.8863"}, {"name": "Clinton", "state": "WI", "lat": "42.5574", "lng": "-88.8679"}, {"name": "Greenfield", "state": "WI", "lat": "42.9619", "lng": "-88.0051"}, {"name": "Middleton", "state": "WI", "lat": "43.1064", "lng": "-89.5058"}, {"name": "Ontario", "state": "WI", "lat": "43.7222", "lng": "-90.5941"}, {"name": "Muscoda", "state": "WI", "lat": "43.1873", "lng": "-90.4334"}, {"name": "Browns Lake", "state": "WI", "lat": "42.6908", "lng": "-88.2308"}, {"name": "Lake Arrowhead", "state": "WI", "lat": "44.2030", "lng": "-89.8388"}, {"name": "Boyd", "state": "WI", "lat": "44.9533", "lng": "-91.0398"}, {"name": "Lebanon", "state": "WI", "lat": "43.2588", "lng": "-88.6294"}, {"name": "Platteville", "state": "WI", "lat": "42.7279", "lng": "-90.4675"}, {"name": "Cudahy", "state": "WI", "lat": "42.9467", "lng": "-87.8641"}, {"name": "Lime Ridge", "state": "WI", "lat": "43.4676", "lng": "-90.1577"}, {"name": "Chelsea", "state": "WI", "lat": "45.2926", "lng": "-90.3054"}, {"name": "Janesville", "state": "WI", "lat": "42.6855", "lng": "-89.0136"}, {"name": "Abrams", "state": "WI", "lat": "44.7796", "lng": "-88.0605"}, {"name": "French Island", "state": "WI", "lat": "43.8592", "lng": "-91.2614"}, {"name": "Lauderdale Lakes", "state": "WI", "lat": "42.7709", "lng": "-88.5778"}, {"name": "Mellen", "state": "WI", "lat": "46.3240", "lng": "-90.6607"}, {"name": "Hayward", "state": "WI", "lat": "46.0094", "lng": "-91.4826"}, {"name": "Dale", "state": "WI", "lat": "44.2757", "lng": "-88.6729"}, {"name": "Lena", "state": "WI", "lat": "44.9530", "lng": "-88.0476"}, {"name": "Colfax", "state": "WI", "lat": "44.9970", "lng": "-91.7264"}, {"name": "Northport", "state": "WI", "lat": "44.4082", "lng": "-88.8038"}, {"name": "North Freedom", "state": "WI", "lat": "43.4590", "lng": "-89.8603"}, {"name": "Fontana-on-Geneva Lake", "state": "WI", "lat": "42.5453", "lng": "-88.5701"}, {"name": "Hanover", "state": "WI", "lat": "42.6388", "lng": "-89.1712"}, {"name": "La Valle", "state": "WI", "lat": "43.5831", "lng": "-90.1304"}, {"name": "Watertown", "state": "WI", "lat": "43.1893", "lng": "-88.7285"}, {"name": "Summit", "state": "WI", "lat": "43.0504", "lng": "-88.4815"}, {"name": "Reserve", "state": "WI", "lat": "45.8338", "lng": "-91.3545"}, {"name": "Mount Sterling", "state": "WI", "lat": "43.3163", "lng": "-90.9292"}, {"name": "Whiting", "state": "WI", "lat": "44.4907", "lng": "-89.5600"}, {"name": "Lake Wazeecha", "state": "WI", "lat": "44.3709", "lng": "-89.7551"}, {"name": "Eagle River", "state": "WI", "lat": "45.9250", "lng": "-89.2560"}, {"name": "Mercer", "state": "WI", "lat": "46.1636", "lng": "-90.0527"}, {"name": "Oconto Falls", "state": "WI", "lat": "44.8738", "lng": "-88.1444"}, {"name": "Minocqua", "state": "WI", "lat": "45.8788", "lng": "-89.7032"}, {"name": "Marinette", "state": "WI", "lat": "45.0869", "lng": "-87.6327"}, {"name": "Amberg", "state": "WI", "lat": "45.5062", "lng": "-87.9874"}, {"name": "Ironton", "state": "WI", "lat": "43.5452", "lng": "-90.1436"}, {"name": "Aniwa", "state": "WI", "lat": "45.0117", "lng": "-89.2089"}, {"name": "Waterford", "state": "WI", "lat": "42.7646", "lng": "-88.2158"}, {"name": "Shell Lake", "state": "WI", "lat": "45.7322", "lng": "-91.9033"}, {"name": "Arpin", "state": "WI", "lat": "44.5393", "lng": "-90.0315"}, {"name": "Shullsburg", "state": "WI", "lat": "42.5733", "lng": "-90.2347"}, {"name": "Nichols", "state": "WI", "lat": "44.5672", "lng": "-88.4677"}, {"name": "Ephraim", "state": "WI", "lat": "45.1589", "lng": "-87.1667"}, {"name": "Juda", "state": "WI", "lat": "42.5900", "lng": "-89.5092"}, {"name": "Springbrook", "state": "WI", "lat": "45.9468", "lng": "-91.6890"}, {"name": "Ogdensburg", "state": "WI", "lat": "44.4535", "lng": "-89.0316"}, {"name": "Big Falls", "state": "WI", "lat": "44.6175", "lng": "-89.0166"}, {"name": "Grand View", "state": "WI", "lat": "46.3681", "lng": "-91.1035"}, {"name": "Stockbridge", "state": "WI", "lat": "44.0717", "lng": "-88.3105"}, {"name": "Collins", "state": "WI", "lat": "44.0827", "lng": "-87.9839"}, {"name": "Oshkosh", "state": "WI", "lat": "44.0228", "lng": "-88.5617"}, {"name": "Trego", "state": "WI", "lat": "45.9049", "lng": "-91.8286"}, {"name": "Hobart", "state": "WI", "lat": "44.4966", "lng": "-88.1602"}, {"name": "Loganville", "state": "WI", "lat": "43.4384", "lng": "-90.0369"}, {"name": "Ashland", "state": "WI", "lat": "46.5801", "lng": "-90.8715"}, {"name": "De Soto", "state": "WI", "lat": "43.4283", "lng": "-91.1963"}, {"name": "Sheboygan Falls", "state": "WI", "lat": "43.7290", "lng": "-87.8266"}, {"name": "Holmen", "state": "WI", "lat": "43.9701", "lng": "-91.2671"}, {"name": "Hudson", "state": "WI", "lat": "44.9639", "lng": "-92.7316"}, {"name": "Butler", "state": "WI", "lat": "43.1084", "lng": "-88.0714"}, {"name": "Pine River", "state": "WI", "lat": "44.1483", "lng": "-89.0757"}, {"name": "Wind Lake", "state": "WI", "lat": "42.8230", "lng": "-88.1573"}, {"name": "Westby", "state": "WI", "lat": "43.6530", "lng": "-90.8584"}, {"name": "Cornucopia", "state": "WI", "lat": "46.8567", "lng": "-91.1082"}, {"name": "Pepin", "state": "WI", "lat": "44.4423", "lng": "-92.1483"}, {"name": "Wiota", "state": "WI", "lat": "42.6367", "lng": "-89.9493"}, {"name": "Portage", "state": "WI", "lat": "43.5489", "lng": "-89.4658"}, {"name": "Lohrville", "state": "WI", "lat": "44.0382", "lng": "-89.1201"}, {"name": "Butte des Morts", "state": "WI", "lat": "44.1059", "lng": "-88.6564"}, {"name": "Fredonia", "state": "WI", "lat": "43.4715", "lng": "-87.9489"}, {"name": "Holcombe", "state": "WI", "lat": "45.2261", "lng": "-91.1217"}, {"name": "Eau Claire", "state": "WI", "lat": "44.8200", "lng": "-91.4951"}, {"name": "Butternut", "state": "WI", "lat": "46.0138", "lng": "-90.4988"}, {"name": "Superior", "state": "WI", "lat": "46.6941", "lng": "-92.0823"}, {"name": "Deer Park", "state": "WI", "lat": "45.1887", "lng": "-92.3879"}, {"name": "Gotham", "state": "WI", "lat": "43.2225", "lng": "-90.2970"}, {"name": "Chetek", "state": "WI", "lat": "45.3160", "lng": "-91.6533"}, {"name": "Merton", "state": "WI", "lat": "43.1423", "lng": "-88.3088"}, {"name": "Mineral Point", "state": "WI", "lat": "42.8628", "lng": "-90.1820"}, {"name": "Emerald", "state": "WI", "lat": "45.0833", "lng": "-92.2579"}, {"name": "Schofield", "state": "WI", "lat": "44.9150", "lng": "-89.6153"}, {"name": "Menasha", "state": "WI", "lat": "44.2125", "lng": "-88.4271"}, {"name": "Elmwood", "state": "WI", "lat": "44.7799", "lng": "-92.1491"}, {"name": "Arkansaw", "state": "WI", "lat": "44.6334", "lng": "-92.0222"}, {"name": "Summit Lake", "state": "WI", "lat": "45.3759", "lng": "-89.2045"}, {"name": "Fenwood", "state": "WI", "lat": "44.8658", "lng": "-90.0146"}, {"name": "Waupun", "state": "WI", "lat": "43.6315", "lng": "-88.7379"}, {"name": "Babcock", "state": "WI", "lat": "44.3044", "lng": "-90.1076"}, {"name": "Mequon", "state": "WI", "lat": "43.2352", "lng": "-87.9838"}, {"name": "Embarrass", "state": "WI", "lat": "44.6684", "lng": "-88.7037"}, {"name": "De Pere", "state": "WI", "lat": "44.4313", "lng": "-88.0793"}, {"name": "Waterloo", "state": "WI", "lat": "43.1835", "lng": "-88.9900"}, {"name": "Nelsonville", "state": "WI", "lat": "44.4937", "lng": "-89.3091"}, {"name": "Biron", "state": "WI", "lat": "44.4281", "lng": "-89.7660"}, {"name": "Kendall", "state": "WI", "lat": "43.7926", "lng": "-90.3677"}, {"name": "Markesan", "state": "WI", "lat": "43.7099", "lng": "-88.9907"}, {"name": "Pewaukee", "state": "WI", "lat": "43.0701", "lng": "-88.2411"}, {"name": "Sharon", "state": "WI", "lat": "42.5048", "lng": "-88.7395"}, {"name": "Bayfield", "state": "WI", "lat": "46.8141", "lng": "-90.8226"}, {"name": "Granton", "state": "WI", "lat": "44.5887", "lng": "-90.4615"}, {"name": "Evansville", "state": "WI", "lat": "42.7781", "lng": "-89.2967"}, {"name": "Townsend", "state": "WI", "lat": "45.3242", "lng": "-88.5903"}, {"name": "Hartland", "state": "WI", "lat": "43.1027", "lng": "-88.3400"}, {"name": "Neenah", "state": "WI", "lat": "44.1670", "lng": "-88.4763"}, {"name": "Walworth", "state": "WI", "lat": "42.5305", "lng": "-88.5940"}, {"name": "Lublin", "state": "WI", "lat": "45.0749", "lng": "-90.7238"}, {"name": "Jim Falls", "state": "WI", "lat": "45.0472", "lng": "-91.2712"}, {"name": "Francis Creek", "state": "WI", "lat": "44.2005", "lng": "-87.7208"}, {"name": "Woodford", "state": "WI", "lat": "42.6476", "lng": "-89.8598"}, {"name": "Roberts", "state": "WI", "lat": "44.9732", "lng": "-92.5505"}, {"name": "Clear Lake", "state": "WI", "lat": "45.2492", "lng": "-92.2675"}, {"name": "Cecil", "state": "WI", "lat": "44.8108", "lng": "-88.4485"}, {"name": "Lake Wissota", "state": "WI", "lat": "44.9220", "lng": "-91.3015"}, {"name": "Prairie du Chien", "state": "WI", "lat": "43.0434", "lng": "-91.1383"}, {"name": "Dallas", "state": "WI", "lat": "45.2591", "lng": "-91.8142"}, {"name": "Pulaski", "state": "WI", "lat": "44.6684", "lng": "-88.2353"}, {"name": "Powers Lake", "state": "WI", "lat": "42.5395", "lng": "-88.2935"}, {"name": "Alma Center", "state": "WI", "lat": "44.4370", "lng": "-90.9128"}, {"name": "Lac du Flambeau", "state": "WI", "lat": "45.9696", "lng": "-89.8995"}, {"name": "Little Round Lake", "state": "WI", "lat": "45.9697", "lng": "-91.3671"}, {"name": "Pigeon Falls", "state": "WI", "lat": "44.4246", "lng": "-91.2082"}, {"name": "Cedarburg", "state": "WI", "lat": "43.2991", "lng": "-87.9887"}, {"name": "Shawano", "state": "WI", "lat": "44.7749", "lng": "-88.5844"}, {"name": "Gilman", "state": "WI", "lat": "45.1661", "lng": "-90.8072"}, {"name": "Fall Creek", "state": "WI", "lat": "44.7639", "lng": "-91.2783"}, {"name": "Durand", "state": "WI", "lat": "44.6270", "lng": "-91.9607"}, {"name": "Chief Lake", "state": "WI", "lat": "45.9213", "lng": "-91.3312"}, {"name": "Dodge", "state": "WI", "lat": "44.1345", "lng": "-91.5485"}, {"name": "Marshfield", "state": "WI", "lat": "44.6627", "lng": "-90.1728"}, {"name": "Stoughton", "state": "WI", "lat": "42.9236", "lng": "-89.2219"}, {"name": "Gillett", "state": "WI", "lat": "44.8897", "lng": "-88.3063"}, {"name": "Wyocena", "state": "WI", "lat": "43.4931", "lng": "-89.3098"}, {"name": "Denmark", "state": "WI", "lat": "44.3492", "lng": "-87.8313"}, {"name": "Glendale", "state": "WI", "lat": "43.1288", "lng": "-87.9277"}, {"name": "Birchwood", "state": "WI", "lat": "45.6577", "lng": "-91.5507"}, {"name": "Waukau", "state": "WI", "lat": "43.9862", "lng": "-88.7706"}, {"name": "Oconomowoc", "state": "WI", "lat": "43.0994", "lng": "-88.4951"}, {"name": "Sister Bay", "state": "WI", "lat": "45.1835", "lng": "-87.1271"}, {"name": "Lake Nebagamon", "state": "WI", "lat": "46.5120", "lng": "-91.6995"}, {"name": "Melrose", "state": "WI", "lat": "44.1316", "lng": "-90.9969"}, {"name": "St. Nazianz", "state": "WI", "lat": "44.0067", "lng": "-87.9246"}, {"name": "Montfort", "state": "WI", "lat": "42.9697", "lng": "-90.4330"}, {"name": "Bristol", "state": "WI", "lat": "42.5378", "lng": "-88.0149"}, {"name": "Highland", "state": "WI", "lat": "43.0475", "lng": "-90.3801"}, {"name": "Lake Wisconsin", "state": "WI", "lat": "43.3782", "lng": "-89.5763"}, {"name": "Ellsworth", "state": "WI", "lat": "44.7364", "lng": "-92.4806"}, {"name": "Hawkins", "state": "WI", "lat": "45.5114", "lng": "-90.7148"}, {"name": "Richfield", "state": "WI", "lat": "43.2372", "lng": "-88.2413"}, {"name": "Orfordville", "state": "WI", "lat": "42.6294", "lng": "-89.2572"}, {"name": "Footville", "state": "WI", "lat": "42.6715", "lng": "-89.2084"}, {"name": "Plain", "state": "WI", "lat": "43.2779", "lng": "-90.0423"}, {"name": "Cashton", "state": "WI", "lat": "43.7413", "lng": "-90.7866"}, {"name": "Waunakee", "state": "WI", "lat": "43.1833", "lng": "-89.4433"}, {"name": "Mayville", "state": "WI", "lat": "43.4986", "lng": "-88.5475"}, {"name": "Combined Locks", "state": "WI", "lat": "44.2642", "lng": "-88.3064"}, {"name": "Bayside", "state": "WI", "lat": "43.1827", "lng": "-87.9017"}, {"name": "Neshkoro", "state": "WI", "lat": "43.9652", "lng": "-89.2157"}, {"name": "Unity", "state": "WI", "lat": "44.8511", "lng": "-90.3131"}, {"name": "Windsor", "state": "WI", "lat": "43.2406", "lng": "-89.2952"}, {"name": "Grafton", "state": "WI", "lat": "43.3204", "lng": "-87.9481"}, {"name": "Baraboo", "state": "WI", "lat": "43.4697", "lng": "-89.7378"}, {"name": "Ridgeway", "state": "WI", "lat": "42.9985", "lng": "-89.9930"}, {"name": "Bloomfield", "state": "WI", "lat": "42.5488", "lng": "-88.3520"}, {"name": "Onalaska", "state": "WI", "lat": "43.8880", "lng": "-91.2074"}, {"name": "Almena", "state": "WI", "lat": "45.4149", "lng": "-92.0384"}, {"name": "Odanah", "state": "WI", "lat": "46.6121", "lng": "-90.6992"}, {"name": "Slinger", "state": "WI", "lat": "43.3317", "lng": "-88.2799"}, {"name": "Fairwater", "state": "WI", "lat": "43.7424", "lng": "-88.8680"}, {"name": "Lake Camelot", "state": "WI", "lat": "44.2147", "lng": "-89.7623"}, {"name": "Belgium", "state": "WI", "lat": "43.5019", "lng": "-87.8476"}, {"name": "Houlton", "state": "WI", "lat": "45.0607", "lng": "-92.7904"}, {"name": "Tennyson", "state": "WI", "lat": "42.6907", "lng": "-90.6868"}, {"name": "Ladysmith", "state": "WI", "lat": "45.4606", "lng": "-91.0972"}, {"name": "Cedar Grove", "state": "WI", "lat": "43.5681", "lng": "-87.8243"}, {"name": "Leopolis", "state": "WI", "lat": "44.7654", "lng": "-88.8447"}, {"name": "Woodville", "state": "WI", "lat": "44.9483", "lng": "-92.2851"}, {"name": "Lake Lorraine", "state": "WI", "lat": "42.7330", "lng": "-88.7374"}, {"name": "Cleveland", "state": "WI", "lat": "43.9177", "lng": "-87.7469"}, {"name": "Union Center", "state": "WI", "lat": "43.6826", "lng": "-90.2634"}, {"name": "Gibbsville", "state": "WI", "lat": "43.6521", "lng": "-87.8317"}, {"name": "Black Creek", "state": "WI", "lat": "44.4741", "lng": "-88.4507"}, {"name": "Twin Lakes", "state": "WI", "lat": "42.5192", "lng": "-88.2489"}, {"name": "South Wayne", "state": "WI", "lat": "42.5671", "lng": "-89.8763"}, {"name": "Mukwonago", "state": "WI", "lat": "42.8566", "lng": "-88.3269"}, {"name": "Thiensville", "state": "WI", "lat": "43.2361", "lng": "-87.9784"}, {"name": "Stratford", "state": "WI", "lat": "44.8009", "lng": "-90.0722"}, {"name": "Neosho", "state": "WI", "lat": "43.3101", "lng": "-88.5193"}, {"name": "Amherst Junction", "state": "WI", "lat": "44.4687", "lng": "-89.3168"}, {"name": "Kingston", "state": "WI", "lat": "43.6935", "lng": "-89.1304"}, {"name": "Weston", "state": "WI", "lat": "44.8906", "lng": "-89.5487"}, {"name": "Park Ridge", "state": "WI", "lat": "44.5200", "lng": "-89.5463"}, {"name": "Palmyra", "state": "WI", "lat": "42.8811", "lng": "-88.6000"}, {"name": "Dresser", "state": "WI", "lat": "45.3617", "lng": "-92.6344"}, {"name": "Humbird", "state": "WI", "lat": "44.5295", "lng": "-90.8862"}, {"name": "Kronenwetter", "state": "WI", "lat": "44.8164", "lng": "-89.5807"}, {"name": "Bonduel", "state": "WI", "lat": "44.7383", "lng": "-88.4476"}, {"name": "Whittlesey", "state": "WI", "lat": "45.2206", "lng": "-90.3232"}, {"name": "Polonia", "state": "WI", "lat": "44.5756", "lng": "-89.4118"}, {"name": "Lake Koshkonong", "state": "WI", "lat": "42.8838", "lng": "-88.9424"}, {"name": "Westfield", "state": "WI", "lat": "43.8851", "lng": "-89.4926"}]