[{"name": "Arbovale", "state": "WV", "lat": "38.4353", "lng": "-79.8116"}, {"name": "Bruno", "state": "WV", "lat": "37.6880", "lng": "-81.8737"}, {"name": "Summersville", "state": "WV", "lat": "38.2865", "lng": "-80.8410"}, {"name": "Aurora", "state": "WV", "lat": "39.3254", "lng": "-79.5546"}, {"name": "Oceana", "state": "WV", "lat": "37.6927", "lng": "-81.6324"}, {"name": "Pinch", "state": "WV", "lat": "38.4062", "lng": "-81.4810"}, {"name": "Roderfield", "state": "WV", "lat": "37.4501", "lng": "-81.7029"}, {"name": "Poca", "state": "WV", "lat": "38.4730", "lng": "-81.8124"}, {"name": "Berwind", "state": "WV", "lat": "37.2660", "lng": "-81.6633"}, {"name": "Philippi", "state": "WV", "lat": "39.1487", "lng": "-80.0417"}, {"name": "Pineville", "state": "WV", "lat": "37.5845", "lng": "-81.5354"}, {"name": "Wellsburg", "state": "WV", "lat": "40.2811", "lng": "-80.6102"}, {"name": "Maybeury", "state": "WV", "lat": "37.3675", "lng": "-81.3572"}, {"name": "Farmington", "state": "WV", "lat": "39.5119", "lng": "-80.2514"}, {"name": "Middleway", "state": "WV", "lat": "39.3032", "lng": "-77.9810"}, {"name": "Shannondale", "state": "WV", "lat": "39.2123", "lng": "-77.8105"}, {"name": "Welch", "state": "WV", "lat": "37.4455", "lng": "-81.5721"}, {"name": "Williamstown", "state": "WV", "lat": "39.4000", "lng": "-81.4527"}, {"name": "Hamlin", "state": "WV", "lat": "38.2805", "lng": "-82.1086"}, {"name": "North Hills", "state": "WV", "lat": "39.3149", "lng": "-81.5086"}, {"name": "Follansbee", "state": "WV", "lat": "40.3385", "lng": "-80.5975"}, {"name": "West Milford", "state": "WV", "lat": "39.2044", "lng": "-80.4034"}, {"name": "Granville", "state": "WV", "lat": "39.6471", "lng": "-79.9974"}, {"name": "Hillsboro", "state": "WV", "lat": "38.1353", "lng": "-80.2136"}, {"name": "Elizabeth", "state": "WV", "lat": "39.0617", "lng": "-81.3976"}, {"name": "Hambleton", "state": "WV", "lat": "39.0814", "lng": "-79.6455"}, {"name": "Kenova", "state": "WV", "lat": "38.4026", "lng": "-82.5821"}, {"name": "West Union", "state": "WV", "lat": "39.2963", "lng": "-80.7751"}, {"name": "Triadelphia", "state": "WV", "lat": "40.0483", "lng": "-80.6229"}, {"name": "Middlebourne", "state": "WV", "lat": "39.4947", "lng": "-80.9070"}, {"name": "Fairmont", "state": "WV", "lat": "39.4768", "lng": "-80.1491"}, {"name": "West Logan", "state": "WV", "lat": "37.8679", "lng": "-81.9906"}, {"name": "Mason", "state": "WV", "lat": "39.0183", "lng": "-82.0314"}, {"name": "Rhodell", "state": "WV", "lat": "37.6095", "lng": "-81.3050"}, {"name": "Inwood", "state": "WV", "lat": "39.3538", "lng": "-78.0552"}, {"name": "Smithfield", "state": "WV", "lat": "39.5011", "lng": "-80.5554"}, {"name": "Salt Rock", "state": "WV", "lat": "38.3243", "lng": "-82.2172"}, {"name": "Jane Lew", "state": "WV", "lat": "39.1100", "lng": "-80.4085"}, {"name": "Rand", "state": "WV", "lat": "38.2817", "lng": "-81.5654"}, {"name": "Chattaroy", "state": "WV", "lat": "37.7062", "lng": "-82.2737"}, {"name": "Greenview", "state": "WV", "lat": "37.9963", "lng": "-81.8202"}, {"name": "Harrisville", "state": "WV", "lat": "39.2104", "lng": "-81.0485"}, {"name": "Danville", "state": "WV", "lat": "38.0808", "lng": "-81.8342"}, {"name": "Mannington", "state": "WV", "lat": "39.5274", "lng": "-80.3408"}, {"name": "Princeton", "state": "WV", "lat": "37.3688", "lng": "-81.0961"}, {"name": "Gilbert Creek", "state": "WV", "lat": "37.5697", "lng": "-81.8906"}, {"name": "Tunnelton", "state": "WV", "lat": "39.3929", "lng": "-79.7466"}, {"name": "Dailey", "state": "WV", "lat": "38.7968", "lng": "-79.8967"}, {"name": "Enterprise", "state": "WV", "lat": "39.4197", "lng": "-80.2834"}, {"name": "Red Jacket", "state": "WV", "lat": "37.6488", "lng": "-82.1317"}, {"name": "Shrewsbury", "state": "WV", "lat": "38.2079", "lng": "-81.4672"}, {"name": "Falling Waters", "state": "WV", "lat": "39.5637", "lng": "-77.8874"}, {"name": "Pickens", "state": "WV", "lat": "38.6558", "lng": "-80.2160"}, {"name": "Scarbro", "state": "WV", "lat": "37.9504", "lng": "-81.1666"}, {"name": "Bluefield", "state": "WV", "lat": "37.2608", "lng": "-81.2143"}, {"name": "Chesapeake", "state": "WV", "lat": "38.2233", "lng": "-81.5363"}, {"name": "Belington", "state": "WV", "lat": "39.0220", "lng": "-79.9383"}, {"name": "Beards Fork", "state": "WV", "lat": "38.0645", "lng": "-81.2278"}, {"name": "Burnsville", "state": "WV", "lat": "38.8579", "lng": "-80.6539"}, {"name": "Mabscott", "state": "WV", "lat": "37.7694", "lng": "-81.2133"}, {"name": "Prince", "state": "WV", "lat": "37.8593", "lng": "-81.0722"}, {"name": "Winfield", "state": "WV", "lat": "38.5285", "lng": "-81.8861"}, {"name": "Peterstown", "state": "WV", "lat": "37.3991", "lng": "-80.7950"}, {"name": "St. George", "state": "WV", "lat": "39.1662", "lng": "-79.6987"}, {"name": "Apple Grove", "state": "WV", "lat": "38.6663", "lng": "-82.1707"}, {"name": "Whitesville", "state": "WV", "lat": "37.9825", "lng": "-81.5366"}, {"name": "Brandonville", "state": "WV", "lat": "39.6671", "lng": "-79.6277"}, {"name": "Union", "state": "WV", "lat": "37.5905", "lng": "-80.5419"}, {"name": "Moorefield", "state": "WV", "lat": "39.0674", "lng": "-78.9624"}, {"name": "Tioga", "state": "WV", "lat": "38.4220", "lng": "-80.6548"}, {"name": "Grant Town", "state": "WV", "lat": "39.5590", "lng": "-80.1772"}, {"name": "Belle", "state": "WV", "lat": "38.2337", "lng": "-81.5387"}, {"name": "Matewan", "state": "WV", "lat": "37.6259", "lng": "-82.1700"}, {"name": "Bruceton Mills", "state": "WV", "lat": "39.6594", "lng": "-79.6406"}, {"name": "Omar", "state": "WV", "lat": "37.7583", "lng": "-81.9975"}, {"name": "Glenville", "state": "WV", "lat": "38.9379", "lng": "-80.8339"}, {"name": "Wardensville", "state": "WV", "lat": "39.0768", "lng": "-78.5932"}, {"name": "Spencer", "state": "WV", "lat": "38.8025", "lng": "-81.3531"}, {"name": "Cross Lanes", "state": "WV", "lat": "38.4351", "lng": "-81.7706"}, {"name": "Lubeck", "state": "WV", "lat": "39.2276", "lng": "-81.6265"}, {"name": "Wiley Ford", "state": "WV", "lat": "39.6151", "lng": "-78.7615"}, {"name": "Gassaway", "state": "WV", "lat": "38.6702", "lng": "-80.7717"}, {"name": "Barrackville", "state": "WV", "lat": "39.5013", "lng": "-80.1696"}, {"name": "Keyser", "state": "WV", "lat": "39.4394", "lng": "-78.9822"}, {"name": "Brandywine", "state": "WV", "lat": "38.6219", "lng": "-79.2413"}, {"name": "Womelsdorf", "state": "WV", "lat": "38.8981", "lng": "-79.9636"}, {"name": "Verdunville", "state": "WV", "lat": "37.8532", "lng": "-82.0603"}, {"name": "New Haven", "state": "WV", "lat": "38.9876", "lng": "-81.9655"}, {"name": "Bolt", "state": "WV", "lat": "37.7623", "lng": "-81.4189"}, {"name": "Wolf Summit", "state": "WV", "lat": "39.2822", "lng": "-80.4620"}, {"name": "Bath", "state": "WV", "lat": "39.6247", "lng": "-78.2275"}, {"name": "War", "state": "WV", "lat": "37.3040", "lng": "-81.6802"}, {"name": "Helvetia", "state": "WV", "lat": "38.7058", "lng": "-80.1993"}, {"name": "Hartford City", "state": "WV", "lat": "38.9978", "lng": "-81.9905"}, {"name": "Mount Hope", "state": "WV", "lat": "37.8987", "lng": "-81.1745"}, {"name": "Beech Bottom", "state": "WV", "lat": "40.2181", "lng": "-80.6588"}, {"name": "Deep Water", "state": "WV", "lat": "38.1217", "lng": "-81.2528"}, {"name": "Boomer", "state": "WV", "lat": "38.1516", "lng": "-81.2825"}, {"name": "Burlington", "state": "WV", "lat": "39.3370", "lng": "-78.9223"}, {"name": "Mullens", "state": "WV", "lat": "37.5811", "lng": "-81.3855"}, {"name": "Gallipolis Ferry", "state": "WV", "lat": "38.7745", "lng": "-82.2041"}, {"name": "Rowlesburg", "state": "WV", "lat": "39.3482", "lng": "-79.6764"}, {"name": "Carpendale", "state": "WV", "lat": "39.6278", "lng": "-78.7896"}, {"name": "Kingwood", "state": "WV", "lat": "39.4719", "lng": "-79.6822"}, {"name": "Ellenboro", "state": "WV", "lat": "39.2678", "lng": "-81.0551"}, {"name": "Sissonville", "state": "WV", "lat": "38.5042", "lng": "-81.6398"}, {"name": "Franklin", "state": "WV", "lat": "38.6452", "lng": "-79.3331"}, {"name": "Durbin", "state": "WV", "lat": "38.5471", "lng": "-79.8278"}, {"name": "Switzer", "state": "WV", "lat": "37.7879", "lng": "-81.9865"}, {"name": "Big Sandy", "state": "WV", "lat": "37.4608", "lng": "-81.7050"}, {"name": "Athens", "state": "WV", "lat": "37.4230", "lng": "-81.0148"}, {"name": "New Richmond", "state": "WV", "lat": "37.5735", "lng": "-81.4870"}, {"name": "Handley", "state": "WV", "lat": "38.1863", "lng": "-81.3673"}, {"name": "Glen Fork", "state": "WV", "lat": "37.6982", "lng": "-81.5362"}, {"name": "Hinton", "state": "WV", "lat": "37.6652", "lng": "-80.8828"}, {"name": "Albright", "state": "WV", "lat": "39.4937", "lng": "-79.6399"}, {"name": "Carolina", "state": "WV", "lat": "39.4795", "lng": "-80.2728"}, {"name": "Paden City", "state": "WV", "lat": "39.6035", "lng": "-80.9351"}, {"name": "Iaeger", "state": "WV", "lat": "37.4642", "lng": "-81.8111"}, {"name": "Springfield", "state": "WV", "lat": "39.4449", "lng": "-78.6977"}, {"name": "Kopperston", "state": "WV", "lat": "37.7502", "lng": "-81.5764"}, {"name": "Bartow", "state": "WV", "lat": "38.5422", "lng": "-79.7859"}, {"name": "White Sulphur Springs", "state": "WV", "lat": "37.7981", "lng": "-80.3003"}, {"name": "Man", "state": "WV", "lat": "37.7521", "lng": "-81.8922"}, {"name": "Alderson", "state": "WV", "lat": "37.7277", "lng": "-80.6436"}, {"name": "Hilltop", "state": "WV", "lat": "37.9392", "lng": "-81.1527"}, {"name": "Comfort", "state": "WV", "lat": "38.1317", "lng": "-81.6102"}, {"name": "Elk Garden", "state": "WV", "lat": "39.3862", "lng": "-79.1556"}, {"name": "Wallace", "state": "WV", "lat": "39.4072", "lng": "-80.4911"}, {"name": "Nettie", "state": "WV", "lat": "38.2183", "lng": "-80.6889"}, {"name": "Twilight", "state": "WV", "lat": "37.9252", "lng": "-81.6177"}, {"name": "Grantsville", "state": "WV", "lat": "38.9204", "lng": "-81.0934"}, {"name": "Cairo", "state": "WV", "lat": "39.2067", "lng": "-81.1544"}, {"name": "Bradley", "state": "WV", "lat": "37.8675", "lng": "-81.2046"}, {"name": "Monaville", "state": "WV", "lat": "37.8136", "lng": "-81.9915"}, {"name": "Blacksville", "state": "WV", "lat": "39.7175", "lng": "-80.2146"}, {"name": "Ripley", "state": "WV", "lat": "38.8201", "lng": "-81.7091"}, {"name": "Clendenin", "state": "WV", "lat": "38.4859", "lng": "-81.3503"}, {"name": "Thurmond", "state": "WV", "lat": "37.9610", "lng": "-81.0796"}, {"name": "Charleston", "state": "WV", "lat": "38.3484", "lng": "-81.6323"}, {"name": "Bradshaw", "state": "WV", "lat": "37.3534", "lng": "-81.8012"}, {"name": "Flemington", "state": "WV", "lat": "39.2666", "lng": "-80.1286"}, {"name": "Holden", "state": "WV", "lat": "37.8238", "lng": "-82.0788"}, {"name": "Gauley Bridge", "state": "WV", "lat": "38.1681", "lng": "-81.2039"}, {"name": "Milton", "state": "WV", "lat": "38.4353", "lng": "-82.1376"}, {"name": "Cowen", "state": "WV", "lat": "38.4110", "lng": "-80.5542"}, {"name": "Vienna", "state": "WV", "lat": "39.3238", "lng": "-81.5383"}, {"name": "Sophia", "state": "WV", "lat": "37.7116", "lng": "-81.2524"}, {"name": "Capon Bridge", "state": "WV", "lat": "39.2998", "lng": "-78.4337"}, {"name": "Prosperity", "state": "WV", "lat": "37.8384", "lng": "-81.1987"}, {"name": "Martinsburg", "state": "WV", "lat": "39.4582", "lng": "-77.9776"}, {"name": "Tornado", "state": "WV", "lat": "38.3369", "lng": "-81.8551"}, {"name": "Hometown", "state": "WV", "lat": "38.5288", "lng": "-81.8552"}, {"name": "Mount Gay-Shamrock", "state": "WV", "lat": "37.8512", "lng": "-82.0229"}, {"name": "Madison", "state": "WV", "lat": "38.0632", "lng": "-81.8046"}, {"name": "St. Albans", "state": "WV", "lat": "38.3769", "lng": "-81.8198"}, {"name": "Shinnston", "state": "WV", "lat": "39.3923", "lng": "-80.2989"}, {"name": "Fairview", "state": "WV", "lat": "39.5927", "lng": "-80.2469"}, {"name": "Sand Fork", "state": "WV", "lat": "38.9154", "lng": "-80.7477"}, {"name": "Kermit", "state": "WV", "lat": "37.8425", "lng": "-82.4086"}, {"name": "Page", "state": "WV", "lat": "38.0506", "lng": "-81.2717"}, {"name": "Mill Creek", "state": "WV", "lat": "38.7319", "lng": "-79.9725"}, {"name": "Falling Spring", "state": "WV", "lat": "37.9926", "lng": "-80.3576"}, {"name": "Bayard", "state": "WV", "lat": "39.2711", "lng": "-79.3662"}, {"name": "Westover", "state": "WV", "lat": "39.6324", "lng": "-79.9773"}, {"name": "Boaz", "state": "WV", "lat": "39.3674", "lng": "-81.4853"}, {"name": "Masontown", "state": "WV", "lat": "39.5512", "lng": "-79.8003"}, {"name": "Benwood", "state": "WV", "lat": "40.0139", "lng": "-80.7328"}, {"name": "Washington", "state": "WV", "lat": "39.2422", "lng": "-81.6679"}, {"name": "Beaver", "state": "WV", "lat": "37.7356", "lng": "-81.1500"}, {"name": "Pax", "state": "WV", "lat": "37.9097", "lng": "-81.2648"}, {"name": "New Martinsville", "state": "WV", "lat": "39.6636", "lng": "-80.8569"}, {"name": "Stanaford", "state": "WV", "lat": "37.8156", "lng": "-81.1492"}, {"name": "Jefferson", "state": "WV", "lat": "38.3701", "lng": "-81.7708"}, {"name": "Rainelle", "state": "WV", "lat": "37.9678", "lng": "-80.7717"}, {"name": "Kimberly", "state": "WV", "lat": "38.1407", "lng": "-81.2967"}, {"name": "Helen", "state": "WV", "lat": "37.6374", "lng": "-81.3130"}, {"name": "Justice", "state": "WV", "lat": "37.5992", "lng": "-81.8381"}, {"name": "Moundsville", "state": "WV", "lat": "39.9221", "lng": "-80.7422"}, {"name": "MacArthur", "state": "WV", "lat": "37.7553", "lng": "-81.2078"}, {"name": "Fairlea", "state": "WV", "lat": "37.7756", "lng": "-80.4582"}, {"name": "Clay", "state": "WV", "lat": "38.4662", "lng": "-81.0814"}, {"name": "Beverly", "state": "WV", "lat": "38.8442", "lng": "-79.8717"}, {"name": "Sutton", "state": "WV", "lat": "38.6663", "lng": "-80.7116"}, {"name": "Dunbar", "state": "WV", "lat": "38.3688", "lng": "-81.7345"}, {"name": "Reedsville", "state": "WV", "lat": "39.5102", "lng": "-79.8006"}, {"name": "Vivian", "state": "WV", "lat": "37.4172", "lng": "-81.4923"}, {"name": "Oakvale", "state": "WV", "lat": "37.3323", "lng": "-80.9704"}, {"name": "Pullman", "state": "WV", "lat": "39.1880", "lng": "-80.9490"}, {"name": "Lost Creek", "state": "WV", "lat": "39.1627", "lng": "-80.3484"}, {"name": "Matheny", "state": "WV", "lat": "37.6640", "lng": "-81.5985"}, {"name": "Raysal", "state": "WV", "lat": "37.3367", "lng": "-81.7712"}, {"name": "Mallory", "state": "WV", "lat": "37.7274", "lng": "-81.8206"}, {"name": "Salem", "state": "WV", "lat": "39.2849", "lng": "-80.5645"}, {"name": "Flatwoods", "state": "WV", "lat": "38.7186", "lng": "-80.6540"}, {"name": "Pea Ridge", "state": "WV", "lat": "38.4154", "lng": "-82.3188"}, {"name": "Parsons", "state": "WV", "lat": "39.0942", "lng": "-79.6786"}, {"name": "Glen Dale", "state": "WV", "lat": "39.9466", "lng": "-80.7564"}, {"name": "Crumpler", "state": "WV", "lat": "37.4262", "lng": "-81.3313"}, {"name": "Cameron", "state": "WV", "lat": "39.8280", "lng": "-80.5693"}, {"name": "Gary", "state": "WV", "lat": "37.3621", "lng": "-81.5408"}, {"name": "Lesage", "state": "WV", "lat": "38.4870", "lng": "-82.2930"}, {"name": "Waverly", "state": "WV", "lat": "39.3328", "lng": "-81.3813"}, {"name": "Reader", "state": "WV", "lat": "39.5689", "lng": "-80.7316"}, {"name": "Marlinton", "state": "WV", "lat": "38.2247", "lng": "-80.0906"}, {"name": "Bridgeport", "state": "WV", "lat": "39.3036", "lng": "-80.2477"}, {"name": "Beckley", "state": "WV", "lat": "37.7877", "lng": "-81.1840"}, {"name": "West Liberty", "state": "WV", "lat": "40.1647", "lng": "-80.5972"}, {"name": "Huttonsville", "state": "WV", "lat": "38.7138", "lng": "-79.9766"}, {"name": "Quinwood", "state": "WV", "lat": "38.0586", "lng": "-80.7060"}, {"name": "Hico", "state": "WV", "lat": "38.1166", "lng": "-81.0112"}, {"name": "Anawalt", "state": "WV", "lat": "37.3364", "lng": "-81.4407"}, {"name": "Racine", "state": "WV", "lat": "38.1398", "lng": "-81.6541"}, {"name": "Idamay", "state": "WV", "lat": "39.4930", "lng": "-80.2572"}, {"name": "Cass", "state": "WV", "lat": "38.3962", "lng": "-79.9191"}, {"name": "Barboursville", "state": "WV", "lat": "38.4061", "lng": "-82.2970"}, {"name": "Rossmore", "state": "WV", "lat": "37.8050", "lng": "-81.9923"}, {"name": "Shenandoah Junction", "state": "WV", "lat": "39.3531", "lng": "-77.8375"}, {"name": "West Hamlin", "state": "WV", "lat": "38.2802", "lng": "-82.1940"}, {"name": "Paw Paw", "state": "WV", "lat": "39.5313", "lng": "-78.4553"}, {"name": "Valley Bend", "state": "WV", "lat": "38.7694", "lng": "-79.9280"}, {"name": "Petersburg", "state": "WV", "lat": "38.9957", "lng": "-79.1276"}, {"name": "Henderson", "state": "WV", "lat": "38.8304", "lng": "-82.1360"}, {"name": "Piney View", "state": "WV", "lat": "37.8350", "lng": "-81.1275"}, {"name": "Ranson", "state": "WV", "lat": "39.3250", "lng": "-77.8667"}, {"name": "Green Bank", "state": "WV", "lat": "38.4267", "lng": "-79.8344"}, {"name": "Auburn", "state": "WV", "lat": "39.0961", "lng": "-80.8562"}, {"name": "Logan", "state": "WV", "lat": "37.8509", "lng": "-81.9857"}, {"name": "Marmet", "state": "WV", "lat": "38.2458", "lng": "-81.5711"}, {"name": "Chapmanville", "state": "WV", "lat": "37.9726", "lng": "-82.0215"}, {"name": "Accoville", "state": "WV", "lat": "37.7652", "lng": "-81.8270"}, {"name": "Green Spring", "state": "WV", "lat": "39.5241", "lng": "-78.6302"}, {"name": "Matoaka", "state": "WV", "lat": "37.4182", "lng": "-81.2417"}, {"name": "Eleanor", "state": "WV", "lat": "38.5374", "lng": "-81.9256"}, {"name": "Powellton", "state": "WV", "lat": "38.0941", "lng": "-81.3220"}, {"name": "Sylvester", "state": "WV", "lat": "38.0080", "lng": "-81.5623"}, {"name": "Pine Grove", "state": "WV", "lat": "39.5642", "lng": "-80.6825"}, {"name": "Belmont", "state": "WV", "lat": "39.3786", "lng": "-81.2635"}, {"name": "Ronceverte", "state": "WV", "lat": "37.7504", "lng": "-80.4715"}, {"name": "Hundred", "state": "WV", "lat": "39.6836", "lng": "-80.4576"}, {"name": "Piedmont", "state": "WV", "lat": "39.4778", "lng": "-79.0466"}, {"name": "Smithers", "state": "WV", "lat": "38.1768", "lng": "-81.3048"}, {"name": "Newell", "state": "WV", "lat": "40.6179", "lng": "-80.5999"}, {"name": "Mitchell Heights", "state": "WV", "lat": "37.9088", "lng": "-81.9867"}, {"name": "Harman", "state": "WV", "lat": "38.9211", "lng": "-79.5246"}, {"name": "Harts", "state": "WV", "lat": "38.0343", "lng": "-82.1290"}, {"name": "Bartley", "state": "WV", "lat": "37.3373", "lng": "-81.7334"}, {"name": "Pennsboro", "state": "WV", "lat": "39.2874", "lng": "-80.9754"}, {"name": "Valley Grove", "state": "WV", "lat": "40.0901", "lng": "-80.5690"}, {"name": "Chester", "state": "WV", "lat": "40.6129", "lng": "-80.5627"}, {"name": "Coal Fork", "state": "WV", "lat": "38.3185", "lng": "-81.5230"}, {"name": "Lewisburg", "state": "WV", "lat": "37.8096", "lng": "-80.4327"}, {"name": "Thomas", "state": "WV", "lat": "39.1458", "lng": "-79.4958"}, {"name": "Charles Town", "state": "WV", "lat": "39.2745", "lng": "-77.8632"}, {"name": "Big Creek", "state": "WV", "lat": "38.0054", "lng": "-82.0361"}, {"name": "Wayne", "state": "WV", "lat": "38.2234", "lng": "-82.4428"}, {"name": "South Charleston", "state": "WV", "lat": "38.3482", "lng": "-81.7110"}, {"name": "Anmoore", "state": "WV", "lat": "39.2611", "lng": "-80.2862"}, {"name": "Brenton", "state": "WV", "lat": "37.6004", "lng": "-81.6350"}, {"name": "Glen Ferris", "state": "WV", "lat": "38.1518", "lng": "-81.2185"}, {"name": "Wheeling", "state": "WV", "lat": "40.0751", "lng": "-80.6951"}, {"name": "Harpers Ferry", "state": "WV", "lat": "39.3251", "lng": "-77.7409"}, {"name": "Bethlehem", "state": "WV", "lat": "40.0451", "lng": "-80.6899"}, {"name": "Eccles", "state": "WV", "lat": "37.7817", "lng": "-81.2648"}, {"name": "Bethany", "state": "WV", "lat": "40.2053", "lng": "-80.5629"}, {"name": "Meadow Bridge", "state": "WV", "lat": "37.8613", "lng": "-80.8561"}, {"name": "Lashmeet", "state": "WV", "lat": "37.4228", "lng": "-81.1967"}, {"name": "Pleasant Valley", "state": "WV", "lat": "39.4505", "lng": "-80.1552"}, {"name": "Glen White", "state": "WV", "lat": "37.7300", "lng": "-81.2797"}, {"name": "Mount Carbon", "state": "WV", "lat": "38.1443", "lng": "-81.2890"}, {"name": "Leon", "state": "WV", "lat": "38.7471", "lng": "-81.9555"}, {"name": "Newburg", "state": "WV", "lat": "39.3889", "lng": "-79.8536"}, {"name": "Bolivar", "state": "WV", "lat": "39.3242", "lng": "-77.7517"}, {"name": "Morgantown", "state": "WV", "lat": "39.6379", "lng": "-79.9468"}, {"name": "Henlawson", "state": "WV", "lat": "37.9000", "lng": "-81.9820"}, {"name": "Century", "state": "WV", "lat": "39.1004", "lng": "-80.1883"}, {"name": "Kistler", "state": "WV", "lat": "37.7656", "lng": "-81.8578"}, {"name": "Northfork", "state": "WV", "lat": "37.4196", "lng": "-81.4274"}, {"name": "Cucumber", "state": "WV", "lat": "37.2786", "lng": "-81.6241"}, {"name": "Teays Valley", "state": "WV", "lat": "38.4482", "lng": "-81.9239"}, {"name": "Corinne", "state": "WV", "lat": "37.5710", "lng": "-81.3614"}, {"name": "Lester", "state": "WV", "lat": "37.7349", "lng": "-81.3015"}, {"name": "Bancroft", "state": "WV", "lat": "38.5107", "lng": "-81.8418"}, {"name": "Robinette", "state": "WV", "lat": "37.7855", "lng": "-81.7879"}, {"name": "Clarksburg", "state": "WV", "lat": "39.2863", "lng": "-80.3230"}, {"name": "Windsor Heights", "state": "WV", "lat": "40.1914", "lng": "-80.6647"}, {"name": "Glasgow", "state": "WV", "lat": "38.2109", "lng": "-81.4218"}, {"name": "Buckhannon", "state": "WV", "lat": "38.9927", "lng": "-80.2282"}, {"name": "Clearview", "state": "WV", "lat": "40.1399", "lng": "-80.6899"}, {"name": "Bramwell", "state": "WV", "lat": "37.3270", "lng": "-81.3129"}, {"name": "Cedar Grove", "state": "WV", "lat": "38.2223", "lng": "-81.4379"}, {"name": "Delbarton", "state": "WV", "lat": "37.7052", "lng": "-82.1861"}, {"name": "Blennerhassett", "state": "WV", "lat": "39.2562", "lng": "-81.6316"}, {"name": "Brookhaven", "state": "WV", "lat": "39.6062", "lng": "-79.8812"}, {"name": "Chauncey", "state": "WV", "lat": "37.7652", "lng": "-81.9834"}, {"name": "Junior", "state": "WV", "lat": "38.9783", "lng": "-79.9506"}, {"name": "Parcoal", "state": "WV", "lat": "38.4604", "lng": "-80.3731"}, {"name": "Bluewell", "state": "WV", "lat": "37.3144", "lng": "-81.2581"}, {"name": "Whitmer", "state": "WV", "lat": "38.8148", "lng": "-79.5451"}, {"name": "Lumberport", "state": "WV", "lat": "39.3742", "lng": "-80.3484"}, {"name": "Rupert", "state": "WV", "lat": "37.9649", "lng": "-80.6870"}, {"name": "East Dailey", "state": "WV", "lat": "38.7795", "lng": "-79.8911"}, {"name": "Belva", "state": "WV", "lat": "38.2327", "lng": "-81.1894"}, {"name": "Fayetteville", "state": "WV", "lat": "38.0622", "lng": "-81.1084"}, {"name": "Buffalo", "state": "WV", "lat": "38.6117", "lng": "-81.9820"}, {"name": "Glen Jean", "state": "WV", "lat": "37.9271", "lng": "-81.1532"}, {"name": "Friendly", "state": "WV", "lat": "39.5136", "lng": "-81.0619"}, {"name": "Crum", "state": "WV", "lat": "37.9095", "lng": "-82.4470"}, {"name": "Monongah", "state": "WV", "lat": "39.4598", "lng": "-80.2185"}, {"name": "Hepzibah", "state": "WV", "lat": "39.3309", "lng": "-80.3341"}, {"name": "Birch River", "state": "WV", "lat": "38.4961", "lng": "-80.7497"}, {"name": "Stonewood", "state": "WV", "lat": "39.2501", "lng": "-80.3054"}, {"name": "Ghent", "state": "WV", "lat": "37.6221", "lng": "-81.1057"}, {"name": "Cheat Lake", "state": "WV", "lat": "39.6672", "lng": "-79.8565"}, {"name": "Hedgesville", "state": "WV", "lat": "39.5544", "lng": "-77.9944"}, {"name": "Reedy", "state": "WV", "lat": "38.8997", "lng": "-81.4264"}, {"name": "Oak Hill", "state": "WV", "lat": "37.9844", "lng": "-81.1277"}, {"name": "Big Chimney", "state": "WV", "lat": "38.4119", "lng": "-81.5374"}, {"name": "Lavalette", "state": "WV", "lat": "38.3224", "lng": "-82.4479"}, {"name": "Elkview", "state": "WV", "lat": "38.4327", "lng": "-81.4771"}, {"name": "Charlton Heights", "state": "WV", "lat": "38.1255", "lng": "-81.2333"}, {"name": "Shady Spring", "state": "WV", "lat": "37.7033", "lng": "-81.0912"}, {"name": "Point Pleasant", "state": "WV", "lat": "38.8529", "lng": "-82.1303"}, {"name": "Worthington", "state": "WV", "lat": "39.4568", "lng": "-80.2636"}, {"name": "Itmann", "state": "WV", "lat": "37.5734", "lng": "-81.4146"}, {"name": "Ravenswood", "state": "WV", "lat": "38.9561", "lng": "-81.7619"}, {"name": "Dixie", "state": "WV", "lat": "38.2510", "lng": "-81.1943"}, {"name": "Fort Gay", "state": "WV", "lat": "38.1203", "lng": "-82.5952"}, {"name": "Mineralwells", "state": "WV", "lat": "39.1807", "lng": "-81.5130"}, {"name": "Huntington", "state": "WV", "lat": "38.4109", "lng": "-82.4344"}, {"name": "Culloden", "state": "WV", "lat": "38.4159", "lng": "-82.0722"}, {"name": "Frank", "state": "WV", "lat": "38.5462", "lng": "-79.8080"}, {"name": "Despard", "state": "WV", "lat": "39.2874", "lng": "-80.3158"}, {"name": "Davis", "state": "WV", "lat": "39.1266", "lng": "-79.4609"}, {"name": "Covel", "state": "WV", "lat": "37.4906", "lng": "-81.3194"}, {"name": "East Bank", "state": "WV", "lat": "38.2153", "lng": "-81.4440"}, {"name": "Nitro", "state": "WV", "lat": "38.4119", "lng": "-81.8194"}, {"name": "Weirton", "state": "WV", "lat": "40.4060", "lng": "-80.5671"}, {"name": "Camden-on-Gauley", "state": "WV", "lat": "38.3686", "lng": "-80.5973"}, {"name": "Terra Alta", "state": "WV", "lat": "39.4442", "lng": "-79.5435"}, {"name": "Huntersville", "state": "WV", "lat": "38.1859", "lng": "-80.0152"}, {"name": "Williamson", "state": "WV", "lat": "37.6741", "lng": "-82.2710"}, {"name": "Stollings", "state": "WV", "lat": "37.8409", "lng": "-81.9624"}, {"name": "Pratt", "state": "WV", "lat": "38.2082", "lng": "-81.3868"}, {"name": "Parkersburg", "state": "WV", "lat": "39.2624", "lng": "-81.5419"}, {"name": "Montgomery", "state": "WV", "lat": "38.1741", "lng": "-81.3241"}, {"name": "Pentress", "state": "WV", "lat": "39.7101", "lng": "-80.1685"}, {"name": "Spelter", "state": "WV", "lat": "39.3431", "lng": "-80.3163"}, {"name": "Ceredo", "state": "WV", "lat": "38.3951", "lng": "-82.5540"}, {"name": "Cassville", "state": "WV", "lat": "39.6750", "lng": "-80.0678"}, {"name": "Littleton", "state": "WV", "lat": "39.7024", "lng": "-80.5147"}, {"name": "Crab Orchard", "state": "WV", "lat": "37.7410", "lng": "-81.2299"}, {"name": "Prichard", "state": "WV", "lat": "38.2362", "lng": "-82.6028"}, {"name": "Pageton", "state": "WV", "lat": "37.3599", "lng": "-81.4648"}, {"name": "Amherstdale", "state": "WV", "lat": "37.7799", "lng": "-81.8183"}, {"name": "New Cumberland", "state": "WV", "lat": "40.5072", "lng": "-80.6115"}, {"name": "Ansted", "state": "WV", "lat": "38.1357", "lng": "-81.1038"}, {"name": "Shepherdstown", "state": "WV", "lat": "39.4318", "lng": "-77.8048"}, {"name": "Craigsville", "state": "WV", "lat": "38.3246", "lng": "-80.6450"}, {"name": "Bowden", "state": "WV", "lat": "38.9092", "lng": "-79.7089"}, {"name": "Alum Creek", "state": "WV", "lat": "38.2876", "lng": "-81.8330"}, {"name": "Chelyan", "state": "WV", "lat": "38.1958", "lng": "-81.4928"}, {"name": "Richwood", "state": "WV", "lat": "38.2221", "lng": "-80.5363"}, {"name": "Gilbert", "state": "WV", "lat": "37.6142", "lng": "-81.8689"}, {"name": "Daniels", "state": "WV", "lat": "37.7240", "lng": "-81.1267"}, {"name": "Neibert", "state": "WV", "lat": "37.7861", "lng": "-81.9341"}, {"name": "Hooverson Heights", "state": "WV", "lat": "40.3190", "lng": "-80.5825"}, {"name": "Bergoo", "state": "WV", "lat": "38.4851", "lng": "-80.2981"}, {"name": "Kimball", "state": "WV", "lat": "37.4268", "lng": "-81.5078"}, {"name": "Rachel", "state": "WV", "lat": "39.5207", "lng": "-80.2997"}, {"name": "Ridgeley", "state": "WV", "lat": "39.6432", "lng": "-78.7711"}, {"name": "Hendricks", "state": "WV", "lat": "39.0754", "lng": "-79.6299"}, {"name": "Elkins", "state": "WV", "lat": "38.9237", "lng": "-79.8541"}, {"name": "Nutter Fort", "state": "WV", "lat": "39.2604", "lng": "-80.3265"}, {"name": "Grafton", "state": "WV", "lat": "39.3410", "lng": "-80.0161"}, {"name": "Kincaid", "state": "WV", "lat": "38.0381", "lng": "-81.2759"}, {"name": "Fort Ashby", "state": "WV", "lat": "39.4973", "lng": "-78.7646"}, {"name": "Star City", "state": "WV", "lat": "39.6587", "lng": "-79.9868"}, {"name": "McConnell", "state": "WV", "lat": "37.8282", "lng": "-81.9652"}, {"name": "Gypsy", "state": "WV", "lat": "39.3648", "lng": "-80.3070"}, {"name": "Galloway", "state": "WV", "lat": "39.2339", "lng": "-80.1277"}, {"name": "Montcalm", "state": "WV", "lat": "37.3516", "lng": "-81.2515"}, {"name": "Hurricane", "state": "WV", "lat": "38.4294", "lng": "-82.0169"}, {"name": "Keystone", "state": "WV", "lat": "37.4158", "lng": "-81.4463"}, {"name": "Valley Head", "state": "WV", "lat": "38.5472", "lng": "-80.0320"}, {"name": "White Hall", "state": "WV", "lat": "39.4239", "lng": "-80.1889"}, {"name": "Great Cacapon", "state": "WV", "lat": "39.6144", "lng": "-78.2857"}, {"name": "McMechen", "state": "WV", "lat": "39.9854", "lng": "-80.7335"}, {"name": "St. Marys", "state": "WV", "lat": "39.4023", "lng": "-81.1951"}, {"name": "Van", "state": "WV", "lat": "37.9713", "lng": "-81.7138"}, {"name": "Coal City", "state": "WV", "lat": "37.6776", "lng": "-81.2180"}, {"name": "Sarah Ann", "state": "WV", "lat": "37.7086", "lng": "-81.9881"}, {"name": "Bud", "state": "WV", "lat": "37.5329", "lng": "-81.3821"}, {"name": "Falls View", "state": "WV", "lat": "38.1297", "lng": "-81.2539"}, {"name": "Addison", "state": "WV", "lat": "38.4782", "lng": "-80.4082"}, {"name": "Romney", "state": "WV", "lat": "39.3454", "lng": "-78.7564"}, {"name": "Weston", "state": "WV", "lat": "39.0390", "lng": "-80.4616"}, {"name": "Sistersville", "state": "WV", "lat": "39.5599", "lng": "-80.9987"}, {"name": "Jacksonburg", "state": "WV", "lat": "39.5304", "lng": "-80.6404"}, {"name": "Fenwick", "state": "WV", "lat": "38.2288", "lng": "-80.5805"}, {"name": "Rivesville", "state": "WV", "lat": "39.5319", "lng": "-80.1205"}, {"name": "Davy", "state": "WV", "lat": "37.4759", "lng": "-81.6474"}, {"name": "Montrose", "state": "WV", "lat": "39.0674", "lng": "-79.8144"}, {"name": "Brush Fork", "state": "WV", "lat": "37.2805", "lng": "-81.2450"}]