[{"name": "Whiting", "state": "WY", "lat": "42.0089", "lng": "-104.9711"}, {"name": "Hawk Springs", "state": "WY", "lat": "41.7852", "lng": "-104.2650"}, {"name": "Laramie", "state": "WY", "lat": "41.3099", "lng": "-105.6085"}, {"name": "Lonetree", "state": "WY", "lat": "41.0273", "lng": "-110.1536"}, {"name": "Cody", "state": "WY", "lat": "44.5212", "lng": "-109.0550"}, {"name": "Y-O Ranch", "state": "WY", "lat": "42.0351", "lng": "-104.9230"}, {"name": "Afton", "state": "WY", "lat": "42.7279", "lng": "-110.9314"}, {"name": "Kemmerer", "state": "WY", "lat": "41.7761", "lng": "-110.5555"}, {"name": "Burlington", "state": "WY", "lat": "44.4471", "lng": "-108.4320"}, {"name": "Midwest", "state": "WY", "lat": "43.4114", "lng": "-106.2771"}, {"name": "Fort Washakie", "state": "WY", "lat": "43.0069", "lng": "-108.9205"}, {"name": "Antelope Hills", "state": "WY", "lat": "43.0813", "lng": "-106.3117"}, {"name": "Boulder Flats", "state": "WY", "lat": "42.9156", "lng": "-108.7993"}, {"name": "North Rock Springs", "state": "WY", "lat": "41.6698", "lng": "-109.2714"}, {"name": "James Town", "state": "WY", "lat": "41.5651", "lng": "-109.5391"}, {"name": "Pinedale", "state": "WY", "lat": "42.8676", "lng": "-109.8707"}, {"name": "Edgerton", "state": "WY", "lat": "43.4141", "lng": "-106.2477"}, {"name": "Alpine", "state": "WY", "lat": "43.1608", "lng": "-111.0185"}, {"name": "Turnerville", "state": "WY", "lat": "42.8622", "lng": "-110.9007"}, {"name": "Pine Haven", "state": "WY", "lat": "44.3534", "lng": "-104.8104"}, {"name": "Grover", "state": "WY", "lat": "42.7947", "lng": "-110.9294"}, {"name": "Slater", "state": "WY", "lat": "41.8776", "lng": "-104.7887"}, {"name": "Alta", "state": "WY", "lat": "43.7737", "lng": "-111.0312"}, {"name": "Glenrock", "state": "WY", "lat": "42.8565", "lng": "-105.8624"}, {"name": "Van Tassell", "state": "WY", "lat": "42.6643", "lng": "-104.0913"}, {"name": "Hudson", "state": "WY", "lat": "42.9028", "lng": "-108.5819"}, {"name": "Robertson", "state": "WY", "lat": "41.1816", "lng": "-110.4274"}, {"name": "Lander", "state": "WY", "lat": "42.8313", "lng": "-108.7599"}, {"name": "Rolling Hills", "state": "WY", "lat": "42.9035", "lng": "-105.8432"}, {"name": "Alcova", "state": "WY", "lat": "42.5543", "lng": "-106.7263"}, {"name": "Cokeville", "state": "WY", "lat": "42.0712", "lng": "-110.9598"}, {"name": "Arrowhead Springs", "state": "WY", "lat": "41.5081", "lng": "-109.1551"}, {"name": "Bedford", "state": "WY", "lat": "42.8983", "lng": "-110.9432"}, {"name": "Farson", "state": "WY", "lat": "42.1528", "lng": "-109.4282"}, {"name": "Purple Sage", "state": "WY", "lat": "41.5515", "lng": "-109.3199"}, {"name": "Osage", "state": "WY", "lat": "43.9847", "lng": "-104.4268"}, {"name": "Medicine Bow", "state": "WY", "lat": "41.8995", "lng": "-106.2017"}, {"name": "Lost Springs", "state": "WY", "lat": "42.7652", "lng": "-104.9255"}, {"name": "Sundance", "state": "WY", "lat": "44.4048", "lng": "-104.3624"}, {"name": "Little America", "state": "WY", "lat": "41.5470", "lng": "-109.8642"}, {"name": "Smoot", "state": "WY", "lat": "42.6191", "lng": "-110.9197"}, {"name": "Hulett", "state": "WY", "lat": "44.6828", "lng": "-104.5982"}, {"name": "Bear River", "state": "WY", "lat": "41.3859", "lng": "-111.0271"}, {"name": "Bairoil", "state": "WY", "lat": "42.2372", "lng": "-107.5611"}, {"name": "Rock River", "state": "WY", "lat": "41.7317", "lng": "-105.9752"}, {"name": "Auburn", "state": "WY", "lat": "42.7944", "lng": "-111.0135"}, {"name": "Sinclair", "state": "WY", "lat": "41.7761", "lng": "-107.1199"}, {"name": "Superior", "state": "WY", "lat": "41.7595", "lng": "-108.9642"}, {"name": "Oakley", "state": "WY", "lat": "41.7510", "lng": "-110.5261"}, {"name": "Deaver", "state": "WY", "lat": "44.8890", "lng": "-108.5960"}, {"name": "Cheyenne", "state": "WY", "lat": "41.1405", "lng": "-104.7927"}, {"name": "Big Piney", "state": "WY", "lat": "42.5401", "lng": "-110.1192"}, {"name": "Parkman", "state": "WY", "lat": "44.9488", "lng": "-107.3077"}, {"name": "Encampment", "state": "WY", "lat": "41.2088", "lng": "-106.7948"}, {"name": "Big Horn", "state": "WY", "lat": "44.6791", "lng": "-106.9971"}, {"name": "Fort Laramie", "state": "WY", "lat": "42.2134", "lng": "-104.5178"}, {"name": "Jackson", "state": "WY", "lat": "43.4721", "lng": "-110.7745"}, {"name": "Douglas", "state": "WY", "lat": "42.7541", "lng": "-105.3968"}, {"name": "Daniel", "state": "WY", "lat": "42.8658", "lng": "-110.0767"}, {"name": "Ethete", "state": "WY", "lat": "43.0008", "lng": "-108.7230"}, {"name": "Fontenelle", "state": "WY", "lat": "41.9973", "lng": "-110.0626"}, {"name": "Jeffrey City", "state": "WY", "lat": "42.4808", "lng": "-107.8256"}, {"name": "Owl Creek", "state": "WY", "lat": "43.7819", "lng": "-108.5679"}, {"name": "Torrington", "state": "WY", "lat": "42.0658", "lng": "-104.1623"}, {"name": "Arlington", "state": "WY", "lat": "41.6052", "lng": "-106.1997"}, {"name": "Hill View Heights", "state": "WY", "lat": "43.8159", "lng": "-104.1517"}, {"name": "Lucerne", "state": "WY", "lat": "43.7136", "lng": "-108.1872"}, {"name": "Wamsutter", "state": "WY", "lat": "41.6679", "lng": "-107.9790"}, {"name": "Story", "state": "WY", "lat": "44.5731", "lng": "-106.9142"}, {"name": "Urie", "state": "WY", "lat": "41.3089", "lng": "-110.3352"}, {"name": "Pavillion", "state": "WY", "lat": "43.2440", "lng": "-108.6888"}, {"name": "Evansville", "state": "WY", "lat": "42.8680", "lng": "-106.2525"}, {"name": "Bessemer Bend", "state": "WY", "lat": "42.7576", "lng": "-106.5237"}, {"name": "Shell", "state": "WY", "lat": "44.5346", "lng": "-107.7843"}, {"name": "Veteran", "state": "WY", "lat": "41.9627", "lng": "-104.3863"}, {"name": "Meeteetse", "state": "WY", "lat": "44.1543", "lng": "-108.8609"}, {"name": "Hartville", "state": "WY", "lat": "42.3277", "lng": "-104.7245"}, {"name": "Yoder", "state": "WY", "lat": "41.9170", "lng": "-104.2953"}, {"name": "Hyattville", "state": "WY", "lat": "44.2498", "lng": "-107.6149"}, {"name": "Ryan Park", "state": "WY", "lat": "41.3130", "lng": "-106.4895"}, {"name": "Homa Hills", "state": "WY", "lat": "42.9856", "lng": "-106.3719"}, {"name": "Wilson", "state": "WY", "lat": "43.4860", "lng": "-110.8937"}, {"name": "Chugcreek", "state": "WY", "lat": "42.0535", "lng": "-104.9079"}, {"name": "Mills", "state": "WY", "lat": "42.8473", "lng": "-106.3818"}, {"name": "Brookhurst", "state": "WY", "lat": "42.8618", "lng": "-106.2272"}, {"name": "Reliance", "state": "WY", "lat": "41.6682", "lng": "-109.1977"}, {"name": "Washam", "state": "WY", "lat": "41.0056", "lng": "-109.6992"}, {"name": "Meadow Acres", "state": "WY", "lat": "42.8593", "lng": "-106.0953"}, {"name": "Manville", "state": "WY", "lat": "42.7794", "lng": "-104.6174"}, {"name": "Hanna", "state": "WY", "lat": "41.8698", "lng": "-106.5596"}, {"name": "Huntley", "state": "WY", "lat": "41.9316", "lng": "-104.1437"}, {"name": "Mammoth", "state": "WY", "lat": "44.9733", "lng": "-110.6930"}, {"name": "Point of Rocks", "state": "WY", "lat": "41.6831", "lng": "-108.7755"}, {"name": "Chugwater", "state": "WY", "lat": "41.7557", "lng": "-104.8229"}, {"name": "Ten Sleep", "state": "WY", "lat": "44.0347", "lng": "-107.4480"}, {"name": "Thermopolis", "state": "WY", "lat": "43.6479", "lng": "-108.2139"}, {"name": "Hartrandt", "state": "WY", "lat": "42.8836", "lng": "-106.3492"}, {"name": "East Thermopolis", "state": "WY", "lat": "43.6441", "lng": "-108.1979"}, {"name": "Boulder", "state": "WY", "lat": "42.7462", "lng": "-109.7068"}, {"name": "Ralston", "state": "WY", "lat": "44.7085", "lng": "-108.8823"}, {"name": "Fairview", "state": "WY", "lat": "42.6871", "lng": "-110.9866"}, {"name": "Lance Creek", "state": "WY", "lat": "43.0410", "lng": "-104.6626"}, {"name": "Thayne", "state": "WY", "lat": "42.9192", "lng": "-110.9968"}, {"name": "Atlantic City", "state": "WY", "lat": "42.5012", "lng": "-108.7330"}, {"name": "Byron", "state": "WY", "lat": "44.7963", "lng": "-108.5082"}, {"name": "Ranchettes", "state": "WY", "lat": "41.2185", "lng": "-104.7728"}, {"name": "Ranchester", "state": "WY", "lat": "44.9075", "lng": "-107.1676"}, {"name": "Westview Circle", "state": "WY", "lat": "42.0606", "lng": "-105.0715"}, {"name": "Worland", "state": "WY", "lat": "44.0026", "lng": "-107.9543"}, {"name": "Carter", "state": "WY", "lat": "41.4404", "lng": "-110.4304"}, {"name": "Etna", "state": "WY", "lat": "43.0334", "lng": "-111.0129"}, {"name": "Saratoga", "state": "WY", "lat": "41.4517", "lng": "-106.8107"}, {"name": "Diamondville", "state": "WY", "lat": "41.7771", "lng": "-110.5357"}, {"name": "Opal", "state": "WY", "lat": "41.7678", "lng": "-110.3244"}, {"name": "Hillsdale", "state": "WY", "lat": "41.2080", "lng": "-104.4744"}, {"name": "Clearmont", "state": "WY", "lat": "44.6397", "lng": "-106.3814"}, {"name": "Manderson", "state": "WY", "lat": "44.2699", "lng": "-107.9641"}, {"name": "Cowley", "state": "WY", "lat": "44.8833", "lng": "-108.4695"}, {"name": "Wheatland", "state": "WY", "lat": "42.0516", "lng": "-104.9595"}, {"name": "Orin", "state": "WY", "lat": "42.6506", "lng": "-105.1824"}, {"name": "Gillette", "state": "WY", "lat": "44.2752", "lng": "-105.4984"}, {"name": "Lovell", "state": "WY", "lat": "44.8358", "lng": "-108.3918"}, {"name": "Basin", "state": "WY", "lat": "44.3804", "lng": "-108.0466"}, {"name": "Bar Nunn", "state": "WY", "lat": "42.9220", "lng": "-106.3475"}, {"name": "Green River", "state": "WY", "lat": "41.5124", "lng": "-109.4708"}, {"name": "Sheridan", "state": "WY", "lat": "44.7962", "lng": "-106.9643"}, {"name": "Shoshoni", "state": "WY", "lat": "43.2380", "lng": "-108.1068"}, {"name": "Eden", "state": "WY", "lat": "42.0601", "lng": "-109.4391"}, {"name": "Lusk", "state": "WY", "lat": "42.7612", "lng": "-104.4583"}, {"name": "Centennial", "state": "WY", "lat": "41.3005", "lng": "-106.1355"}, {"name": "Albany", "state": "WY", "lat": "41.1868", "lng": "-106.1255"}, {"name": "Greybull", "state": "WY", "lat": "44.4887", "lng": "-108.0592"}, {"name": "Powell", "state": "WY", "lat": "44.7963", "lng": "-108.7682"}, {"name": "Powder River", "state": "WY", "lat": "43.0490", "lng": "-106.9932"}, {"name": "Albin", "state": "WY", "lat": "41.4172", "lng": "-104.1016"}, {"name": "Nordic", "state": "WY", "lat": "43.0793", "lng": "-110.9913"}, {"name": "Guernsey", "state": "WY", "lat": "42.2657", "lng": "-104.7430"}, {"name": "Kelly", "state": "WY", "lat": "43.6228", "lng": "-110.6275"}, {"name": "Alpine Northeast", "state": "WY", "lat": "43.1940", "lng": "-111.0073"}, {"name": "Lingle", "state": "WY", "lat": "42.1388", "lng": "-104.3461"}, {"name": "La Barge", "state": "WY", "lat": "42.2605", "lng": "-110.1971"}, {"name": "Elk Mountain", "state": "WY", "lat": "41.6883", "lng": "-106.4135"}, {"name": "Casper", "state": "WY", "lat": "42.8420", "lng": "-106.3207"}, {"name": "Upton", "state": "WY", "lat": "44.1025", "lng": "-104.6374"}, {"name": "Mountain View", "state": "WY", "lat": "41.2723", "lng": "-110.3344"}, {"name": "Evanston", "state": "WY", "lat": "41.2602", "lng": "-110.9646"}, {"name": "Wright", "state": "WY", "lat": "43.7484", "lng": "-105.4963"}, {"name": "Dixon", "state": "WY", "lat": "41.0346", "lng": "-107.5357"}, {"name": "Riverside", "state": "WY", "lat": "41.2154", "lng": "-106.7813"}, {"name": "Marbleton", "state": "WY", "lat": "42.5574", "lng": "-110.1005"}, {"name": "Kirby", "state": "WY", "lat": "43.8032", "lng": "-108.1810"}, {"name": "Newcastle", "state": "WY", "lat": "43.8510", "lng": "-104.2125"}, {"name": "Arapahoe", "state": "WY", "lat": "42.9912", "lng": "-108.4562"}, {"name": "Burns", "state": "WY", "lat": "41.1909", "lng": "-104.3590"}, {"name": "Moorcroft", "state": "WY", "lat": "44.2646", "lng": "-104.9476"}, {"name": "Fox Farm-College", "state": "WY", "lat": "41.1105", "lng": "-104.7870"}, {"name": "Warren AFB", "state": "WY", "lat": "41.1488", "lng": "-104.8618"}, {"name": "Woods Landing-Jelm", "state": "WY", "lat": "41.1014", "lng": "-106.0288"}, {"name": "South Greeley", "state": "WY", "lat": "41.0931", "lng": "-104.8066"}, {"name": "Moose Wilson Road", "state": "WY", "lat": "43.5315", "lng": "-110.8340"}, {"name": "Lakeview North", "state": "WY", "lat": "42.0969", "lng": "-104.9586"}, {"name": "Dayton", "state": "WY", "lat": "44.8733", "lng": "-107.2625"}, {"name": "Vista West", "state": "WY", "lat": "42.8619", "lng": "-106.4361"}, {"name": "Crowheart", "state": "WY", "lat": "43.3398", "lng": "-109.2298"}, {"name": "Clearview Acres", "state": "WY", "lat": "41.5842", "lng": "-109.2801"}, {"name": "Cora", "state": "WY", "lat": "42.9576", "lng": "-109.9916"}, {"name": "Teton Village", "state": "WY", "lat": "43.5931", "lng": "-110.8441"}, {"name": "Johnstown", "state": "WY", "lat": "43.1118", "lng": "-108.6955"}, {"name": "Lyman", "state": "WY", "lat": "41.3275", "lng": "-110.2975"}, {"name": "Freedom", "state": "WY", "lat": "42.9854", "lng": "-111.0296"}, {"name": "Casper Mountain", "state": "WY", "lat": "42.7449", "lng": "-106.3206"}, {"name": "South Park", "state": "WY", "lat": "43.4235", "lng": "-110.7993"}, {"name": "Bondurant", "state": "WY", "lat": "43.1948", "lng": "-110.4026"}, {"name": "Dubois", "state": "WY", "lat": "43.5389", "lng": "-109.6443"}, {"name": "Alpine Northwest", "state": "WY", "lat": "43.1805", "lng": "-111.0333"}, {"name": "Osmond", "state": "WY", "lat": "42.6779", "lng": "-110.9406"}, {"name": "Baggs", "state": "WY", "lat": "41.0345", "lng": "-107.6574"}, {"name": "Frannie", "state": "WY", "lat": "44.9710", "lng": "-108.6205"}, {"name": "Arvada", "state": "WY", "lat": "44.6621", "lng": "-106.1419"}, {"name": "La Grange", "state": "WY", "lat": "41.6384", "lng": "-104.1630"}, {"name": "Esterbrook", "state": "WY", "lat": "42.4061", "lng": "-105.3858"}, {"name": "Table Rock", "state": "WY", "lat": "41.6220", "lng": "-108.4040"}, {"name": "Sleepy Hollow", "state": "WY", "lat": "44.2327", "lng": "-105.4309"}, {"name": "Granger", "state": "WY", "lat": "41.5970", "lng": "-109.9627"}, {"name": "Rawlins", "state": "WY", "lat": "41.7849", "lng": "-107.2265"}, {"name": "Rafter J Ranch", "state": "WY", "lat": "43.4317", "lng": "-110.7922"}, {"name": "Riverton", "state": "WY", "lat": "43.0425", "lng": "-108.4142"}, {"name": "Hoback", "state": "WY", "lat": "43.3082", "lng": "-110.7443"}, {"name": "Glendo", "state": "WY", "lat": "42.5048", "lng": "-105.0249"}, {"name": "Kaycee", "state": "WY", "lat": "43.7100", "lng": "-106.6371"}, {"name": "Taylor", "state": "WY", "lat": "42.0703", "lng": "-110.9899"}, {"name": "McKinnon", "state": "WY", "lat": "41.0313", "lng": "-109.9384"}, {"name": "Pine Bluffs", "state": "WY", "lat": "41.1803", "lng": "-104.0692"}, {"name": "Rock Springs", "state": "WY", "lat": "41.5951", "lng": "-109.2237"}, {"name": "Fort Bridger", "state": "WY", "lat": "41.3183", "lng": "-110.3893"}, {"name": "Garland", "state": "WY", "lat": "44.7777", "lng": "-108.6542"}, {"name": "Carpenter", "state": "WY", "lat": "41.0456", "lng": "-104.3644"}, {"name": "Red Butte", "state": "WY", "lat": "42.8051", "lng": "-106.4340"}, {"name": "Beulah", "state": "WY", "lat": "44.5460", "lng": "-104.0826"}, {"name": "Star Valley Ranch", "state": "WY", "lat": "42.9796", "lng": "-110.9620"}, {"name": "Buffalo", "state": "WY", "lat": "44.3426", "lng": "-106.7139"}]